[
  {
    "Name": "Park Plaza Mall",
    "Address1": "6000 W Markham Street",
    "Address2": null,
    "City": "Little Rock",
    "State": "AR",
    "Postal": "72205",
    "Latitude": 34.7464,
    "Longitude": -92.2894
  },
  {
    "Name": "Collin Creek",
    "Address1": "811 North Central Expressway",
    "Address2": null,
    "City": "Plano",
    "State": "TX",
    "Postal": "75075",
    "Latitude": 33.0197,
    "Longitude": -96.6986
  },
  {
    "Name": "Golden Triangle Mall",
    "Address1": "2201 I-35E",
    "Address2": null,
    "City": "Denton",
    "State": "TX",
    "Postal": "76205",
    "Latitude": 33.2147,
    "Longitude": -97.1328
  },
  {
    "Name": "Central Mall  ",
    "Address1": "23 Central Mall",
    "Address2": null,
    "City": "Texarkana",
    "State": "TX",
    "Postal": "75503",
    "Latitude": 33.425,
    "Longitude": -94.0475
  },
  {
    "Name": "Dallas Galleria",
    "Address1": "13350 Dallas Parkway",
    "Address2": null,
    "City": "Dallas",
    "State": "TX",
    "Postal": "75240",
    "Latitude": 32.7833,
    "Longitude": -96.8
  },
  {
    "Name": "Firewheel Town Center",
    "Address1": "365 Cedar Sage Drive",
    "Address2": null,
    "City": "Garland",
    "State": "TX",
    "Postal": "75040",
    "Latitude": 32.9125,
    "Longitude": -96.6386
  },
  {
    "Name": "Hot Springs Mall",
    "Address1": "4501 Central Ave",
    "Address2": null,
    "City": "Hot Springs",
    "State": "AR",
    "Postal": "71913",
    "Latitude": 34.5789,
    "Longitude": -93.1469
  },
  {
    "Name": "Northpark  ",
    "Address1": "8687 North Central Expressway",
    "Address2": null,
    "City": "Dallas",
    "State": "TX",
    "Postal": "75225",
    "Latitude": 32.7833,
    "Longitude": -96.8
  },
  {
    "Name": "Willowbend",
    "Address1": "6121 West Park Blvd",
    "Address2": null,
    "City": "Plano",
    "State": "TX",
    "Postal": "75093",
    "Latitude": 33.0197,
    "Longitude": -96.6986
  },
  {
    "Name": "Allen Premium Outlets",
    "Address1": "820 West Stacy Road",
    "Address2": null,
    "City": "Allen",
    "State": "TX",
    "Postal": "75013",
    "Latitude": 33.1031,
    "Longitude": -96.6703
  },
  {
    "Name": "McCain Mall",
    "Address1": "3929 McCain Blvd",
    "Address2": null,
    "City": "N Little Rock",
    "State": "AR",
    "Postal": "72116",
    "Latitude": 35.0007,
    "Longitude": -92.3148
  },
  {
    "Name": "Post Oak Mall",
    "Address1": "1500 Harvey Road",
    "Address2": null,
    "City": "College Station",
    "State": "TX",
    "Postal": "77840",
    "Latitude": 30.6278,
    "Longitude": -96.3342
  },
  {
    "Name": "Memorial City Mall",
    "Address1": "303 Memorial City Mall",
    "Address2": null,
    "City": "Houston",
    "State": "TX",
    "Postal": "77027",
    "Latitude": 31.3589,
    "Longitude": -95.5029
  },
  {
    "Name": "Deerbrook Mall",
    "Address1": "20131 Highway 59 North",
    "Address2": null,
    "City": "Humble",
    "State": "TX",
    "Postal": "77338",
    "Latitude": 29.9986,
    "Longitude": -95.2619
  },
  {
    "Name": "Parkdale Mall",
    "Address1": "6155 Eastex Freeway",
    "Address2": null,
    "City": "Beaumont",
    "State": "TX",
    "Postal": "77706",
    "Latitude": 30.0858,
    "Longitude": -94.1017
  },
  {
    "Name": "The Galleria  ",
    "Address1": "5135 W Alabama Street",
    "Address2": null,
    "City": "Houston",
    "State": "TX",
    "Postal": "77056",
    "Latitude": 31.3589,
    "Longitude": -95.5029
  },
  {
    "Name": "Woodlands Mall",
    "Address1": "1201 Lake Woodlands Drive",
    "Address2": null,
    "City": "The Woodlands",
    "State": "TX",
    "Postal": "77380",
    "Latitude": 30.1578,
    "Longitude": -95.4892
  },
  {
    "Name": "West Oaks Mall  ",
    "Address1": "1000 West Oaks Mall",
    "Address2": null,
    "City": "Houston",
    "State": "TX",
    "Postal": "77082",
    "Latitude": 31.3589,
    "Longitude": -95.5029
  },
  {
    "Name": "Willowbrook Mall ",
    "Address1": "1028 Willowbrook Mall",
    "Address2": null,
    "City": "Houston",
    "State": "TX",
    "Postal": "77070",
    "Latitude": 31.3589,
    "Longitude": -95.5029
  },
  {
    "Name": "Houston Premium Outlet",
    "Address1": "29300 Hempstead Road",
    "Address2": null,
    "City": "Houston",
    "State": "TX",
    "Postal": "77433",
    "Latitude": 31.3589,
    "Longitude": -95.5029
  },
  {
    "Name": "Independence Center",
    "Address1": "18801 E 39th Street South",
    "Address2": null,
    "City": "Independence",
    "State": "MO",
    "Postal": "64057",
    "Latitude": 39.0911,
    "Longitude": -94.4153
  },
  {
    "Name": "Central Mall ",
    "Address1": "5111 Rogers Avenue",
    "Address2": null,
    "City": "Fort Smith",
    "State": "AR",
    "Postal": "72903",
    "Latitude": 35.0007,
    "Longitude": -92.3148
  },
  {
    "Name": "Northpark Mall",
    "Address1": "101 N Rangeline Road",
    "Address2": null,
    "City": "Joplin",
    "State": "MO",
    "Postal": "64801",
    "Latitude": 37.0555,
    "Longitude": -94.3397
  },
  {
    "Name": "Columbia Mall  ",
    "Address1": "2300 Bernadette Drive",
    "Address2": null,
    "City": "Columbia",
    "State": "MO",
    "Postal": "65203",
    "Latitude": 38.9899,
    "Longitude": -92.3102
  },
  {
    "Name": "Battlefield Mall",
    "Address1": "2825 South Glenstone",
    "Address2": null,
    "City": "Springfield",
    "State": "MO",
    "Postal": "65804",
    "Latitude": 37.3609,
    "Longitude": -93.1802
  },
  {
    "Name": "Zona Rosa",
    "Address1": "7116 Northwest 86 Terrace",
    "Address2": null,
    "City": "Kansas City",
    "State": "MO",
    "Postal": "64153",
    "Latitude": 39.0997,
    "Longitude": -94.5783
  },
  {
    "Name": "Osage Beach Premium Outlets",
    "Address1": "4540 Highway 54",
    "Address2": null,
    "City": "Osage Beach",
    "State": "MO",
    "Postal": "65065",
    "Latitude": 38.1503,
    "Longitude": -92.6178
  },
  {
    "Name": "Northwest Arkansas Mall",
    "Address1": "4201 North Shiloh Drive",
    "Address2": null,
    "City": "Fayetteville",
    "State": "AR",
    "Postal": "72703",
    "Latitude": 36.0625,
    "Longitude": -94.1572
  },
  {
    "Name": "The Legends at Village West",
    "Address1": "1837 VillageWEst Parkway",
    "Address2": null,
    "City": "Kansas City",
    "State": "KS",
    "Postal": "66109",
    "Latitude": 39.1142,
    "Longitude": -94.6272
  },
  {
    "Name": "Branson Landing",
    "Address1": "409 Branson Landing",
    "Address2": null,
    "City": "Branson",
    "State": "MO",
    "Postal": "65616",
    "Latitude": 36.6436,
    "Longitude": -93.2183
  },
  {
    "Name": "Oak Park Mall",
    "Address1": "11401 West 95th Street",
    "Address2": null,
    "City": "Overland Park",
    "State": "KS",
    "Postal": "66214",
    "Latitude": 38.9822,
    "Longitude": -94.6706
  },
  {
    "Name": "Pinnacle Hills Promenade",
    "Address1": "2203 South 45th Street",
    "Address2": null,
    "City": "Rogers",
    "State": "AR",
    "Postal": "72758",
    "Latitude": 36.3319,
    "Longitude": -94.1183
  },
  {
    "Name": "Towne East Square",
    "Address1": "7700 E Kellogg Drive, Suite 745",
    "Address2": null,
    "City": "Wichita",
    "State": "KS",
    "Postal": "67207",
    "Latitude": 38.4857,
    "Longitude": -101.3634
  },
  {
    "Name": "Grapevine Mills",
    "Address1": "3000 Grapevine Mills Parkway",
    "Address2": null,
    "City": "Grapevine",
    "State": "TX",
    "Postal": "76051",
    "Latitude": 32.9342,
    "Longitude": -97.0778
  },
  {
    "Name": "Towne West Square",
    "Address1": "4600 West Kellogg",
    "Address2": null,
    "City": "Wichita",
    "State": "KS",
    "Postal": "67209",
    "Latitude": 38.4857,
    "Longitude": -101.3634
  },
  {
    "Name": "Vista Ridge",
    "Address1": "2401 South Stemmons Freeway",
    "Address2": null,
    "City": "Lewisville",
    "State": "TX",
    "Postal": "75067",
    "Latitude": 33.0461,
    "Longitude": -96.9939
  },
  {
    "Name": "Mall at St Vincent",
    "Address1": "1133 St Vincent Avenue",
    "Address2": null,
    "City": "Shreveport",
    "State": "LA",
    "Postal": "71104",
    "Latitude": 32.525,
    "Longitude": -93.75
  },
  {
    "Name": "Broadway Square",
    "Address1": "4601 South Broadway ",
    "Address2": null,
    "City": "Tyler",
    "State": "TX",
    "Postal": "75703",
    "Latitude": 30.7655,
    "Longitude": -94.3829
  },
  {
    "Name": "Longview Mall",
    "Address1": "3500 McCann Road",
    "Address2": null,
    "City": "Longview",
    "State": "TX",
    "Postal": "75605",
    "Latitude": 32.3646,
    "Longitude": -94.8199
  },
  {
    "Name": "Stonebriar Mall",
    "Address1": "2601 Preston Road",
    "Address2": null,
    "City": "Frisco",
    "State": "TX",
    "Postal": "75034",
    "Latitude": 33.1506,
    "Longitude": -96.8233
  },
  {
    "Name": "Pierre Bossier",
    "Address1": "2950 East Texas Street",
    "Address2": null,
    "City": "Bossier City",
    "State": "LA",
    "Postal": "71111",
    "Latitude": 32.5158,
    "Longitude": -93.7319
  },
  {
    "Name": "Irving Mall",
    "Address1": "3732 Irving Mall Dr",
    "Address2": null,
    "City": "Irving",
    "State": "TX",
    "Postal": "75062",
    "Latitude": 32.8139,
    "Longitude": -96.9486
  },
  {
    "Name": "Mall of Louisiana",
    "Address1": "6401 Blue Bonnet",
    "Address2": null,
    "City": "Baton Rouge",
    "State": "LA",
    "Postal": "70836",
    "Latitude": 30.5709,
    "Longitude": -91.1345
  },
  {
    "Name": "Pecanland",
    "Address1": "4700 Milhaven Road",
    "Address2": null,
    "City": "Monroe",
    "State": "LA",
    "Postal": "71203",
    "Latitude": 32.6905,
    "Longitude": -92.2628
  },
  {
    "Name": "Acadiana Mall",
    "Address1": "5725 Johnston Street",
    "Address2": null,
    "City": "Lafayette",
    "State": "LA",
    "Postal": "70503",
    "Latitude": 29.9578,
    "Longitude": -92.0493
  },
  {
    "Name": "Southland Mall ",
    "Address1": "5953 West Park Avenue",
    "Address2": null,
    "City": "Houma",
    "State": "LA",
    "Postal": "70364",
    "Latitude": 29.5956,
    "Longitude": -90.7194
  },
  {
    "Name": "Alexandria Mall",
    "Address1": "3437 Masonic Drive",
    "Address2": null,
    "City": "Alexandria",
    "State": "LA",
    "Postal": "71301",
    "Latitude": 31.3253,
    "Longitude": -92.5469
  },
  {
    "Name": "Lakeside Mall  ",
    "Address1": "3301 Veterans Memorial Blvd",
    "Address2": null,
    "City": "Metairie",
    "State": "LA",
    "Postal": "70002",
    "Latitude": 29.9839,
    "Longitude": -90.1528
  },
  {
    "Name": "Prien Lake Mall",
    "Address1": "616 West Prien Lake Road",
    "Address2": null,
    "City": "Lake Charles",
    "State": "LA",
    "Postal": "70601",
    "Latitude": 29.9788,
    "Longitude": -93.2532
  },
  {
    "Name": "Gonzales Outlet Center",
    "Address1": "2400 Tanger Blvd",
    "Address2": null,
    "City": "Gonzales",
    "State": "LA",
    "Postal": "70737",
    "Latitude": 30.2383,
    "Longitude": -90.92
  },
  {
    "Name": "Oakwood Center",
    "Address1": "197-33 W Bank Expressway",
    "Address2": null,
    "City": "Gretna",
    "State": "LA",
    "Postal": "70056",
    "Latitude": 29.9443513,
    "Longitude": -90.3037854
  },
  {
    "Name": "Colonial Mall Bel Aire",
    "Address1": "3449 Bel Air Mall",
    "Address2": null,
    "City": "Mobile",
    "State": "AL",
    "Postal": "36606",
    "Latitude": 30.6846,
    "Longitude": -88.1966
  },
  {
    "Name": "Cordova Mall",
    "Address1": "5100 North Nine Avenue",
    "Address2": null,
    "City": "Pensacola",
    "State": "FL",
    "Postal": "32504",
    "Latitude": 30.4211,
    "Longitude": -87.2169
  },
  {
    "Name": "Tanger Outlet Center Foley",
    "Address1": "2601 South Mckenzie",
    "Address2": null,
    "City": "Foley",
    "State": "AL",
    "Postal": "36535",
    "Latitude": 30.4064,
    "Longitude": -87.6836
  },
  {
    "Name": "Edgewater Mall",
    "Address1": "2600 Beach Boulevard",
    "Address2": null,
    "City": "Biloxi",
    "State": "MS",
    "Postal": "39531",
    "Latitude": 30.3958,
    "Longitude": -88.8853
  },
  {
    "Name": "Turtle Creek Mall",
    "Address1": "1000 Turtle Creek Drive",
    "Address2": null,
    "City": "Hattiesburg",
    "State": "MS",
    "Postal": "39402",
    "Latitude": 31.1884,
    "Longitude": -89.2327
  },
  {
    "Name": "Northshore Square",
    "Address1": "150 North Shore Blvd",
    "Address2": null,
    "City": "Slidell",
    "State": "LA",
    "Postal": "70460",
    "Latitude": 30.275,
    "Longitude": -89.7811
  },
  {
    "Name": "Eastern Shore Center",
    "Address1": "30500 State Highway 181",
    "Address2": null,
    "City": "Spanish Fort",
    "State": "AL",
    "Postal": "36527",
    "Latitude": 30.6747,
    "Longitude": -87.9153
  },
  {
    "Name": "Bonita Lakes",
    "Address1": "1050 Bonita Lake Circle",
    "Address2": null,
    "City": "Meridian",
    "State": "MS",
    "Postal": "39301",
    "Latitude": 32.3642,
    "Longitude": -88.7036
  },
  {
    "Name": "Gulfport Premium Outlets",
    "Address1": "10310 Factory Shops Blvd",
    "Address2": null,
    "City": "Gulfport",
    "State": "MS",
    "Postal": "39503",
    "Latitude": 30.3672,
    "Longitude": -89.0928
  },
  {
    "Name": "Premier Center",
    "Address1": "3424 Hwy 190",
    "Address2": null,
    "City": "Mandeville",
    "State": "LA",
    "Postal": "70471",
    "Latitude": 30.3581,
    "Longitude": -90.0656
  },
  {
    "Name": "Outlet Collection at Riverwalk",
    "Address1": "500 Port of New Orleans Place",
    "Address2": null,
    "City": "New Orleans",
    "State": "LA",
    "Postal": "70130",
    "Latitude": 29.9544,
    "Longitude": -90.075
  },
  {
    "Name": "Northpark ",
    "Address1": "1200 East County Line Road",
    "Address2": null,
    "City": "Ridgeland",
    "State": "MS",
    "Postal": "39157",
    "Latitude": 32.4283,
    "Longitude": -90.1322
  },
  {
    "Name": "Katy Mills",
    "Address1": "5000 Katy Mills Circle",
    "Address2": null,
    "City": "Katy",
    "State": "TX",
    "Postal": "77494",
    "Latitude": 29.7856,
    "Longitude": -95.8242
  },
  {
    "Name": "Baybrook Mall",
    "Address1": "1306 Baybrook Mall",
    "Address2": null,
    "City": "Friendswood",
    "State": "TX",
    "Postal": "77546",
    "Latitude": 29.5292,
    "Longitude": -95.2008
  },
  {
    "Name": "First Colony Mall",
    "Address1": "16535 Southwest Freeway",
    "Address2": null,
    "City": "Sugarland",
    "State": "TX",
    "Postal": "77479",
    "Latitude": 29.6194,
    "Longitude": -95.6347
  },
  {
    "Name": "Brazos Mall",
    "Address1": "100 Highway 332 West",
    "Address2": null,
    "City": "Lake Jackson",
    "State": "TX",
    "Postal": "77566",
    "Latitude": 29.0336,
    "Longitude": -95.4342
  },
  {
    "Name": "Pearland Town Center",
    "Address1": "11200 Broadway",
    "Address2": null,
    "City": "Pearland",
    "State": "TX",
    "Postal": "77584",
    "Latitude": 29.5633,
    "Longitude": -95.2858
  },
  {
    "Name": "Dogwood Festival",
    "Address1": "106 Dogwood Blvd",
    "Address2": null,
    "City": "Flowood",
    "State": "MS",
    "Postal": "39232",
    "Latitude": 32.3094,
    "Longitude": -90.1389
  },
  {
    "Name": "Tanger Outlet Texas City",
    "Address1": "5885 Gulf Freeway",
    "Address2": null,
    "City": "Texas City",
    "State": "TX",
    "Postal": "77591",
    "Latitude": 31.302,
    "Longitude": -97.6941
  },
  {
    "Name": "Outlets of Mississippi",
    "Address1": "200 Bass Pro Drive",
    "Address2": null,
    "City": "Pearl",
    "State": "MS",
    "Postal": "39208",
    "Latitude": 32.2744,
    "Longitude": -90.1319
  },
  {
    "Name": "Del Amo Mall",
    "Address1": "3525 Carson St",
    "Address2": null,
    "City": "Torrance",
    "State": "CA",
    "Postal": "90503",
    "Latitude": 33.8358,
    "Longitude": -118.3397
  },
  {
    "Name": "Los Cerritos Center",
    "Address1": "156 Los Cerritos Center",
    "Address2": null,
    "City": "Cerritos",
    "State": "CA",
    "Postal": "90703",
    "Latitude": 33.8583,
    "Longitude": -118.0639
  },
  {
    "Name": "Irvine Spectrum",
    "Address1": "613 Spectrum Center Drive",
    "Address2": null,
    "City": "Irvine",
    "State": "CA",
    "Postal": "92618",
    "Latitude": 33.6694,
    "Longitude": -117.8222
  },
  {
    "Name": "Main Place",
    "Address1": "2800 N Main Street",
    "Address2": null,
    "City": "Santa Ana",
    "State": "CA",
    "Postal": "92705",
    "Latitude": 36.9882,
    "Longitude": -120.1166
  },
  {
    "Name": "Lakewood Center",
    "Address1": "372 Lakewood Center",
    "Address2": null,
    "City": "Lakewood",
    "State": "CA",
    "Postal": "90712",
    "Latitude": 33.8536,
    "Longitude": -118.1331
  },
  {
    "Name": "Westminster Mall",
    "Address1": "2044A Westminster Mall",
    "Address2": null,
    "City": "Westminster",
    "State": "CA",
    "Postal": "92683",
    "Latitude": 33.7592,
    "Longitude": -118.0058
  },
  {
    "Name": "Outlets at Orange",
    "Address1": "20 City Blvd West",
    "Address2": null,
    "City": "Orange",
    "State": "CA",
    "Postal": "92868",
    "Latitude": 33.7878,
    "Longitude": -117.8522
  },
  {
    "Name": "Promenade at Temecula",
    "Address1": "40820 Winchester Rd",
    "Address2": null,
    "City": "Temecula ",
    "State": "CA",
    "Postal": "92591",
    "Latitude": 36.9882,
    "Longitude": -120.1166
  },
  {
    "Name": "South Bay Galleria",
    "Address1": "1815 Hawthorne Blvd",
    "Address2": null,
    "City": "Redondo Beach",
    "State": "CA",
    "Postal": "90278",
    "Latitude": 33.8492,
    "Longitude": -118.3875
  },
  {
    "Name": "Camarillo Premium Outlets",
    "Address1": "740 Ventura Blvd",
    "Address2": null,
    "City": "Camarillo",
    "State": "CA",
    "Postal": "93010",
    "Latitude": 34.2164,
    "Longitude": -119.0367
  },
  {
    "Name": "Northridge Fashion Center",
    "Address1": "9301 Tampa Ave",
    "Address2": null,
    "City": "Northridge",
    "State": "CA",
    "Postal": "91324",
    "Latitude": 34.2283,
    "Longitude": -118.5358
  },
  {
    "Name": "Glendale Galleria",
    "Address1": "2187 Glendale Galleria",
    "Address2": null,
    "City": "Glendale",
    "State": "CA",
    "Postal": "91210",
    "Latitude": 34.1425,
    "Longitude": -118.2542
  },
  {
    "Name": "Topanga Plaza",
    "Address1": "6600 Topanga Canyon Blvd",
    "Address2": null,
    "City": "Canoga Park",
    "State": "CA",
    "Postal": "91303",
    "Latitude": 34.2011,
    "Longitude": -118.5972
  },
  {
    "Name": "Westside Pavilion",
    "Address1": "10800 West Pico Blvd",
    "Address2": null,
    "City": "Los Angeles",
    "State": "CA",
    "Postal": "90064",
    "Latitude": 34.0522,
    "Longitude": -118.2428
  },
  {
    "Name": "Pacific View Mall",
    "Address1": "3301 East Main Street",
    "Address2": null,
    "City": "Ventura",
    "State": "CA",
    "Postal": "93003",
    "Latitude": 34.2783,
    "Longitude": -119.2922
  },
  {
    "Name": "Burbank Town Center",
    "Address1": "201 East Magnolia Blvd",
    "Address2": null,
    "City": "Burbank",
    "State": "CA",
    "Postal": "91501",
    "Latitude": 34.1808,
    "Longitude": -118.3081
  },
  {
    "Name": "Culver City Mall",
    "Address1": " 6000 Sepulveda Blvd",
    "Address2": null,
    "City": "Culver City",
    "State": "CA",
    "Postal": "90230",
    "Latitude": 34.0211,
    "Longitude": -118.3956
  },
  {
    "Name": "Panorama Mall",
    "Address1": "8401 Van Nuys Blvd",
    "Address2": null,
    "City": "Panorama",
    "State": "CA",
    "Postal": "91402",
    "Latitude": 36.9882,
    "Longitude": -120.1166
  },
  {
    "Name": "Imperial Valley Mall",
    "Address1": "3451 South Dogwood Avenue",
    "Address2": null,
    "City": "El Centro",
    "State": "CA",
    "Postal": "92243",
    "Latitude": 36.9882,
    "Longitude": -120.1166
  },
  {
    "Name": "Chula Vista Center",
    "Address1": "555 Broadway",
    "Address2": null,
    "City": "Chula Vista",
    "State": "CA",
    "Postal": "91910",
    "Latitude": 32.64,
    "Longitude": -117.0833
  },
  {
    "Name": "Horton Plaza",
    "Address1": "59 Horton Plaza",
    "Address2": null,
    "City": "San Diego",
    "State": "CA",
    "Postal": "92101",
    "Latitude": 36.9882,
    "Longitude": -120.1166
  },
  {
    "Name": "Town Center at Otay Ranch",
    "Address1": "2015 Birch Road",
    "Address2": null,
    "City": "Chula Vista",
    "State": "CA",
    "Postal": "91915",
    "Latitude": 32.64,
    "Longitude": -117.0833
  },
  {
    "Name": "Ala Moana Center",
    "Address1": "1450 Ala Moana Blvd",
    "Address2": null,
    "City": "Honolulu",
    "State": "HI",
    "Postal": "96814",
    "Latitude": 21.3069,
    "Longitude": -157.8583
  },
  {
    "Name": "Windward Mall",
    "Address1": "46-056 Kamehameha Highway",
    "Address2": null,
    "City": "Kaneohe",
    "State": "HI",
    "Postal": "96744",
    "Latitude": 21.495602,
    "Longitude": -158.0414568
  },
  {
    "Name": "Pearl Ridge Mall",
    "Address1": "98-1005 Moanalua Rd",
    "Address2": null,
    "City": "Honolulu",
    "State": "HI",
    "Postal": "96701",
    "Latitude": 21.5122134,
    "Longitude": -158.0269992
  },
  {
    "Name": "Gran Plaza Outlet",
    "Address1": "888 West 2nd Street",
    "Address2": null,
    "City": "Calexico",
    "State": "CA",
    "Postal": "92231",
    "Latitude": 32.6789,
    "Longitude": -115.4981
  },
  {
    "Name": "Yuma Palms Regional Center",
    "Address1": "1327 S Yuma Palms Parkway",
    "Address2": null,
    "City": "Yuma ",
    "State": "AZ",
    "Postal": "85365",
    "Latitude": 33.6523,
    "Longitude": -111.6184
  },
  {
    "Name": "Vintage Faire Mall",
    "Address1": "3401 Dale Road",
    "Address2": null,
    "City": "Modesto",
    "State": "CA",
    "Postal": "95356",
    "Latitude": 37.5624,
    "Longitude": -121.0027
  },
  {
    "Name": "Valley Plaza",
    "Address1": "2701 Ming Avenue",
    "Address2": null,
    "City": "Bakersfield",
    "State": "CA",
    "Postal": "93304",
    "Latitude": 35.3466,
    "Longitude": -118.7295
  },
  {
    "Name": "Fresno Fashion Fair",
    "Address1": "693 East Shaw Ave",
    "Address2": null,
    "City": "Fresno",
    "State": "CA",
    "Postal": "93710",
    "Latitude": 36.761,
    "Longitude": -119.655
  },
  {
    "Name": "Northridge Mall",
    "Address1": "674 Northridge Mall",
    "Address2": null,
    "City": "Salinas",
    "State": "CA",
    "Postal": "93906",
    "Latitude": 36.2401,
    "Longitude": -121.3156
  },
  {
    "Name": "Weberstown Mall",
    "Address1": "4950 Pacific Ave",
    "Address2": null,
    "City": "Stockton",
    "State": "CA",
    "Postal": "95207",
    "Latitude": 37.9578,
    "Longitude": -121.2897
  },
  {
    "Name": "Tulare Outlet Center",
    "Address1": "1701 Retherford Street",
    "Address2": null,
    "City": "Tulare",
    "State": "CA",
    "Postal": "93274",
    "Latitude": 36.2078,
    "Longitude": -119.3464
  },
  {
    "Name": "Merced Mall",
    "Address1": "280 Merced Mall",
    "Address2": null,
    "City": "Merced",
    "State": "CA",
    "Postal": "95348",
    "Latitude": 37.1948,
    "Longitude": -120.7228
  },
  {
    "Name": "Visalia Mall",
    "Address1": "2221 South Mooney Blvd",
    "Address2": null,
    "City": "Visalia",
    "State": "CA",
    "Postal": "93277",
    "Latitude": 36.3303,
    "Longitude": -119.2911
  },
  {
    "Name": "Capitola Mall",
    "Address1": "1855 41st Street",
    "Address2": null,
    "City": "Capitola",
    "State": "CA",
    "Postal": "95010",
    "Latitude": 36.9753,
    "Longitude": -121.9522
  },
  {
    "Name": "Pismo Beach Premium Outlets",
    "Address1": "333 Five Cities Drive",
    "Address2": null,
    "City": "Pismo Beach",
    "State": "CA",
    "Postal": "93449",
    "Latitude": 35.1428,
    "Longitude": -120.6403
  },
  {
    "Name": "Gilroy Premium Outlets ",
    "Address1": "8375 Arroyo Circle ",
    "Address2": null,
    "City": "Gilroy",
    "State": "CA",
    "Postal": "95020",
    "Latitude": 37.0058,
    "Longitude": -121.5672
  },
  {
    "Name": "The Outlets at Tejon Ranch",
    "Address1": "5701 Outlets at Tejon Parkway",
    "Address2": null,
    "City": "Arvin",
    "State": "CA",
    "Postal": "93203",
    "Latitude": 35.2092,
    "Longitude": -118.8275
  },
  {
    "Name": "Ontario Mills",
    "Address1": "One Mills Circle",
    "Address2": null,
    "City": "Ontario",
    "State": "CA",
    "Postal": "91764",
    "Latitude": 34.0633,
    "Longitude": -117.65
  },
  {
    "Name": "Galleria at Tyler",
    "Address1": "1299 Galleria at Tyler",
    "Address2": null,
    "City": "Riverside",
    "State": "CA",
    "Postal": "92503",
    "Latitude": 33.9533,
    "Longitude": -117.3953
  },
  {
    "Name": "Palm Desert",
    "Address1": "72840 Highway 111",
    "Address2": null,
    "City": "Palm Desert",
    "State": "CA",
    "Postal": "92260",
    "Latitude": 33.7222,
    "Longitude": -116.3736
  },
  {
    "Name": "Montclair Plaza",
    "Address1": "2128 Montclair Plaza Lane",
    "Address2": null,
    "City": "Montclair",
    "State": "CA",
    "Postal": "91763",
    "Latitude": 34.0775,
    "Longitude": -117.6889
  },
  {
    "Name": "Santa Anita Fashion Place",
    "Address1": "400 South Baldwin Suite #419-U",
    "Address2": null,
    "City": "Arcadia",
    "State": "CA",
    "Postal": "91007",
    "Latitude": 0,
    "Longitude": 0
  },
  {
    "Name": "Puente Hills",
    "Address1": "1600 South Azuza Ave",
    "Address2": null,
    "City": "Industry",
    "State": "CA",
    "Postal": "91748",
    "Latitude": 34.0197,
    "Longitude": -117.9578
  },
  {
    "Name": "Plaza at West Covina",
    "Address1": "466 Plaza Drive",
    "Address2": null,
    "City": "West Covina",
    "State": "CA",
    "Postal": "91790",
    "Latitude": 34.0686,
    "Longitude": -117.9381
  },
  {
    "Name": "Stonewood Center",
    "Address1": "251 Stonewood Street",
    "Address2": null,
    "City": "Downey",
    "State": "CA",
    "Postal": "90241",
    "Latitude": 33.94,
    "Longitude": -118.1317
  },
  {
    "Name": "Montebello Town Center",
    "Address1": "2119 Montebello TC Drive",
    "Address2": null,
    "City": "Montebello",
    "State": "CA",
    "Postal": "90640",
    "Latitude": 34.0094,
    "Longitude": -118.1044
  },
  {
    "Name": "Moreno Valley Mall",
    "Address1": "22500 Town Circle",
    "Address2": null,
    "City": "Moreno Valley",
    "State": "CA",
    "Postal": "92553",
    "Latitude": 33.9375,
    "Longitude": -117.2297
  },
  {
    "Name": "The Shoppes at Chino Hill",
    "Address1": "13850 City Center Drive",
    "Address2": null,
    "City": "Chino Hills",
    "State": "CA",
    "Postal": "91709",
    "Latitude": 33.8936,
    "Longitude": -117.7264
  },
  {
    "Name": "Citadel Outlets ",
    "Address1": "100 Citadel Dr",
    "Address2": null,
    "City": "Commerce",
    "State": "CA",
    "Postal": "90040",
    "Latitude": 34.0006,
    "Longitude": -118.1589
  },
  {
    "Name": "Stoneridge Mall",
    "Address1": "1 Stoneridge Mall Road",
    "Address2": null,
    "City": "Pleasanton",
    "State": "CA",
    "Postal": "95488",
    "Latitude": 37.6625,
    "Longitude": -121.8736
  },
  {
    "Name": "Valley Fair Shopping Center",
    "Address1": "2855 Stevens Creek Boulevard",
    "Address2": null,
    "City": "Santa Clara",
    "State": "CA",
    "Postal": "95050",
    "Latitude": 37.3542,
    "Longitude": -121.9542
  },
  {
    "Name": "Sunvalley Mall",
    "Address1": "236 Sunvalley Mall",
    "Address2": null,
    "City": "Concord",
    "State": "CA",
    "Postal": "94520",
    "Latitude": 37.9781,
    "Longitude": -122.03
  },
  {
    "Name": "Oakridge Mall",
    "Address1": "925 Blossom Hill Road",
    "Address2": null,
    "City": "San Jose",
    "State": "CA",
    "Postal": "95123",
    "Latitude": 36.9882,
    "Longitude": -120.1166
  },
  {
    "Name": "Plaza Bonita",
    "Address1": "3030 Plaza Bonita Road",
    "Address2": null,
    "City": "National City",
    "State": "CA",
    "Postal": "91950",
    "Latitude": 32.6781,
    "Longitude": -117.0983
  },
  {
    "Name": "The Shops at the Las Americas",
    "Address1": "4141 Camino De La Plaza Drive",
    "Address2": null,
    "City": "San Ysidro",
    "State": "CA",
    "Postal": "92173",
    "Latitude": 36.9882,
    "Longitude": -120.1166
  },
  {
    "Name": "Great Mall",
    "Address1": "480 Great Mall Drive",
    "Address2": null,
    "City": "Milpitas",
    "State": "CA",
    "Postal": "95035",
    "Latitude": 37.4283,
    "Longitude": -121.9056
  },
  {
    "Name": "Eastridge Mall ",
    "Address1": "2200 Eastridge Loop",
    "Address2": null,
    "City": "San Jose",
    "State": "CA",
    "Postal": "95122",
    "Latitude": 36.9882,
    "Longitude": -120.1166
  },
  {
    "Name": "New Park Mall",
    "Address1": "1047 Newpark Mall",
    "Address2": null,
    "City": "Newark",
    "State": "CA",
    "Postal": "94560",
    "Latitude": 37.5297,
    "Longitude": -122.0392
  },
  {
    "Name": "Streets of Brentwood",
    "Address1": "2535 Sand Creek Road",
    "Address2": null,
    "City": "Brentwood",
    "State": "CA",
    "Postal": "94513",
    "Latitude": 37.9319,
    "Longitude": -121.6947
  },
  {
    "Name": "San Francisco Center",
    "Address1": "845 Market St",
    "Address2": null,
    "City": "San Francisco",
    "State": "CA",
    "Postal": "94103",
    "Latitude": 37.775,
    "Longitude": -122.4183
  },
  {
    "Name": "Mall at Victor Valley",
    "Address1": "14400 Bear Valley Road",
    "Address2": null,
    "City": "Victorville",
    "State": "CA",
    "Postal": "92392",
    "Latitude": 34.5361,
    "Longitude": -117.2903
  },
  {
    "Name": "Meadows Mall",
    "Address1": "4300 Meadows Lane",
    "Address2": null,
    "City": "Las Vegas",
    "State": "NV",
    "Postal": "89107",
    "Latitude": 39.1242,
    "Longitude": -117.0214
  },
  {
    "Name": "Las Vegas Fashion Outlets",
    "Address1": "32100 Las Vegas Blvd",
    "Address2": null,
    "City": "Primm",
    "State": "NV",
    "Postal": "89019",
    "Latitude": 35.6128,
    "Longitude": -115.3894
  },
  {
    "Name": "Galleria at Sunset",
    "Address1": "1300 West Sunset Road",
    "Address2": null,
    "City": "Henderson",
    "State": "NV",
    "Postal": "89014",
    "Latitude": 36.0397,
    "Longitude": -114.9811
  },
  {
    "Name": "Antelope Valley",
    "Address1": "1233 Rancho Vista Blvd",
    "Address2": null,
    "City": "Palmdale",
    "State": "CA",
    "Postal": "93551",
    "Latitude": 34.5794,
    "Longitude": -118.1156
  },
  {
    "Name": "Town Square Las Vegas",
    "Address1": "6611 Las Vegas Blvd South",
    "Address2": null,
    "City": "Las Vegas",
    "State": "NV",
    "Postal": "89119",
    "Latitude": 39.1242,
    "Longitude": -117.0214
  },
  {
    "Name": "Las Vegas Outlet",
    "Address1": "7400 Las Vegas Blvd South",
    "Address2": null,
    "City": "Las Vegas",
    "State": "NV",
    "Postal": "89123",
    "Latitude": 39.1242,
    "Longitude": -117.0214
  },
  {
    "Name": "Tanger Barstow",
    "Address1": "2796 Tanger Way Suite 345",
    "Address2": null,
    "City": "Barstow",
    "State": "CA",
    "Postal": "92311",
    "Latitude": 34.8986,
    "Longitude": -117.0219
  },
  {
    "Name": "Chico Mall",
    "Address1": "1950 East 20th Street",
    "Address2": null,
    "City": "Chico",
    "State": "CA",
    "Postal": "95928",
    "Latitude": 39.666,
    "Longitude": -121.6019
  },
  {
    "Name": "Petaluma Village Premium Outlets",
    "Address1": "2200 Petaluma Blvd North",
    "Address2": null,
    "City": "Petaluma",
    "State": "CA",
    "Postal": "94952",
    "Latitude": 38.2325,
    "Longitude": -122.6356
  },
  {
    "Name": "Santa Rosa Plaza",
    "Address1": "1012 Santa Rosa Plaza",
    "Address2": null,
    "City": "Santa Rosa",
    "State": "CA",
    "Postal": "95401",
    "Latitude": 36.9882,
    "Longitude": -120.1166
  },
  {
    "Name": "Solano Mall",
    "Address1": "1350 Travis Blvd",
    "Address2": null,
    "City": "Fairfield",
    "State": "CA",
    "Postal": "94533",
    "Latitude": 38.2494,
    "Longitude": -122.0389
  },
  {
    "Name": "Arden Fair",
    "Address1": "1689 Arden Way",
    "Address2": null,
    "City": "Sacramento",
    "State": "CA",
    "Postal": "95815",
    "Latitude": 38.5817,
    "Longitude": -121.4933
  },
  {
    "Name": "Meadowood Mall",
    "Address1": "5330 Meadowood Mall",
    "Address2": null,
    "City": "Reno",
    "State": "NV",
    "Postal": "89502",
    "Latitude": 40.5008,
    "Longitude": -119.7312
  },
  {
    "Name": "Galleria at Roseville",
    "Address1": "1151 Galleria Parkway",
    "Address2": null,
    "City": "Roseville",
    "State": "CA",
    "Postal": "95678",
    "Latitude": 38.7522,
    "Longitude": -121.2869
  },
  {
    "Name": "Folsom Premium Outlets",
    "Address1": "13000 Folsom Boulevard",
    "Address2": null,
    "City": "Folsom",
    "State": "CA",
    "Postal": "95630",
    "Latitude": 38.6781,
    "Longitude": -121.175
  },
  {
    "Name": "Vacaville Premium Oulet",
    "Address1": "321 Nut Tree Road",
    "Address2": null,
    "City": "Vacaville",
    "State": "CA",
    "Postal": "95687 ",
    "Latitude": 38.3567,
    "Longitude": -121.9867
  },
  {
    "Name": "Sunrise Mall ",
    "Address1": " 6041 Sunrise Mall",
    "Address2": null,
    "City": "Citrus Heights",
    "State": "CA",
    "Postal": "95610",
    "Latitude": 38.7072,
    "Longitude": -121.28
  },
  {
    "Name": "Yuba Sutter Mall",
    "Address1": "1185 Colusa Ave",
    "Address2": null,
    "City": "Yuba City",
    "State": "CA",
    "Postal": "95991",
    "Latitude": 36.9882,
    "Longitude": -120.1166
  },
  {
    "Name": "Natick Collection",
    "Address1": "1245 Worcester Road",
    "Address2": null,
    "City": "Natick",
    "State": "MA",
    "Postal": "1760",
    "Latitude": 42.2833,
    "Longitude": -71.35
  },
  {
    "Name": "Providence Place",
    "Address1": "118 Providence Place",
    "Address2": null,
    "City": "Providence",
    "State": "RI",
    "Postal": "2903",
    "Latitude": 41.8239,
    "Longitude": -71.4133
  },
  {
    "Name": "North Dartmouth Mall",
    "Address1": "137 N Dartmouth Mall",
    "Address2": null,
    "City": "North Dartmouth",
    "State": "MA",
    "Postal": "2747",
    "Latitude": 41.6389,
    "Longitude": -70.9708
  },
  {
    "Name": "Solomon Pond",
    "Address1": "601 Donald Lynch Boulevard",
    "Address2": null,
    "City": "Marlborough",
    "State": "MA",
    "Postal": "1752",
    "Latitude": 42.3458,
    "Longitude": -71.5528
  },
  {
    "Name": "Cape Cod Mall",
    "Address1": "769 Lyannough Road",
    "Address2": null,
    "City": "Hyannis",
    "State": "MA",
    "Postal": "2601",
    "Latitude": 41.6528,
    "Longitude": -70.2833
  },
  {
    "Name": "Westgate Mall   ",
    "Address1": "200 Westgate Drive",
    "Address2": null,
    "City": "Brockton",
    "State": "MA",
    "Postal": "2301",
    "Latitude": 42.0833,
    "Longitude": -71.0189
  },
  {
    "Name": "Auburn Mall",
    "Address1": "385 South Bridge Street",
    "Address2": null,
    "City": "Auburn",
    "State": "MA",
    "Postal": "1501",
    "Latitude": 42.1944,
    "Longitude": -71.8361
  },
  {
    "Name": "Warwick Mall",
    "Address1": "400 Bald Hill Road",
    "Address2": null,
    "City": "Warwick",
    "State": "RI",
    "Postal": "2886",
    "Latitude": 41.7,
    "Longitude": -71.4167
  },
  {
    "Name": "Greendale Mall",
    "Address1": "7 Neponset Street",
    "Address2": null,
    "City": "Worcester",
    "State": "MA",
    "Postal": "1606",
    "Latitude": 42.2625,
    "Longitude": -71.8028
  },
  {
    "Name": "Staten Island Mall",
    "Address1": "2655 Richmond Avenue",
    "Address2": null,
    "City": "Staten Island",
    "State": "NY",
    "Postal": "10314",
    "Latitude": 42.5304,
    "Longitude": -75.4442
  },
  {
    "Name": "Paramus Park Mall",
    "Address1": "700 Paramus Park",
    "Address2": null,
    "City": "Paramus",
    "State": "NJ",
    "Postal": "7652",
    "Latitude": 40.9444,
    "Longitude": -74.0758
  },
  {
    "Name": "Livingston Mall",
    "Address1": "112 Eisenhower Parkway",
    "Address2": null,
    "City": "Livingston",
    "State": "NJ",
    "Postal": "7039",
    "Latitude": 40.7958,
    "Longitude": -74.3153
  },
  {
    "Name": "Galleria at White Plains",
    "Address1": "100 Main Street",
    "Address2": null,
    "City": "White Plains",
    "State": "NY",
    "Postal": "10601",
    "Latitude": 41.0339,
    "Longitude": -73.7633
  },
  {
    "Name": "Stamford Town Center",
    "Address1": "100 Grey Rock Place",
    "Address2": null,
    "City": "Stamford",
    "State": "CT",
    "Postal": "6901",
    "Latitude": 41.0533,
    "Longitude": -73.5392
  },
  {
    "Name": "Palisades Center",
    "Address1": "2452 Palisades Center Drive",
    "Address2": null,
    "City": "West Nyack",
    "State": "NY",
    "Postal": "10994",
    "Latitude": 42.5304,
    "Longitude": -75.4442
  },
  {
    "Name": "Bay Terrace",
    "Address1": "212-01 26th Ave & Bell Blvd",
    "Address2": null,
    "City": "Bayside",
    "State": "NY",
    "Postal": "11360",
    "Latitude": 40.7683,
    "Longitude": -73.7775
  },
  {
    "Name": "Square One Mall",
    "Address1": "1201 Broadway",
    "Address2": null,
    "City": "Saugus",
    "State": "MA",
    "Postal": "1906",
    "Latitude": 42.4647,
    "Longitude": -71.0106
  },
  {
    "Name": "Emerald Square",
    "Address1": "999 S Washington Street",
    "Address2": null,
    "City": "North Attleboro",
    "State": "MA",
    "Postal": "2760",
    "Latitude": 41.9833,
    "Longitude": -71.3333
  },
  {
    "Name": "Northshore Mall",
    "Address1": "210 Andover Street",
    "Address2": null,
    "City": "Peabody",
    "State": "MA",
    "Postal": "1960",
    "Latitude": 42.5278,
    "Longitude": -70.9292
  },
  {
    "Name": "The Mall at Whitney Field",
    "Address1": "100 Commercial Road",
    "Address2": null,
    "City": "Leominster",
    "State": "MA",
    "Postal": "1453",
    "Latitude": 42.525,
    "Longitude": -71.7603
  },
  {
    "Name": "The Mall at Rockingham",
    "Address1": "99 Rockingham Park Blvd",
    "Address2": null,
    "City": "Salem",
    "State": "NH",
    "Postal": "3079",
    "Latitude": 42.7883,
    "Longitude": -71.2014
  },
  {
    "Name": "South Shore Mall   ",
    "Address1": "250 Granite Street",
    "Address2": null,
    "City": "Braintree",
    "State": "MA",
    "Postal": "2184",
    "Latitude": 42.2222,
    "Longitude": -71
  },
  {
    "Name": "Wrentham Village Premium Outlets",
    "Address1": "One Premium Outlets Blvd",
    "Address2": null,
    "City": "Wrentham",
    "State": "MA",
    "Postal": "2093",
    "Latitude": 42.0667,
    "Longitude": -71.3286
  },
  {
    "Name": "Cambridgeside Galleria",
    "Address1": "100 CambridgeSide Place",
    "Address2": null,
    "City": "Cambridge",
    "State": "MA",
    "Postal": "2141",
    "Latitude": 42.375,
    "Longitude": -71.1061
  },
  {
    "Name": "Bridgewater Commons",
    "Address1": "400 Commons Way",
    "Address2": null,
    "City": "Bridgewater",
    "State": "NJ",
    "Postal": "8807",
    "Latitude": 40.5924342,
    "Longitude": -74.6188399
  },
  {
    "Name": "Woodbridge Center",
    "Address1": "260 Woodbridge Center Drive",
    "Address2": null,
    "City": "Woodbridge",
    "State": "NJ",
    "Postal": "7095",
    "Latitude": 40.5575,
    "Longitude": -74.285
  },
  {
    "Name": "Rockaway Townsquare",
    "Address1": "301 Mt Hope Ave ",
    "Address2": null,
    "City": "Rockaway",
    "State": "NJ",
    "Postal": "7866",
    "Latitude": 40.9011,
    "Longitude": -74.5147
  },
  {
    "Name": "Garden State Plaza",
    "Address1": "355 State Highway #17 South",
    "Address2": null,
    "City": "Paramus",
    "State": "NJ",
    "Postal": "7652",
    "Latitude": 0,
    "Longitude": 0
  },
  {
    "Name": "Willowbrook Mall ",
    "Address1": "1444 Willowbrook Mall",
    "Address2": null,
    "City": "Wayne",
    "State": "NJ",
    "Postal": "7470",
    "Latitude": 40.9253,
    "Longitude": -74.2769
  },
  {
    "Name": "Menlo Park Mall",
    "Address1": "100 Menlo Park Road",
    "Address2": null,
    "City": "Edison",
    "State": "NJ",
    "Postal": "8837",
    "Latitude": 40.5186,
    "Longitude": -74.4125
  },
  {
    "Name": "Jersey Gardens",
    "Address1": "651 Kapkowski Road",
    "Address2": null,
    "City": "Elizabeth",
    "State": "NJ",
    "Postal": "7201",
    "Latitude": 40.6639,
    "Longitude": -74.2111
  },
  {
    "Name": "Quaker Bridge Mall",
    "Address1": "150 Quaker Bridge Mall",
    "Address2": null,
    "City": "Lawrence Township",
    "State": "NJ",
    "Postal": "8648",
    "Latitude": 40.213,
    "Longitude": -74.6291
  },
  {
    "Name": "Ocean County Mall",
    "Address1": "1201 Hooper Avenue",
    "Address2": null,
    "City": "Toms River",
    "State": "NJ",
    "Postal": "8753",
    "Latitude": 40.213,
    "Longitude": -74.6291
  },
  {
    "Name": "Monmouth Mall",
    "Address1": "Routes 35 & 36",
    "Address2": null,
    "City": "Eatontown",
    "State": "NJ",
    "Postal": "7724",
    "Latitude": 40.2961,
    "Longitude": -74.0514
  },
  {
    "Name": "Freehold Raceway Mall",
    "Address1": "3710 Route 9",
    "Address2": null,
    "City": "Freehold",
    "State": "NJ",
    "Postal": "7728",
    "Latitude": 40.26,
    "Longitude": -74.2742
  },
  {
    "Name": "Brunswick Square",
    "Address1": "755 Street Highway 18",
    "Address2": null,
    "City": "East Brunswick",
    "State": "NJ",
    "Postal": "8816",
    "Latitude": 40.4278,
    "Longitude": -74.4164
  },
  {
    "Name": "Atlantic City Center",
    "Address1": "111B North Michigan Avenue",
    "Address2": null,
    "City": "Atlantic City",
    "State": "NJ",
    "Postal": "8401",
    "Latitude": 39.3642,
    "Longitude": -74.4233
  },
  {
    "Name": "Jersey Shore Premium Outlets",
    "Address1": "One Premium Outlets Blvd",
    "Address2": null,
    "City": "Tinton Falls",
    "State": "NJ",
    "Postal": "7753",
    "Latitude": 40.3042,
    "Longitude": -74.1008
  },
  {
    "Name": "Jackson Premium Outlets",
    "Address1": "537 Monmouth Road",
    "Address2": null,
    "City": "Jackson",
    "State": "NJ",
    "Postal": "8527",
    "Latitude": 39.7764,
    "Longitude": -74.8628
  },
  {
    "Name": "Shoppes at North Brunswick",
    "Address1": " 541 Shoppes Blvd",
    "Address2": null,
    "City": "North Brunswick",
    "State": "NJ",
    "Postal": "8902",
    "Latitude": 40.213,
    "Longitude": -74.6291
  },
  {
    "Name": "Oxford Valley Mall",
    "Address1": "2300 East Lincoln Highway",
    "Address2": null,
    "City": "Langhorne",
    "State": "PA",
    "Postal": "19047",
    "Latitude": 40.1744,
    "Longitude": -74.9231
  },
  {
    "Name": "Willow Grove Park",
    "Address1": "2500 Moreland Road",
    "Address2": null,
    "City": "Willow Grove",
    "State": "PA",
    "Postal": "19090",
    "Latitude": 40.1439,
    "Longitude": -75.1161
  },
  {
    "Name": "Springfield Mall",
    "Address1": "1250 Baltimore Parkway",
    "Address2": null,
    "City": "Springfield",
    "State": "PA",
    "Postal": "19064",
    "Latitude": 39.9306,
    "Longitude": -75.3206
  },
  {
    "Name": "Berkshire Mall",
    "Address1": "1665 State Hill Road",
    "Address2": null,
    "City": "Wyomissing",
    "State": "PA",
    "Postal": "19610",
    "Latitude": 40.3294,
    "Longitude": -75.9656
  },
  {
    "Name": "The Plaza at King of Prussia",
    "Address1": "160 N Gulph Road",
    "Address2": null,
    "City": "King of Prussia",
    "State": "PA",
    "Postal": "19406",
    "Latitude": 40.6467,
    "Longitude": -77.5612
  },
  {
    "Name": "Neshaminy Mall",
    "Address1": "622 Neshaminy Mall",
    "Address2": null,
    "City": "Bensalem",
    "State": "PA",
    "Postal": "19020",
    "Latitude": 40.1044,
    "Longitude": -74.9517
  },
  {
    "Name": "Cumberland Mall ",
    "Address1": "3849 South Delsea Drive",
    "Address2": null,
    "City": "Vineland",
    "State": "NJ",
    "Postal": "8360",
    "Latitude": 39.4861,
    "Longitude": -75.0261
  },
  {
    "Name": "Philadelphia Premium Outlet",
    "Address1": "18 West Lightcap Road",
    "Address2": null,
    "City": "Pottstown",
    "State": "PA",
    "Postal": "19464",
    "Latitude": 40.2453,
    "Longitude": -75.65
  },
  {
    "Name": "Poughkeepsie Galleria",
    "Address1": "2001 South Road",
    "Address2": null,
    "City": "Poughkeepsie",
    "State": "NY",
    "Postal": "12601",
    "Latitude": 41.7003,
    "Longitude": -73.9214
  },
  {
    "Name": "Jefferson Valley Mall",
    "Address1": "650 Lee Boulevard",
    "Address2": null,
    "City": "Yorktown Heights",
    "State": "NY",
    "Postal": "10598",
    "Latitude": 41.2708,
    "Longitude": -73.7781
  },
  {
    "Name": "Trumbull Shopping Park",
    "Address1": "5065 Main Street",
    "Address2": null,
    "City": "Trumbull",
    "State": "CT",
    "Postal": "6611",
    "Latitude": 41.2428,
    "Longitude": -73.2011
  },
  {
    "Name": "Galleria At Crystal Run",
    "Address1": "1 Galleria Drive",
    "Address2": null,
    "City": "Middletown",
    "State": "NY",
    "Postal": "10941",
    "Latitude": 41.4458,
    "Longitude": -74.4233
  },
  {
    "Name": "Danbury Fair Mall",
    "Address1": "7 Backus Avenue",
    "Address2": null,
    "City": "Danbury",
    "State": "CT",
    "Postal": "6810",
    "Latitude": 41.3947,
    "Longitude": -73.4544
  },
  {
    "Name": "Hudson Valley Mall",
    "Address1": "1300 Ulster Ave",
    "Address2": null,
    "City": "Kingston",
    "State": "NY",
    "Postal": "12401",
    "Latitude": 41.9472,
    "Longitude": -74.2655
  },
  {
    "Name": "Meriden Square Mall",
    "Address1": "470 Lewis Avenue",
    "Address2": null,
    "City": "Meriden",
    "State": "CT",
    "Postal": "6451",
    "Latitude": 41.5381,
    "Longitude": -72.8075
  },
  {
    "Name": "Brass Mill Center",
    "Address1": "495 Union Street",
    "Address2": null,
    "City": "Waterbury",
    "State": "CT",
    "Postal": "6706",
    "Latitude": 41.5581,
    "Longitude": -73.0519
  },
  {
    "Name": "Sunrise Mall ",
    "Address1": "100 Sunrise Mall",
    "Address2": null,
    "City": "Massapequa",
    "State": "NY",
    "Postal": "11758",
    "Latitude": 40.6806,
    "Longitude": -73.4747
  },
  {
    "Name": "Smith Haven Mall",
    "Address1": "148 Smith Haven Mall",
    "Address2": null,
    "City": "Lake Grove",
    "State": "NY",
    "Postal": "11755",
    "Latitude": 42.5304,
    "Longitude": -75.4442
  },
  {
    "Name": "Green Acres Mall",
    "Address1": "1048 Green Acres Mall",
    "Address2": null,
    "City": "Valley Stream",
    "State": "NY",
    "Postal": "11581",
    "Latitude": 40.6642,
    "Longitude": -73.7089
  },
  {
    "Name": "South Shore Mall",
    "Address1": "1701 Sunrise Highway",
    "Address2": null,
    "City": "Bay Shore",
    "State": "NY",
    "Postal": "11706",
    "Latitude": 42.5304,
    "Longitude": -75.4442
  },
  {
    "Name": "Tanger Outlet Riverhead",
    "Address1": "1770 West Main Street",
    "Address2": null,
    "City": "Riverhead",
    "State": "NY",
    "Postal": "11901",
    "Latitude": 40.9169,
    "Longitude": -72.6625
  },
  {
    "Name": "Broadway Mall",
    "Address1": "879 Broadway Mall",
    "Address2": null,
    "City": "Hicksville",
    "State": "NY",
    "Postal": "11801",
    "Latitude": 40.7683,
    "Longitude": -73.5256
  },
  {
    "Name": "Holyoke Mall",
    "Address1": "50 Holyoke Street",
    "Address2": null,
    "City": "Holyoke",
    "State": "MA",
    "Postal": "1040",
    "Latitude": 42.2042,
    "Longitude": -72.6167
  },
  {
    "Name": "The Shoppes at Buckland Hills",
    "Address1": "194 Buckland Hills Drive",
    "Address2": null,
    "City": "Manchester",
    "State": "CT",
    "Postal": "6042",
    "Latitude": 41.7758,
    "Longitude": -72.5219
  },
  {
    "Name": "Crystal Mall",
    "Address1": "850 Hartford Turnpike",
    "Address2": null,
    "City": "Waterford",
    "State": "CT",
    "Postal": "6385",
    "Latitude": 41.3617302,
    "Longitude": -72.1565756
  },
  {
    "Name": "Connecticut Post",
    "Address1": "1201 Boston Post Road",
    "Address2": null,
    "City": "Milford",
    "State": "CT",
    "Postal": "6460",
    "Latitude": 41.2222,
    "Longitude": -73.0569
  },
  {
    "Name": "Eastfield Mall",
    "Address1": "1655 Boston Road",
    "Address2": null,
    "City": "Springfield",
    "State": "MA",
    "Postal": "1129",
    "Latitude": 42.2478,
    "Longitude": -72.632
  },
  {
    "Name": "Clinton Crossing Premium Outlets",
    "Address1": "20-A Killingworth Turnpike",
    "Address2": null,
    "City": "Clinton",
    "State": "CT",
    "Postal": "6413",
    "Latitude": 41.2786,
    "Longitude": -72.5281
  },
  {
    "Name": "Lee Premium Outlets",
    "Address1": "250 Prime Outlets Blvd",
    "Address2": null,
    "City": "Lee",
    "State": "MA",
    "Postal": "1238",
    "Latitude": 42.3042,
    "Longitude": -73.2486
  },
  {
    "Name": "Westfarms Mall",
    "Address1": "148 Westfarms Mall",
    "Address2": null,
    "City": "Farmington",
    "State": "CT",
    "Postal": "6032",
    "Latitude": 41.7197,
    "Longitude": -72.8325
  },
  {
    "Name": "Fox Run Mall",
    "Address1": "50 Fox Run Road",
    "Address2": null,
    "City": "Newington",
    "State": "NH",
    "Postal": "3801",
    "Latitude": 43.1,
    "Longitude": -70.8342
  },
  {
    "Name": "Mall Of New Hampshire",
    "Address1": "1500 South Willow Street",
    "Address2": null,
    "City": "Manchester",
    "State": "NH",
    "Postal": "3103",
    "Latitude": 42.9956,
    "Longitude": -71.4553
  },
  {
    "Name": "Pheasant Lane Mall",
    "Address1": "310 Daniel Webster Highway",
    "Address2": null,
    "City": "Nashua",
    "State": "NH",
    "Postal": "3060",
    "Latitude": 42.7653,
    "Longitude": -71.4681
  },
  {
    "Name": "Bangor Mall",
    "Address1": "663 Stillwater Avenue",
    "Address2": null,
    "City": "Bangor",
    "State": "ME",
    "Postal": "4401",
    "Latitude": 45.4093,
    "Longitude": -68.6666
  },
  {
    "Name": "Maine Mall",
    "Address1": "364 Maine Mall Rd",
    "Address2": null,
    "City": "South Portland",
    "State": "ME",
    "Postal": "4106",
    "Latitude": 43.6414,
    "Longitude": -70.2414
  },
  {
    "Name": "The Maine Outlet",
    "Address1": "345 US Route 1",
    "Address2": null,
    "City": "Kittery",
    "State": "ME",
    "Postal": "3904",
    "Latitude": 43.0881,
    "Longitude": -70.7367
  },
  {
    "Name": "Settlers Green",
    "Address1": "2 Common Court",
    "Address2": null,
    "City": "North Conway",
    "State": "NH",
    "Postal": "3860",
    "Latitude": 44.0536,
    "Longitude": -71.1289
  },
  {
    "Name": "Tanger Outlets Tilton",
    "Address1": "120 Laconia Road",
    "Address2": null,
    "City": "Tilton",
    "State": "NH",
    "Postal": "3276",
    "Latitude": 43.4422,
    "Longitude": -71.5894
  },
  {
    "Name": "Merrimack Premium Outlets",
    "Address1": "80 Premium Outlets Blvd",
    "Address2": null,
    "City": "Merrimack",
    "State": "NH",
    "Postal": "3054",
    "Latitude": 42.865,
    "Longitude": -71.4939
  },
  {
    "Name": "Roosevelt Field",
    "Address1": "630 Old Country Rd",
    "Address2": null,
    "City": "Garden City",
    "State": "NY",
    "Postal": "11530",
    "Latitude": 40.7267,
    "Longitude": -73.6347
  },
  {
    "Name": "Queens Center",
    "Address1": "90-15 Queens Boulevard",
    "Address2": null,
    "City": "Elmhurst",
    "State": "NY",
    "Postal": "11373",
    "Latitude": 40.7364,
    "Longitude": -73.8783
  },
  {
    "Name": "Times Square",
    "Address1": "1515 Broadway",
    "Address2": null,
    "City": "New York",
    "State": "NY",
    "Postal": "10036",
    "Latitude": 42.5304,
    "Longitude": -75.4442
  },
  {
    "Name": "Franklin Mills",
    "Address1": "1434 Franklin Mills Circle",
    "Address2": null,
    "City": "Philadelphia",
    "State": "PA",
    "Postal": "19154",
    "Latitude": 39.9522,
    "Longitude": -75.1642
  },
  {
    "Name": "Cherry Hill Mall",
    "Address1": "252 Cherry Hill Mall",
    "Address2": null,
    "City": "Cherry Hill",
    "State": "NJ",
    "Postal": "8002",
    "Latitude": 39.9347,
    "Longitude": -75.0311
  },
  {
    "Name": "Hamilton Mall",
    "Address1": "Black Horse Pike",
    "Address2": null,
    "City": "Mays Landing",
    "State": "NJ",
    "Postal": "8330",
    "Latitude": 39.4522,
    "Longitude": -74.7281
  },
  {
    "Name": "Manhattan Mall",
    "Address1": "100 West 33rd Street",
    "Address2": null,
    "City": "New York",
    "State": "NY",
    "Postal": "10001",
    "Latitude": 42.5304,
    "Longitude": -75.4442
  },
  {
    "Name": "Deptford Mall",
    "Address1": "300 North Almonession Road",
    "Address2": null,
    "City": "Deptford",
    "State": "NJ",
    "Postal": "8096",
    "Latitude": 39.7838748,
    "Longitude": -75.1758253
  },
  {
    "Name": "Newport Centre",
    "Address1": "30 Mall Drive West",
    "Address2": null,
    "City": "Jersey City",
    "State": "NJ",
    "Postal": "7310",
    "Latitude": 40.7281,
    "Longitude": -74.0781
  },
  {
    "Name": "King's Plaza Mall",
    "Address1": "5240 Kings Plaza",
    "Address2": null,
    "City": "Brooklyn",
    "State": "NY",
    "Postal": "11234",
    "Latitude": 40.65,
    "Longitude": -73.95
  },
  {
    "Name": "Cross County Mall",
    "Address1": "5110 Xavier Drive",
    "Address2": null,
    "City": "Yonkers",
    "State": "NY",
    "Postal": "10704",
    "Latitude": 40.9311,
    "Longitude": -73.8992
  },
  {
    "Name": "Woodbury Commons",
    "Address1": "255 Red Apple Ct",
    "Address2": null,
    "City": "Central Valley",
    "State": "NY",
    "Postal": "10917",
    "Latitude": 41.3317,
    "Longitude": -74.1214
  },
  {
    "Name": "Fulton Street",
    "Address1": "472-474 Fulton St",
    "Address2": null,
    "City": "Brooklyn",
    "State": "NY",
    "Postal": "11201",
    "Latitude": 40.6092765,
    "Longitude": -74.0326299
  },
  {
    "Name": "The Mall at Bay Plaza",
    "Address1": "200 Baychester Avenue",
    "Address2": null,
    "City": "Bronx",
    "State": "NY",
    "Postal": "10475",
    "Latitude": 40.85,
    "Longitude": -73.8667
  },
  {
    "Name": "Chesterfield Towne Center",
    "Address1": "11500 Midlothian Turnpike",
    "Address2": null,
    "City": "Richmond",
    "State": "VA",
    "Postal": "23235",
    "Latitude": 37.4635,
    "Longitude": -77.4752
  },
  {
    "Name": "Potomac Mills Center",
    "Address1": "2700 Potomac Mills Circle",
    "Address2": null,
    "City": "Prince William",
    "State": "VA",
    "Postal": "22192",
    "Latitude": 38.7297,
    "Longitude": -77.5109
  },
  {
    "Name": "Southpark Mall",
    "Address1": "224 South Park Circle",
    "Address2": null,
    "City": "Colonial Heights",
    "State": "VA",
    "Postal": "23834",
    "Latitude": 37.2439,
    "Longitude": -77.4106
  },
  {
    "Name": "Patrick Henry",
    "Address1": "12300 Jefferson Avenue",
    "Address2": null,
    "City": "Newport News",
    "State": "VA",
    "Postal": "23602",
    "Latitude": 36.9786,
    "Longitude": -76.4283
  },
  {
    "Name": "Spotsylvania Mall",
    "Address1": "305 Spotsylvania Mall",
    "Address2": null,
    "City": "Fredericksburg",
    "State": "VA",
    "Postal": "22407",
    "Latitude": 38.3031,
    "Longitude": -77.4608
  },
  {
    "Name": "Williamsburg Premium Outlets",
    "Address1": "5715-E080 Richmond Road",
    "Address2": null,
    "City": "Williamsburg",
    "State": "VA",
    "Postal": "23188",
    "Latitude": 37.3557953,
    "Longitude": -76.9100173
  },
  {
    "Name": "Charlottesville Fashion Square",
    "Address1": "1558 East Rio Road",
    "Address2": null,
    "City": "Charlottesville",
    "State": "VA",
    "Postal": "22901",
    "Latitude": 37.8546,
    "Longitude": -78.5783
  },
  {
    "Name": "MacArthur Center",
    "Address1": "300 Monticello Avenue",
    "Address2": null,
    "City": "Norfolk",
    "State": "VA",
    "Postal": "23510",
    "Latitude": 36.8467,
    "Longitude": -76.2856
  },
  {
    "Name": "Park City Center",
    "Address1": "711 Park City Center",
    "Address2": null,
    "City": "Lancaster",
    "State": "PA",
    "Postal": "17601",
    "Latitude": 40.042,
    "Longitude": -76.2502
  },
  {
    "Name": "Capital City",
    "Address1": "3568 Capital City Mall",
    "Address2": null,
    "City": "Camp Hill",
    "State": "PA",
    "Postal": "17011",
    "Latitude": 40.6467,
    "Longitude": -77.5612
  },
  {
    "Name": "York Galleria",
    "Address1": "1 York Galleria",
    "Address2": null,
    "City": "York",
    "State": "PA",
    "Postal": "17402",
    "Latitude": 39.9625,
    "Longitude": -76.7281
  },
  {
    "Name": "Francis Scott Key",
    "Address1": "5500 Buckyestown Pike",
    "Address2": null,
    "City": "Frederick",
    "State": "MD",
    "Postal": "21703",
    "Latitude": 39.4142,
    "Longitude": -77.4108
  },
  {
    "Name": "Gettysburg Village Factory Stores",
    "Address1": "1863 Gettysburg Village Drive",
    "Address2": null,
    "City": "Gettysburg",
    "State": "PA",
    "Postal": "17325",
    "Latitude": 39.8308,
    "Longitude": -77.2314
  },
  {
    "Name": "Outlets at Hershey",
    "Address1": "124 Outlet Square",
    "Address2": null,
    "City": "Hershey",
    "State": "PA",
    "Postal": "17033",
    "Latitude": 40.2858,
    "Longitude": -76.6506
  },
  {
    "Name": "Tanger Outlets Lancaster",
    "Address1": "905 Stanley K Tanger Blvd",
    "Address2": null,
    "City": "Lancaster",
    "State": "PA",
    "Postal": "17602",
    "Latitude": 40.042,
    "Longitude": -76.2502
  },
  {
    "Name": "North Hanover Mall",
    "Address1": "1155 Carlisle Street",
    "Address2": null,
    "City": "Hanover",
    "State": "PA",
    "Postal": "17331",
    "Latitude": 39.8006,
    "Longitude": -76.9833
  },
  {
    "Name": "Chambersburg Mall",
    "Address1": "3055 Black Gap Road",
    "Address2": null,
    "City": "Chambersburg",
    "State": "PA",
    "Postal": "17201",
    "Latitude": 39.9375,
    "Longitude": -77.6614
  },
  {
    "Name": "Monroeville Mall",
    "Address1": "US Route 22E",
    "Address2": null,
    "City": "Monroeville",
    "State": "PA",
    "Postal": "15146",
    "Latitude": 40.4211,
    "Longitude": -79.7883
  },
  {
    "Name": "Westmoreland Mall",
    "Address1": "Route 30 East",
    "Address2": null,
    "City": "Greensburg",
    "State": "PA",
    "Postal": "15601",
    "Latitude": 40.3014,
    "Longitude": -79.5392
  },
  {
    "Name": "Meadowbrook Mall",
    "Address1": "2640 Meadowbrook Road",
    "Address2": null,
    "City": "Bridgeport",
    "State": "WV",
    "Postal": "26330",
    "Latitude": 39.2864,
    "Longitude": -80.2564
  },
  {
    "Name": "Logan Valley Mall",
    "Address1": "Route 220 & Goods Lane",
    "Address2": null,
    "City": "Altoona",
    "State": "PA",
    "Postal": "16602",
    "Latitude": 40.4979,
    "Longitude": -78.3106
  },
  {
    "Name": "Robinson Town Center",
    "Address1": "2490 Robinson Center Drive",
    "Address2": null,
    "City": "Pittsburgh",
    "State": "PA",
    "Postal": "15205",
    "Latitude": 40.4343,
    "Longitude": -79.8281
  },
  {
    "Name": "The Galleria ",
    "Address1": "500 Industrial Park Road",
    "Address2": null,
    "City": "Johnstown",
    "State": "PA",
    "Postal": "15904",
    "Latitude": 40.5103,
    "Longitude": -78.7105
  },
  {
    "Name": "Uniontown Mall",
    "Address1": "1332 Mall Run Road",
    "Address2": null,
    "City": "Uniontown",
    "State": "PA",
    "Postal": "15401",
    "Latitude": 39.9,
    "Longitude": -79.7167
  },
  {
    "Name": "Tanger Outlets Washington",
    "Address1": "2200 Tanger Blvd",
    "Address2": null,
    "City": "Washington",
    "State": "PA",
    "Postal": "15301",
    "Latitude": 40.1739,
    "Longitude": -80.2464
  },
  {
    "Name": "Dulles Town Center",
    "Address1": "21100 Dulles Town Circle",
    "Address2": null,
    "City": "Dulles",
    "State": "VA",
    "Postal": "20166",
    "Latitude": 38.92,
    "Longitude": -77.35
  },
  {
    "Name": "Tysons Corner Center",
    "Address1": "7983 Tysons Corner Center",
    "Address2": null,
    "City": "McLean",
    "State": "VA",
    "Postal": "22102",
    "Latitude": 38.9342,
    "Longitude": -77.1778
  },
  {
    "Name": "Apple Blossom Mall",
    "Address1": "1850 Apple Blossom Drive",
    "Address2": null,
    "City": "Winchester",
    "State": "VA",
    "Postal": "22601",
    "Latitude": 39.1856,
    "Longitude": -78.1636
  },
  {
    "Name": "Hagerstown Premium Outlets",
    "Address1": "495 Prime Outlets Boulevard",
    "Address2": null,
    "City": "Hagerstown",
    "State": "MD",
    "Postal": "21740",
    "Latitude": 39.6417,
    "Longitude": -77.7203
  },
  {
    "Name": "Valley Mall ",
    "Address1": "1925 East Market Street",
    "Address2": null,
    "City": "Harrisonburg",
    "State": "VA",
    "Postal": "22801",
    "Latitude": 38.5076,
    "Longitude": -78.8853
  },
  {
    "Name": "Valley Mall  ",
    "Address1": "17301 Valley Mall Road",
    "Address2": null,
    "City": "Hagerstown ",
    "State": "MD",
    "Postal": "21740",
    "Latitude": 39.1365,
    "Longitude": -76.7218
  },
  {
    "Name": "Fair Oaks ",
    "Address1": "11743L Fair Oaks Mall",
    "Address2": null,
    "City": "Fairfax",
    "State": "VA",
    "Postal": "22033",
    "Latitude": 38.8461,
    "Longitude": -77.3067
  },
  {
    "Name": "Leesburg Premium Outlet",
    "Address1": "241 Fort Evan Rd NE",
    "Address2": null,
    "City": "Leesburg",
    "State": "VA",
    "Postal": "20176",
    "Latitude": 39.1156,
    "Longitude": -77.5639
  },
  {
    "Name": "Manassas Mall",
    "Address1": "8300 Sudley Road",
    "Address2": null,
    "City": "Manassas",
    "State": "VA",
    "Postal": "20109",
    "Latitude": 38.7508,
    "Longitude": -77.4756
  },
  {
    "Name": "Country Club Mall",
    "Address1": "1262 Vocke Road",
    "Address2": null,
    "City": "LaValle",
    "State": "MD",
    "Postal": "21502",
    "Latitude": 38.9786,
    "Longitude": -76.6256
  },
  {
    "Name": "Twelve Oaks Mall",
    "Address1": "27688 Novi Road",
    "Address2": null,
    "City": "Novi",
    "State": "MI",
    "Postal": "48377",
    "Latitude": 42.4806,
    "Longitude": -83.4756
  },
  {
    "Name": "Lakeside Mall ",
    "Address1": "14600 Lakeside Circle",
    "Address2": null,
    "City": "Sterling Heights",
    "State": "MI",
    "Postal": "48313",
    "Latitude": 42.5803,
    "Longitude": -83.0303
  },
  {
    "Name": "Genesee Valley Center",
    "Address1": "3231 South Linden Road",
    "Address2": null,
    "City": "Flint",
    "State": "MI",
    "Postal": "48507",
    "Latitude": 43.0211,
    "Longitude": -83.7064
  },
  {
    "Name": "Great Lakes Crossing",
    "Address1": "4532 Baldwin Road",
    "Address2": null,
    "City": "Auburn Hills",
    "State": "MI",
    "Postal": "48326",
    "Latitude": 42.6875,
    "Longitude": -83.2342
  },
  {
    "Name": "Fashion Square Mall",
    "Address1": "4691 Fashion Square Mall",
    "Address2": null,
    "City": "Saginaw",
    "State": "MI",
    "Postal": "48604",
    "Latitude": 43.3283,
    "Longitude": -84.0554
  },
  {
    "Name": "Macomb Mall",
    "Address1": "32281 Gratiot Avenue",
    "Address2": null,
    "City": "Roseville",
    "State": "MI",
    "Postal": "48066",
    "Latitude": 42.4972,
    "Longitude": -82.9372
  },
  {
    "Name": "Birchwood Mall",
    "Address1": "4350 24th Avenue",
    "Address2": null,
    "City": "Fort Gratiot",
    "State": "MI",
    "Postal": "48059",
    "Latitude": 43.9351,
    "Longitude": -85.2285
  },
  {
    "Name": "Bay City Mall",
    "Address1": "4101 E Wilder Road",
    "Address2": null,
    "City": "Bay City",
    "State": "MI",
    "Postal": "48706",
    "Latitude": 43.9351,
    "Longitude": -85.2285
  },
  {
    "Name": "Oakland Mall",
    "Address1": "362 W 14 Mile Road",
    "Address2": null,
    "City": "Troy",
    "State": "MI",
    "Postal": "48083",
    "Latitude": 42.6056,
    "Longitude": -83.15
  },
  {
    "Name": "Ross Park Mall",
    "Address1": "1000 Ross Park Mall Drive",
    "Address2": null,
    "City": "Pittsburgh",
    "State": "PA",
    "Postal": "15237",
    "Latitude": 40.4343,
    "Longitude": -79.8281
  },
  {
    "Name": "Ohio Valley Mall",
    "Address1": "67800 Mall Ring Road",
    "Address2": null,
    "City": "St Clairsville",
    "State": "OH",
    "Postal": "43950",
    "Latitude": 40.2141,
    "Longitude": -82.6933
  },
  {
    "Name": "Southern Park Mall",
    "Address1": "7401 Market Street",
    "Address2": null,
    "City": "Youngstown",
    "State": "OH",
    "Postal": "44512",
    "Latitude": 41.0997,
    "Longitude": -80.6497
  },
  {
    "Name": "Eastwood Mall",
    "Address1": "5555 Youngstown-Warren Rd",
    "Address2": null,
    "City": "Niles",
    "State": "OH",
    "Postal": "44446",
    "Latitude": 41.1828,
    "Longitude": -80.7656
  },
  {
    "Name": "Grand Central Mall",
    "Address1": "100 Grand Central Mall",
    "Address2": null,
    "City": "Vienna",
    "State": "WV",
    "Postal": "26105",
    "Latitude": 39.3269,
    "Longitude": -81.5486
  },
  {
    "Name": "Prime Retail Grove City",
    "Address1": "1911 Leesburg Grove City Rd",
    "Address2": null,
    "City": "Grove City",
    "State": "PA",
    "Postal": "16127",
    "Latitude": 40.6467,
    "Longitude": -77.5612
  },
  {
    "Name": "Mill Creek Mall",
    "Address1": "250 Millcreek Mall",
    "Address2": null,
    "City": "Erie",
    "State": "PA",
    "Postal": "16565",
    "Latitude": 42.118,
    "Longitude": -80.0964
  },
  {
    "Name": "Galleria at Pittsburgh Mills",
    "Address1": "373 Pittsburgh Mills Circle",
    "Address2": null,
    "City": "Tarentum",
    "State": "PA",
    "Postal": "15084",
    "Latitude": 40.6014,
    "Longitude": -79.76
  },
  {
    "Name": "Southland",
    "Address1": "23000 Eureka Road",
    "Address2": null,
    "City": "Taylor",
    "State": "MI",
    "Postal": "48180",
    "Latitude": 42.2408,
    "Longitude": -83.2697
  },
  {
    "Name": "Franklin Park Mall",
    "Address1": "5001 Monroe Street",
    "Address2": null,
    "City": "Toledo",
    "State": "OH",
    "Postal": "43623",
    "Latitude": 41.544,
    "Longitude": -83.6909
  },
  {
    "Name": "Fairlane Town Center",
    "Address1": "18900 Michigan Avenue",
    "Address2": null,
    "City": "Dearborn",
    "State": "MI",
    "Postal": "48126",
    "Latitude": 42.3222,
    "Longitude": -83.1764
  },
  {
    "Name": "Sandusky Mall",
    "Address1": "4314 Milan Road",
    "Address2": null,
    "City": "Sandusky",
    "State": "OH",
    "Postal": "44870",
    "Latitude": 41.3468,
    "Longitude": -83.1454
  },
  {
    "Name": "Birch Run Premium Outlets",
    "Address1": "12140 South Beyer Road",
    "Address2": null,
    "City": "Birch Run",
    "State": "MI",
    "Postal": "48415",
    "Latitude": 43.9351,
    "Longitude": -85.2285
  },
  {
    "Name": "Tanger Outlet Center Howell",
    "Address1": "1475 North Burkhart Road",
    "Address2": null,
    "City": "Howell",
    "State": "MI",
    "Postal": "48855",
    "Latitude": 42.6072,
    "Longitude": -83.9294
  },
  {
    "Name": "Briarwood Mall",
    "Address1": "266 Briarwood Circle",
    "Address2": null,
    "City": "Ann Arbor",
    "State": "MI",
    "Postal": "48108",
    "Latitude": 43.9351,
    "Longitude": -85.2285
  },
  {
    "Name": "Shops at Fallen Timber",
    "Address1": "3100 Main Street",
    "Address2": null,
    "City": "Maumee",
    "State": "OH",
    "Postal": "43537",
    "Latitude": 41.5628,
    "Longitude": -83.6539
  },
  {
    "Name": "Westland Shopping Center",
    "Address1": "35000 West Warren",
    "Address2": null,
    "City": "Westland",
    "State": "MI",
    "Postal": "48185",
    "Latitude": 42.3242,
    "Longitude": -83.4003
  },
  {
    "Name": "St Charles Towne Center",
    "Address1": "11110 Mall Circle",
    "Address2": null,
    "City": "Waldorf",
    "State": "MD",
    "Postal": "20603",
    "Latitude": 38.6244,
    "Longitude": -76.9394
  },
  {
    "Name": "Columbia Mall ",
    "Address1": "10300 Little Patuxent Parkway",
    "Address2": null,
    "City": "Columbia",
    "State": "MD",
    "Postal": "21044",
    "Latitude": 39.2403,
    "Longitude": -76.8397
  },
  {
    "Name": "Annapolis Mall",
    "Address1": "1340 Annapolis Mall",
    "Address2": null,
    "City": "Annapolis",
    "State": "MD",
    "Postal": "21401",
    "Latitude": 38.9783,
    "Longitude": -76.4925
  },
  {
    "Name": "Arundel Mills",
    "Address1": "7000 Arundel Mills Circle",
    "Address2": null,
    "City": "Hanover",
    "State": "MD",
    "Postal": "21076",
    "Latitude": 39.1928,
    "Longitude": -76.7244
  },
  {
    "Name": "Lakeforest Mall",
    "Address1": "701 Russell Avenue",
    "Address2": null,
    "City": "Gaithersburg",
    "State": "MD",
    "Postal": "20877",
    "Latitude": 39.1433,
    "Longitude": -77.2017
  },
  {
    "Name": "Wheaton Mall",
    "Address1": "11160 Veirs Mill Road",
    "Address2": null,
    "City": "Silver Spring",
    "State": "MD",
    "Postal": "20902",
    "Latitude": 38.9906,
    "Longitude": -77.0264
  },
  {
    "Name": "Towson Town Center",
    "Address1": "825 Dulaney Valley Road",
    "Address2": null,
    "City": "Towson",
    "State": "MD",
    "Postal": "21204",
    "Latitude": 39.4014,
    "Longitude": -76.6022
  },
  {
    "Name": "Montgomery Mall",
    "Address1": "7101 Democracy Blvd",
    "Address2": null,
    "City": "Bethesda",
    "State": "MD",
    "Postal": "20817",
    "Latitude": 38.9806,
    "Longitude": -77.1006
  },
  {
    "Name": "Marley Station",
    "Address1": "7900 Governor Ritchie Hwy",
    "Address2": null,
    "City": "Glen Burnie",
    "State": "MD",
    "Postal": "21061",
    "Latitude": 39.1625,
    "Longitude": -76.625
  },
  {
    "Name": "Tanger National Harbor",
    "Address1": "6800 Oxon Hill Rd",
    "Address2": null,
    "City": "Oxon Hill",
    "State": "MD",
    "Postal": "20745",
    "Latitude": 39.1365,
    "Longitude": -76.7218
  },
  {
    "Name": "Concord Mall",
    "Address1": "4737 Concord Pike",
    "Address2": null,
    "City": "Wilmington",
    "State": "DE",
    "Postal": "19803",
    "Latitude": 39.7458,
    "Longitude": -75.5469
  },
  {
    "Name": "Christiana Mall",
    "Address1": "102 Christiana Mall",
    "Address2": null,
    "City": "Newark",
    "State": "DE",
    "Postal": "19702",
    "Latitude": 39.6836,
    "Longitude": -75.75
  },
  {
    "Name": "Dover Mall",
    "Address1": "3024 Dover Mall",
    "Address2": null,
    "City": "Dover",
    "State": "DE",
    "Postal": "19901",
    "Latitude": 39.0971,
    "Longitude": -75.503
  },
  {
    "Name": "Harford Mall",
    "Address1": "678 Belair Road",
    "Address2": null,
    "City": "Bel Air",
    "State": "MD",
    "Postal": "21014",
    "Latitude": 39.1365,
    "Longitude": -76.7218
  },
  {
    "Name": "White Marsh",
    "Address1": "8200 Perry Hall Boulevard",
    "Address2": null,
    "City": "Baltimore",
    "State": "MD",
    "Postal": "21236",
    "Latitude": 39.4568,
    "Longitude": -76.691
  },
  {
    "Name": "Tanger Outlets Rehoboth Beach",
    "Address1": "4565 Highway One",
    "Address2": null,
    "City": "Rehoboth",
    "State": "DE",
    "Postal": "19971",
    "Latitude": 38.6860052,
    "Longitude": -75.0866812
  },
  {
    "Name": "Center at Salisbury",
    "Address1": "2300 N Salisbury Boulevard",
    "Address2": null,
    "City": "Salisbury",
    "State": "MD",
    "Postal": "21801",
    "Latitude": 38.3606,
    "Longitude": -75.5997
  },
  {
    "Name": "Queenstown Premium Outlets",
    "Address1": "416 Outlet Center Drive",
    "Address2": null,
    "City": "Queenstown",
    "State": "MD",
    "Postal": "21658",
    "Latitude": 38.9906,
    "Longitude": -76.1581
  },
  {
    "Name": "Ocean City Outlets",
    "Address1": "12741 Ocean Gateway",
    "Address2": null,
    "City": "Ocean City",
    "State": "MD",
    "Postal": "21842",
    "Latitude": 39.1365,
    "Longitude": -76.7218
  },
  {
    "Name": "Great Northern Mall ",
    "Address1": "4954 Great Northern Mall",
    "Address2": null,
    "City": "North Olmstead",
    "State": "OH",
    "Postal": "44070",
    "Latitude": 40.2141,
    "Longitude": -82.6933
  },
  {
    "Name": "Belden Village",
    "Address1": "4381 Belden Village Mall",
    "Address2": null,
    "City": "Canton",
    "State": "OH",
    "Postal": "44718",
    "Latitude": 40.7989,
    "Longitude": -81.3786
  },
  {
    "Name": "Great Lakes Mall",
    "Address1": "7850 Mentor Avenue",
    "Address2": null,
    "City": "Mentor",
    "State": "OH",
    "Postal": "44060",
    "Latitude": 41.6661,
    "Longitude": -81.3397
  },
  {
    "Name": "Southpark Center",
    "Address1": "408 Southpark Center",
    "Address2": null,
    "City": "Strongsville",
    "State": "OH",
    "Postal": "44136",
    "Latitude": 41.3144,
    "Longitude": -81.8358
  },
  {
    "Name": "Summit Mall",
    "Address1": "3265 West Market Street",
    "Address2": null,
    "City": "Akron",
    "State": "OH",
    "Postal": "44333",
    "Latitude": 41.1466,
    "Longitude": -81.3501
  },
  {
    "Name": "Chapel Hill Mall",
    "Address1": "2000 Britain Road",
    "Address2": null,
    "City": "Akron",
    "State": "OH",
    "Postal": "44310",
    "Latitude": 41.1466,
    "Longitude": -81.3501
  },
  {
    "Name": "Richland Mall ",
    "Address1": "649 Richland Mall",
    "Address2": null,
    "City": "Mansfield",
    "State": "OH",
    "Postal": "44906",
    "Latitude": 40.7742,
    "Longitude": -82.5428
  },
  {
    "Name": "Aurora Premium Outlets",
    "Address1": "549 S Chillicothe Road",
    "Address2": null,
    "City": "Aurora",
    "State": "OH",
    "Postal": "44202",
    "Latitude": 41.3175,
    "Longitude": -81.3456
  },
  {
    "Name": "Lodi Station Outlet",
    "Address1": "9911 Avon Lake Road",
    "Address2": null,
    "City": "Burbank",
    "State": "OH",
    "Postal": "44214",
    "Latitude": 40.9886,
    "Longitude": -81.995
  },
  {
    "Name": "University Park Mall",
    "Address1": "6501 North Grape Road",
    "Address2": null,
    "City": "Mishawaka",
    "State": "IN",
    "Postal": "46545",
    "Latitude": 41.6619,
    "Longitude": -86.1586
  },
  {
    "Name": "Rivertown Crossing",
    "Address1": "3700 Rivertown Parkway SW",
    "Address2": null,
    "City": "Grandville",
    "State": "MI",
    "Postal": "49418",
    "Latitude": 42.9097,
    "Longitude": -85.7631
  },
  {
    "Name": "Meridian Mall",
    "Address1": "1982 East Grand River Avenue",
    "Address2": null,
    "City": "Okemos",
    "State": "MI",
    "Postal": "48864",
    "Latitude": 42.7222,
    "Longitude": -84.4275
  },
  {
    "Name": "Woodland Mall",
    "Address1": "3195 28th Street",
    "Address2": null,
    "City": "Grand Rapids",
    "State": "MI",
    "Postal": "49512",
    "Latitude": 42.9633,
    "Longitude": -85.6681
  },
  {
    "Name": "The Lakes Mall",
    "Address1": "5600 Harvey Street",
    "Address2": null,
    "City": "Muskegon",
    "State": "MI",
    "Postal": "49444",
    "Latitude": 43.2893,
    "Longitude": -86.7519
  },
  {
    "Name": "Westwood Mall",
    "Address1": "1804 W Michigan Avenue",
    "Address2": null,
    "City": "Jackson",
    "State": "MI",
    "Postal": "49202",
    "Latitude": 42.2485,
    "Longitude": -84.4209
  },
  {
    "Name": "Grand Traverse",
    "Address1": "3200 S Airport Road West",
    "Address2": null,
    "City": "Traverse City",
    "State": "MI",
    "Postal": "49684",
    "Latitude": 44.7631,
    "Longitude": -85.6206
  },
  {
    "Name": "Lansing Mall",
    "Address1": "5318 W Saginaw Avenue",
    "Address2": null,
    "City": "Lansing",
    "State": "MI",
    "Postal": "48917",
    "Latitude": 42.7325,
    "Longitude": -84.5556
  },
  {
    "Name": "Lakeview Square",
    "Address1": "5775 Beckley Road",
    "Address2": null,
    "City": "Battle Creek",
    "State": "MI",
    "Postal": "49015",
    "Latitude": 42.243,
    "Longitude": -85.0124
  },
  {
    "Name": "Crossroads Mall ",
    "Address1": "6650 South Westnedge",
    "Address2": null,
    "City": "Portage",
    "State": "MI",
    "Postal": "49024",
    "Latitude": 42.2011,
    "Longitude": -85.58
  },
  {
    "Name": "Frenchtown Square Mall",
    "Address1": "2121 N Monroe South",
    "Address2": null,
    "City": "Monroe",
    "State": "MI",
    "Postal": "48162",
    "Latitude": 41.9161,
    "Longitude": -83.4871
  },
  {
    "Name": "Outlet Shoppes at Fremont",
    "Address1": "6245 North Old 27",
    "Address2": null,
    "City": "Fremont",
    "State": "IN",
    "Postal": "46737",
    "Latitude": 41.7308,
    "Longitude": -84.9328
  },
  {
    "Name": "Lycoming Mall",
    "Address1": "300 Lycoming Mall Circle",
    "Address2": null,
    "City": "Pennsdale",
    "State": "PA",
    "Postal": "17756",
    "Latitude": 41.2431,
    "Longitude": -76.7969
  },
  {
    "Name": "Lehigh Valley Mall",
    "Address1": "250 Lehigh Valley Mall",
    "Address2": null,
    "City": "Whitehall",
    "State": "PA",
    "Postal": "18052",
    "Latitude": 39.7908,
    "Longitude": -77.1097
  },
  {
    "Name": "Stroud Mall",
    "Address1": "152 Stroud Road",
    "Address2": null,
    "City": "Stroudsburg",
    "State": "PA",
    "Postal": "18360",
    "Latitude": 40.9867,
    "Longitude": -75.195
  },
  {
    "Name": "Susquehanna Mall",
    "Address1": "Route 11 & 15",
    "Address2": null,
    "City": "Selinsgrove",
    "State": "PA",
    "Postal": "17870",
    "Latitude": 40.7989,
    "Longitude": -76.8625
  },
  {
    "Name": "Viewmont Mall",
    "Address1": "38 Viewmont Mall",
    "Address2": null,
    "City": "Scranton",
    "State": "PA",
    "Postal": "18505",
    "Latitude": 41.4089,
    "Longitude": -75.6628
  },
  {
    "Name": "Wyoming Valley Mall",
    "Address1": "29 Wyoming Valley Mall",
    "Address2": null,
    "City": "Wilkes-Barre",
    "State": "PA",
    "Postal": "18702",
    "Latitude": 41.2458,
    "Longitude": -75.8817
  },
  {
    "Name": "The Crossings Premium Outlets",
    "Address1": "1000 Route 611",
    "Address2": null,
    "City": "Tannersville",
    "State": "PA",
    "Postal": "18372",
    "Latitude": 41.04,
    "Longitude": -75.3061
  },
  {
    "Name": "Shops at Saucon Valley",
    "Address1": "2845 Center Valley Parkway",
    "Address2": null,
    "City": "Center Valley",
    "State": "PA",
    "Postal": "18034",
    "Latitude": 40.5292,
    "Longitude": -75.3936
  },
  {
    "Name": "Shops at Montage",
    "Address1": "2531 Shoppes Blvd",
    "Address2": null,
    "City": "Moosic",
    "State": "PA",
    "Postal": "18507",
    "Latitude": 41.3533,
    "Longitude": -75.7386
  },
  {
    "Name": "La Plaza Mall",
    "Address1": "2200 S 10th Street",
    "Address2": null,
    "City": "McAllen",
    "State": "TX",
    "Postal": "78503",
    "Latitude": 26.2031,
    "Longitude": -98.2297
  },
  {
    "Name": "Sunrise Mall ",
    "Address1": "2370 North Exp",
    "Address2": null,
    "City": "Brownsville",
    "State": "TX",
    "Postal": "78521",
    "Latitude": 25.9014,
    "Longitude": -97.4972
  },
  {
    "Name": "Rio Grande Premium Outlets",
    "Address1": "5001 East Expressway 83",
    "Address2": null,
    "City": "Mercedes",
    "State": "TX",
    "Postal": "78570",
    "Latitude": 26.1494,
    "Longitude": -97.9133
  },
  {
    "Name": "La Palmera",
    "Address1": "5488 S Padre Island Drive",
    "Address2": null,
    "City": "Corpus Christi",
    "State": "TX",
    "Postal": "78411",
    "Latitude": 27.8989,
    "Longitude": -97.4012
  },
  {
    "Name": "Valle Vista",
    "Address1": "2020 S Expressway 83",
    "Address2": null,
    "City": "Harlingen ",
    "State": "TX",
    "Postal": "78552",
    "Latitude": 31.302,
    "Longitude": -97.6941
  },
  {
    "Name": "Arizona Mills",
    "Address1": "5000 Arizona Mills Circle",
    "Address2": null,
    "City": "Tempe",
    "State": "AZ",
    "Postal": "85282",
    "Latitude": 33.4147,
    "Longitude": -111.9086
  },
  {
    "Name": "Scottsdale Fashion Square",
    "Address1": "7014 East Camelback Road",
    "Address2": null,
    "City": "Scottsdale",
    "State": "AZ",
    "Postal": "85251",
    "Latitude": 33.5092,
    "Longitude": -111.8983
  },
  {
    "Name": "Metrocenter Mall",
    "Address1": "9818 Metro Parkway East",
    "Address2": null,
    "City": "Phoenix",
    "State": "AZ",
    "Postal": "85051",
    "Latitude": 33.4483,
    "Longitude": -112.0733
  },
  {
    "Name": "Park Place",
    "Address1": "5870 E Broadway Boulevard",
    "Address2": null,
    "City": "Tuscon",
    "State": "AZ",
    "Postal": "85711",
    "Latitude": 33.6523,
    "Longitude": -111.6184
  },
  {
    "Name": "Superstition Springs",
    "Address1": "6555 East Southern Avenue",
    "Address2": null,
    "City": "Mesa",
    "State": "AZ",
    "Postal": "85206",
    "Latitude": 33.4222,
    "Longitude": -111.8219
  },
  {
    "Name": "Arrowhead Towne Centre",
    "Address1": "7700 W Arrowhead Towne Ctr",
    "Address2": null,
    "City": "Glendale",
    "State": "AZ",
    "Postal": "85308",
    "Latitude": 33.5386,
    "Longitude": -112.1853
  },
  {
    "Name": "Tucson Mall",
    "Address1": "4500 North Oracle Road",
    "Address2": null,
    "City": "Tucson",
    "State": "AZ",
    "Postal": "85705",
    "Latitude": 32.1285,
    "Longitude": -111.783
  },
  {
    "Name": "Foothills Mall",
    "Address1": "7401 North La Cholla Blvd",
    "Address2": null,
    "City": "Tuscon",
    "State": "AZ",
    "Postal": "85741",
    "Latitude": 33.6523,
    "Longitude": -111.6184
  },
  {
    "Name": "Outlets at Anthem",
    "Address1": "4250 West Anthem Way",
    "Address2": null,
    "City": "Phoenix",
    "State": "AZ",
    "Postal": "85086",
    "Latitude": 33.4483,
    "Longitude": -112.0733
  },
  {
    "Name": "Westgate",
    "Address1": "6800 North 95 Avenue",
    "Address2": null,
    "City": "Glendale",
    "State": "AZ",
    "Postal": "85305",
    "Latitude": 33.5386,
    "Longitude": -112.1853
  },
  {
    "Name": "Mariposa Mall",
    "Address1": "350 West Mariposa Road",
    "Address2": null,
    "City": "Nogales",
    "State": "AZ",
    "Postal": "85621",
    "Latitude": 31.3403,
    "Longitude": -110.9336
  },
  {
    "Name": "Mall of Abilene",
    "Address1": "4301 Buffalo Gap Road",
    "Address2": null,
    "City": "Abilene",
    "State": "TX",
    "Postal": "79606",
    "Latitude": 32.452,
    "Longitude": -99.7187
  },
  {
    "Name": "North Star",
    "Address1": "7400 San Pedro Avenue",
    "Address2": null,
    "City": "San Antonio",
    "State": "TX",
    "Postal": "78216",
    "Latitude": 29.4239,
    "Longitude": -98.4933
  },
  {
    "Name": "Rivercenter Mall",
    "Address1": "849 East Commerce Street",
    "Address2": null,
    "City": "San Antonio",
    "State": "TX",
    "Postal": "78205",
    "Latitude": 29.4239,
    "Longitude": -98.4933
  },
  {
    "Name": "Ingram Park Mall",
    "Address1": "6301 Northwest Loop 410",
    "Address2": null,
    "City": "San Antonio",
    "State": "TX",
    "Postal": "78238",
    "Latitude": 29.4239,
    "Longitude": -98.4933
  },
  {
    "Name": "Shoppes at La Cantera",
    "Address1": "15900 La Cantera Parkway",
    "Address2": null,
    "City": "San Antonio",
    "State": "TX",
    "Postal": "78256",
    "Latitude": 29.4239,
    "Longitude": -98.4933
  },
  {
    "Name": "Rolling Oaks Mall",
    "Address1": "6909 North Loop 1604",
    "Address2": null,
    "City": "San Antonio",
    "State": "TX",
    "Postal": "78247",
    "Latitude": 29.4239,
    "Longitude": -98.4933
  },
  {
    "Name": "South Park Mall",
    "Address1": "2310 SW Military Drive",
    "Address2": null,
    "City": "San Antonio",
    "State": "TX",
    "Postal": "78224",
    "Latitude": 29.4239,
    "Longitude": -98.4933
  },
  {
    "Name": "Village at Stone Oak",
    "Address1": "22610 US Highway 281 North",
    "Address2": null,
    "City": "San Antonio",
    "State": "TX",
    "Postal": "78258",
    "Latitude": 29.4239,
    "Longitude": -98.4933
  },
  {
    "Name": "Sunset Mall",
    "Address1": "4001 Sunset Drive",
    "Address2": null,
    "City": "San Angelo",
    "State": "TX",
    "Postal": "76904",
    "Latitude": 31.302,
    "Longitude": -97.6941
  },
  {
    "Name": "Sikes Senter",
    "Address1": "3111 Midwestern Parkway",
    "Address2": null,
    "City": "Wichita Falls",
    "State": "TX",
    "Postal": "76308",
    "Latitude": 33.7761,
    "Longitude": -98.5019
  },
  {
    "Name": "Penn Square Mall",
    "Address1": "1901 Northwest Expressway",
    "Address2": null,
    "City": "Oklahoma City",
    "State": "OK",
    "Postal": "73118",
    "Latitude": 35.431,
    "Longitude": -97.507
  },
  {
    "Name": "Quail Springs",
    "Address1": "2501 West Memorial Road",
    "Address2": null,
    "City": "Oklahoma City",
    "State": "OK",
    "Postal": "73134",
    "Latitude": 35.431,
    "Longitude": -97.507
  },
  {
    "Name": "Woodland Hills Mall",
    "Address1": "7021 South Memorial Drive",
    "Address2": null,
    "City": "Tulsa",
    "State": "OK",
    "Postal": "74133",
    "Latitude": 36.2542,
    "Longitude": -96.175
  },
  {
    "Name": "South Plains Mall",
    "Address1": "6002 Slide Road",
    "Address2": null,
    "City": "Lubbock",
    "State": "TX",
    "Postal": "79414",
    "Latitude": 33.4703,
    "Longitude": -101.6488
  },
  {
    "Name": "Westgate Mall  ",
    "Address1": "7701 West Interstate 40",
    "Address2": null,
    "City": "Amarillo",
    "State": "TX",
    "Postal": "79121",
    "Latitude": 35.248,
    "Longitude": -101.9087
  },
  {
    "Name": "Sooner Fashion Mall",
    "Address1": "3321 West Main Street",
    "Address2": null,
    "City": "Norman",
    "State": "OK",
    "Postal": "73072",
    "Latitude": 35.2225,
    "Longitude": -97.4392
  },
  {
    "Name": "Central Mall   ",
    "Address1": "200 C Avenue",
    "Address2": null,
    "City": "Lawton",
    "State": "OK",
    "Postal": "73501",
    "Latitude": 34.5291,
    "Longitude": -98.4309
  },
  {
    "Name": "Shawnee Mall",
    "Address1": "4901 N Kickapoo Street",
    "Address2": null,
    "City": "Shawnee",
    "State": "OK",
    "Postal": "74804",
    "Latitude": 35.3272,
    "Longitude": -96.925
  },
  {
    "Name": "Oklahoma Factory Shops",
    "Address1": "7628 W Reno Ave",
    "Address2": null,
    "City": "Oklahoma City",
    "State": "OK",
    "Postal": "73127",
    "Latitude": 35.431,
    "Longitude": -97.507
  },
  {
    "Name": "San Marcos Premium Outlets",
    "Address1": "3939 IH  35 South",
    "Address2": null,
    "City": "San Marcos",
    "State": "TX",
    "Postal": "78666",
    "Latitude": 31.302,
    "Longitude": -97.6941
  },
  {
    "Name": "Lakeline Mall",
    "Address1": "11200 Lakeline Mall Drive",
    "Address2": null,
    "City": "Cedar Park",
    "State": "TX",
    "Postal": "78613",
    "Latitude": 31.302,
    "Longitude": -97.6941
  },
  {
    "Name": "Barton Creek",
    "Address1": "2901 Capital of Texas Highway",
    "Address2": null,
    "City": "Austin ",
    "State": "TX",
    "Postal": "78746",
    "Latitude": 31.302,
    "Longitude": -97.6941
  },
  {
    "Name": "Richland Mall  ",
    "Address1": "6001 West Waco Drive",
    "Address2": null,
    "City": "Waco",
    "State": "TX",
    "Postal": "76710",
    "Latitude": 31.4272,
    "Longitude": -97.0935
  },
  {
    "Name": "Victoria Mall",
    "Address1": "7800 North Navarro",
    "Address2": null,
    "City": "Victoria",
    "State": "TX",
    "Postal": "77904",
    "Latitude": 28.7315,
    "Longitude": -97.197
  },
  {
    "Name": "Killeen Mall",
    "Address1": "2100 South WS Young Drive",
    "Address2": null,
    "City": "Killeen",
    "State": "TX",
    "Postal": "76543",
    "Latitude": 31.1169,
    "Longitude": -97.7275
  },
  {
    "Name": "Round Rock Premium Outlets",
    "Address1": "4401 North IH 35",
    "Address2": null,
    "City": "Round Rock",
    "State": "TX",
    "Postal": "78664",
    "Latitude": 31.302,
    "Longitude": -97.6941
  },
  {
    "Name": "Mall Del Norte",
    "Address1": "5300 South Dario",
    "Address2": null,
    "City": "Laredo",
    "State": "TX",
    "Postal": "78041",
    "Latitude": 27.7706,
    "Longitude": -99.3266
  },
  {
    "Name": "The Domain",
    "Address1": "11010 Domain Dr",
    "Address2": null,
    "City": "Austin",
    "State": "TX",
    "Postal": "78757",
    "Latitude": 29.9186,
    "Longitude": -96.2758
  },
  {
    "Name": "Sunland Park Mall",
    "Address1": "750 Sunland Park Drive",
    "Address2": null,
    "City": "El Paso",
    "State": "TX",
    "Postal": "79912",
    "Latitude": 31.302,
    "Longitude": -97.6941
  },
  {
    "Name": "Coronado Center",
    "Address1": "6600 Menual Northeast",
    "Address2": null,
    "City": "Albuquerque",
    "State": "NM",
    "Postal": "87110",
    "Latitude": 35.1166,
    "Longitude": -106.4565
  },
  {
    "Name": "Cielo Vista",
    "Address1": "8401 Gateway Blvd",
    "Address2": null,
    "City": "El Paso",
    "State": "TX",
    "Postal": "79925",
    "Latitude": 31.302,
    "Longitude": -97.6941
  },
  {
    "Name": "Mesilla Valley Mall",
    "Address1": "700 South Telshor",
    "Address2": null,
    "City": "Las Cruces",
    "State": "NM",
    "Postal": "88011",
    "Latitude": 34.6739,
    "Longitude": -106.2097
  },
  {
    "Name": "Cottonwood Mall",
    "Address1": "10000 Coors Blvd NW",
    "Address2": null,
    "City": "Albuquerque",
    "State": "NM",
    "Postal": "87114",
    "Latitude": 35.1166,
    "Longitude": -106.4565
  },
  {
    "Name": "The Outlet Shoppes at El Paso",
    "Address1": "7051 South Desert Blvd",
    "Address2": null,
    "City": "Canutillo",
    "State": "TX",
    "Postal": "79835",
    "Latitude": 31.9114,
    "Longitude": -106.5997
  },
  {
    "Name": "Las Palmas Marketplace",
    "Address1": "11917 Gateway West",
    "Address2": null,
    "City": "El Paso",
    "State": "TX",
    "Postal": "79936",
    "Latitude": 31.302,
    "Longitude": -97.6941
  },
  {
    "Name": "Animas Valley Mall",
    "Address1": "4601 East Main",
    "Address2": null,
    "City": "Farmington",
    "State": "NM",
    "Postal": "87402",
    "Latitude": 36.5116,
    "Longitude": -108.3246
  },
  {
    "Name": "Fashion Outlets of Santa Fe",
    "Address1": "8380 Cerillos Rd",
    "Address2": null,
    "City": "Santa Fe",
    "State": "NM",
    "Postal": "87507",
    "Latitude": 34.6739,
    "Longitude": -106.2097
  },
  {
    "Name": "Hulen Mall",
    "Address1": "4800 S Hulen St",
    "Address2": null,
    "City": "Fort Worth",
    "State": "TX",
    "Postal": "76132",
    "Latitude": 31.302,
    "Longitude": -97.6941
  },
  {
    "Name": "Parks at Arlington",
    "Address1": "3811 South Cooper Street",
    "Address2": null,
    "City": "Arlington",
    "State": "TX",
    "Postal": "76015",
    "Latitude": 32.7356,
    "Longitude": -97.1078
  },
  {
    "Name": "Northeast Mall",
    "Address1": "1001 Melbourne Street",
    "Address2": null,
    "City": "Hurst",
    "State": "TX",
    "Postal": "76053",
    "Latitude": 32.8233,
    "Longitude": -97.1703
  },
  {
    "Name": "Town East Mall",
    "Address1": "2063 Town East Mall",
    "Address2": null,
    "City": "Mesquite",
    "State": "TX",
    "Postal": "75150",
    "Latitude": 32.7667,
    "Longitude": -96.5989
  },
  {
    "Name": "Hillsboro Premium Outlets",
    "Address1": "104 I-35 NE",
    "Address2": null,
    "City": "Hillsboro",
    "State": "TX",
    "Postal": "76645",
    "Latitude": 32.0108,
    "Longitude": -97.1297
  },
  {
    "Name": "Gateway Station",
    "Address1": "12900 South Freeway",
    "Address2": null,
    "City": "Burleson",
    "State": "TX",
    "Postal": "76028",
    "Latitude": 30.4943,
    "Longitude": -96.6223
  },
  {
    "Name": "Midland Mall",
    "Address1": "4511 N Midkiff Drive",
    "Address2": null,
    "City": "Midland",
    "State": "TX",
    "Postal": "79705",
    "Latitude": 32.0924,
    "Longitude": -101.9945
  },
  {
    "Name": "Uptown Village at Cedar Hill ",
    "Address1": "305 West FM 1382",
    "Address2": null,
    "City": "Cedar Hill",
    "State": "TX",
    "Postal": "75104",
    "Latitude": 31.302,
    "Longitude": -97.6941
  },
  {
    "Name": "Paragon Outlets at Grand Prairie",
    "Address1": "2950 West Interstate 20",
    "Address2": null,
    "City": "Grand Prairie",
    "State": "TX",
    "Postal": "75052",
    "Latitude": 32.7458,
    "Longitude": -96.9975
  },
  {
    "Name": "Chimney Rock Shopping Center",
    "Address1": "6215 East Highway 191",
    "Address2": null,
    "City": "Odessa",
    "State": "TX",
    "Postal": "79762",
    "Latitude": 31.8653,
    "Longitude": -102.5425
  },
  {
    "Name": "White Oaks Mall  ",
    "Address1": "1105 Wellington Road",
    "Address2": null,
    "City": "London",
    "State": "ON",
    "Postal": "N6E1V4",
    "Latitude": 0,
    "Longitude": 0
  },
  {
    "Name": "Fairview Park",
    "Address1": "2960 Kingsway Drive",
    "Address2": null,
    "City": "Kitchener",
    "State": "ON",
    "Postal": "N2C1X1",
    "Latitude": 32.5819,
    "Longitude": -89.285
  },
  {
    "Name": "Oakville Place",
    "Address1": "240 Leighland Ave",
    "Address2": null,
    "City": "Oakville",
    "State": "ON",
    "Postal": "L6H3H6",
    "Latitude": 38.47,
    "Longitude": -90.3044
  },
  {
    "Name": "Square One",
    "Address1": "100 City Centre Drive",
    "Address2": null,
    "City": "Mississauga",
    "State": "ON",
    "Postal": "L5B2C9",
    "Latitude": 0,
    "Longitude": 0
  },
  {
    "Name": "Devonshire Mall",
    "Address1": "3100 Howard Avenue",
    "Address2": null,
    "City": "Windsor",
    "State": "ON",
    "Postal": "N8X 3Y7",
    "Latitude": 38.5472,
    "Longitude": -122.8153
  },
  {
    "Name": "Conestoga Mall  ",
    "Address1": "550 King Street North",
    "Address2": null,
    "City": "Waterloo",
    "State": "ON",
    "Postal": "N2L5W6",
    "Latitude": 42.4928,
    "Longitude": -92.3428
  },
  {
    "Name": "Lambton Mall",
    "Address1": "1380 London Road",
    "Address2": null,
    "City": "Sarnia",
    "State": "ON",
    "Postal": "N7S 1P8",
    "Latitude": 0,
    "Longitude": 0
  },
  {
    "Name": "Stone Road Mall",
    "Address1": " 435 Stone Road",
    "Address2": null,
    "City": "Guelph",
    "State": "ON",
    "Postal": "N1G 2X6",
    "Latitude": 46.0228,
    "Longitude": -98.2356
  },
  {
    "Name": "Masonville Place",
    "Address1": "1680 Richmond Street N",
    "Address2": null,
    "City": "London",
    "State": "ON",
    "Postal": "N6G 3Y9",
    "Latitude": 0,
    "Longitude": 0
  },
  {
    "Name": "Mapleview Shopping Center",
    "Address1": "900 Maple Avenue",
    "Address2": null,
    "City": "Burlington",
    "State": "ON",
    "Postal": "L7S 2J8",
    "Latitude": 40.0711,
    "Longitude": -74.8653
  },
  {
    "Name": "Place d'Orleans",
    "Address1": "110 Place dOrleans Drive",
    "Address2": null,
    "City": "Orleans",
    "State": "ON",
    "Postal": "K1C2L9",
    "Latitude": 30.0794,
    "Longitude": -89.934
  },
  {
    "Name": "Mic Mac Mall",
    "Address1": "21 Mic Mac Boulevard",
    "Address2": null,
    "City": "Halifax",
    "State": "NS",
    "Postal": "B3A4N3",
    "Latitude": 36.3283,
    "Longitude": -77.5897
  },
  {
    "Name": "Regent Mall    ",
    "Address1": "1381 Regent St PO Box 151",
    "Address2": null,
    "City": "Fredericton",
    "State": "NB",
    "Postal": "E3C 1A2",
    "Latitude": 0,
    "Longitude": 0
  },
  {
    "Name": "McAllister",
    "Address1": "519 Westmorland Road",
    "Address2": null,
    "City": "Saint John",
    "State": "NB",
    "Postal": "E2J 3W9",
    "Latitude": 0,
    "Longitude": 0
  },
  {
    "Name": "Bayshore Shopping Centre  ",
    "Address1": " 100 Bayshore Drive",
    "Address2": null,
    "City": "Ottawa",
    "State": "ON",
    "Postal": "K2B 8C1",
    "Latitude": 41.7672,
    "Longitude": -83.5214
  },
  {
    "Name": "Avalon Mall",
    "Address1": "48 Kenmount Road",
    "Address2": null,
    "City": "St John's",
    "State": "NL",
    "Postal": "A1B 1W3",
    "Latitude": 0,
    "Longitude": 0
  },
  {
    "Name": "Champlain Place",
    "Address1": "477 Paul Street ",
    "Address2": null,
    "City": "Dieppe  ",
    "State": "NB",
    "Postal": "E1A 4X5",
    "Latitude": 0,
    "Longitude": 0
  },
  {
    "Name": "Rideau Centre",
    "Address1": "50 Rideau Street",
    "Address2": null,
    "City": "Ottawa",
    "State": "ON",
    "Postal": "K1N 9J7",
    "Latitude": 41.7672,
    "Longitude": -83.5214
  },
  {
    "Name": "Tanger Ottawa",
    "Address1": "8555 Campeau Drive",
    "Address2": null,
    "City": "Ottawa",
    "State": "ON",
    "Postal": "K2T1B7",
    "Latitude": 41.7672,
    "Longitude": -83.5214
  },
  {
    "Name": "Georgian Mall",
    "Address1": "509 Bayfield Street",
    "Address2": null,
    "City": "Barrie",
    "State": "ON",
    "Postal": "L4M4Z8",
    "Latitude": 46.5689,
    "Longitude": -97.1222
  },
  {
    "Name": "Dufferin Mall",
    "Address1": "900 Dufferin Street",
    "Address2": null,
    "City": "Toronto",
    "State": "ON",
    "Postal": "M6H 4A9",
    "Latitude": 39.7139,
    "Longitude": -89.6297
  },
  {
    "Name": "Erin Mills",
    "Address1": "5100 Erin Mills Parkway",
    "Address2": null,
    "City": "Mississauga",
    "State": "ON",
    "Postal": "L5M4Z5",
    "Latitude": 0,
    "Longitude": 0
  },
  {
    "Name": "Lime Ridge Mall",
    "Address1": "999 Upper Wentworth Street",
    "Address2": null,
    "City": "Hamilton",
    "State": "ON",
    "Postal": "L9A4X5",
    "Latitude": 39.3994,
    "Longitude": -84.5614
  },
  {
    "Name": "The Promenade",
    "Address1": "1 Promenade Circle",
    "Address2": null,
    "City": "Thorn Hill",
    "State": "ON",
    "Postal": "L4J 4P8",
    "Latitude": 0,
    "Longitude": 0
  },
  {
    "Name": "New Sudbury Centre",
    "Address1": "1349 Lasalle Boulevard",
    "Address2": null,
    "City": "Sudbury",
    "State": "ON",
    "Postal": "P3A 3T9",
    "Latitude": 42.3833,
    "Longitude": -71.4167
  },
  {
    "Name": "Pen Centre",
    "Address1": "221 Glendale Avenue",
    "Address2": null,
    "City": "St Catherine's",
    "State": "ON",
    "Postal": "L2T 2K9",
    "Latitude": 0,
    "Longitude": 0
  },
  {
    "Name": "Sherway Gardens ",
    "Address1": "25 The West Mall Box 101",
    "Address2": null,
    "City": "Toronto",
    "State": "ON",
    "Postal": "M9C 1B8",
    "Latitude": 39.7139,
    "Longitude": -89.6297
  },
  {
    "Name": "Bramalea City Center",
    "Address1": "25 Peel Centre Drive",
    "Address2": null,
    "City": "Brampton",
    "State": "ON",
    "Postal": "L6T 3R5",
    "Latitude": 45.9314,
    "Longitude": -87.0711
  },
  {
    "Name": "West Edmonton Mall",
    "Address1": "8882  170 Street",
    "Address2": null,
    "City": "Edmonton",
    "State": "AB",
    "Postal": "T5T 4J2",
    "Latitude": 36.98,
    "Longitude": -85.6122
  },
  {
    "Name": "Kingsway Mall",
    "Address1": "109 Street & Princess Elizabeth Ave",
    "Address2": null,
    "City": "Edmonton",
    "State": "AB",
    "Postal": "T5G3A6",
    "Latitude": 36.98,
    "Longitude": -85.6122
  },
  {
    "Name": "South Edmonton Commons",
    "Address1": "10180-111 Street ",
    "Address2": null,
    "City": "Edmonton",
    "State": "AB",
    "Postal": "T5K 1K6",
    "Latitude": 36.98,
    "Longitude": -85.6122
  },
  {
    "Name": "Cross Iron Mills",
    "Address1": "261005 CrossIron Blvd",
    "Address2": null,
    "City": "Rocky View",
    "State": "AB",
    "Postal": "T4A 0G3",
    "Latitude": 0,
    "Longitude": 0
  },
  {
    "Name": "Chinook Mall",
    "Address1": "6455 Macleod Tr SW",
    "Address2": null,
    "City": "Calgary",
    "State": "AB",
    "Postal": "T2H 0K8",
    "Latitude": 31.6172,
    "Longitude": -94.1192
  },
  {
    "Name": "Southcentre Mall",
    "Address1": "100 Anderson Road SE",
    "Address2": null,
    "City": "Calgary",
    "State": "AB",
    "Postal": "T2J 3V1",
    "Latitude": 31.6172,
    "Longitude": -94.1192
  },
  {
    "Name": "Bower Place",
    "Address1": "107A - 4900 Molly Banister Drive",
    "Address2": null,
    "City": "Red Deer ",
    "State": "AB",
    "Postal": "T4R 1N9",
    "Latitude": 0,
    "Longitude": 0
  },
  {
    "Name": "Market Mall",
    "Address1": "3625 Shaganappi Trail NW Suite 214",
    "Address2": null,
    "City": "Calgary",
    "State": "AB",
    "Postal": "T3A 0E2",
    "Latitude": 31.6172,
    "Longitude": -94.1192
  },
  {
    "Name": "Southgate Centre",
    "Address1": "5015-111 Street NW",
    "Address2": null,
    "City": "Edmonton ",
    "State": "AB",
    "Postal": "T6H 4M6",
    "Latitude": 0,
    "Longitude": 0
  },
  {
    "Name": "Prairie Mall",
    "Address1": "11801 100th Street",
    "Address2": null,
    "City": "Grande Prairie",
    "State": "AB",
    "Postal": "T8V 3Y2",
    "Latitude": 0,
    "Longitude": 0
  },
  {
    "Name": "Cornwall Centre ",
    "Address1": "2102 11th Ave",
    "Address2": null,
    "City": "Regina",
    "State": "SK",
    "Postal": "S4P 3Y6",
    "Latitude": 43.3903,
    "Longitude": -115.9911
  },
  {
    "Name": "Midtown Plaza  ",
    "Address1": "201 1st Avenue South",
    "Address2": null,
    "City": "Saskatoon",
    "State": "SK",
    "Postal": "S7K1J9",
    "Latitude": 0,
    "Longitude": 0
  },
  {
    "Name": "Metropolis at Metrotown",
    "Address1": "4700 Kingsway",
    "Address2": null,
    "City": "Burnaby",
    "State": "BC",
    "Postal": "V5H 4M1",
    "Latitude": 0,
    "Longitude": 0
  },
  {
    "Name": "Guildford TC",
    "Address1": "2695 Guildford Town Center",
    "Address2": null,
    "City": "Surrey",
    "State": "BC",
    "Postal": "V3R7C1",
    "Latitude": 40.9117,
    "Longitude": -90.4681
  },
  {
    "Name": "Richmond Centre",
    "Address1": "6551 Number 3Rd",
    "Address2": null,
    "City": "Richmond",
    "State": "BC",
    "Postal": "V6Y 2B6",
    "Latitude": 37.4635,
    "Longitude": -77.4752
  },
  {
    "Name": "Mayfair Mall",
    "Address1": "3147 Douglas Street",
    "Address2": null,
    "City": "Victoria ",
    "State": "BC",
    "Postal": "V8Z 6E3",
    "Latitude": 0,
    "Longitude": 0
  },
  {
    "Name": "St Vital Centre",
    "Address1": "1225 St Mary's Road",
    "Address2": null,
    "City": "Winnipeg",
    "State": "MB",
    "Postal": "R2M 5E5",
    "Latitude": 37.6044,
    "Longitude": -92.3019
  },
  {
    "Name": "Queensboro Landing",
    "Address1": "805 Boyd Street",
    "Address2": null,
    "City": "New Westminster",
    "State": "BC",
    "Postal": "V3M5X2",
    "Latitude": 0,
    "Longitude": 0
  },
  {
    "Name": "Kildonan Place",
    "Address1": "1555 Regent Avenue West",
    "Address2": null,
    "City": "Winnipeg",
    "State": "MB",
    "Postal": "R2C 4J2",
    "Latitude": 37.6044,
    "Longitude": -92.3019
  },
  {
    "Name": "Polo Park",
    "Address1": "1485 Portage Ave",
    "Address2": null,
    "City": "Winnipeg",
    "State": "MB",
    "Postal": "R3G 0W4",
    "Latitude": 37.6044,
    "Longitude": -92.3019
  },
  {
    "Name": "Pickering Town Center",
    "Address1": "1355 Kingston Road",
    "Address2": null,
    "City": "Pickering",
    "State": "ON",
    "Postal": "L1V1B8",
    "Latitude": 33.1353,
    "Longitude": -92.7097
  },
  {
    "Name": "Vaughan Mills ",
    "Address1": "1 Bass Pro Mills Drive",
    "Address2": null,
    "City": "Vaughn",
    "State": "ON",
    "Postal": "L4K5W4",
    "Latitude": 31.0297,
    "Longitude": -87.8611
  },
  {
    "Name": "Scarborough TC",
    "Address1": "300 Borough Drive",
    "Address2": null,
    "City": "Scarborough",
    "State": "ON",
    "Postal": "M1P4P5",
    "Latitude": 43.5781,
    "Longitude": -70.3222
  },
  {
    "Name": "Toronto Eaton Center",
    "Address1": "220 Yonge Street Box 511",
    "Address2": null,
    "City": "Toronto",
    "State": "ON",
    "Postal": "M5B2H1",
    "Latitude": 39.7139,
    "Longitude": -89.6297
  },
  {
    "Name": "Upper Canada Mall",
    "Address1": "17600 Yonge Street",
    "Address2": null,
    "City": "Newmarket",
    "State": "ON",
    "Postal": "L3Y4Z1",
    "Latitude": 43.0828,
    "Longitude": -70.9356
  },
  {
    "Name": "Dixie Outlets",
    "Address1": "1250 South Service Road",
    "Address2": null,
    "City": "Mississauga",
    "State": "ON",
    "Postal": "L5E1V4",
    "Latitude": 0,
    "Longitude": 0
  },
  {
    "Name": "Catarqui Town Center",
    "Address1": "945 Gardiner Road",
    "Address2": null,
    "City": "Kingston",
    "State": "ON",
    "Postal": "K7M7H4",
    "Latitude": 41.9472,
    "Longitude": -74.2655
  },
  {
    "Name": "Fairview",
    "Address1": "1800 Shepard Ave East",
    "Address2": null,
    "City": "Toronto",
    "State": "ON",
    "Postal": "M2J5A7",
    "Latitude": 39.7139,
    "Longitude": -89.6297
  },
  {
    "Name": "Quinte Mall",
    "Address1": "390 North Front Street",
    "Address2": null,
    "City": "Bellville",
    "State": "ON",
    "Postal": "K8P 3E1",
    "Latitude": 36.4672,
    "Longitude": -93.0589
  },
  {
    "Name": "Markville Shopping Centre",
    "Address1": "5000 Highway 7 East at McCowan Road",
    "Address2": null,
    "City": "Markham",
    "State": "ON",
    "Postal": "L3R 4M9",
    "Latitude": 41.5936,
    "Longitude": -87.6947
  },
  {
    "Name": "Lansdowne Place",
    "Address1": "645 Lansdowne St W",
    "Address2": null,
    "City": "Peterborough",
    "State": "ON",
    "Postal": "K9J 7Y5",
    "Latitude": 42.8706,
    "Longitude": -71.9522
  },
  {
    "Name": "Oshawa Centre",
    "Address1": "419 King Street",
    "Address2": null,
    "City": "Oshawa",
    "State": "ON",
    "Postal": "L1J 2K5",
    "Latitude": 46.8039,
    "Longitude": -94.6386
  },
  {
    "Name": "Toronto Premium Outlets",
    "Address1": "13850 Steeles Avenue West",
    "Address2": null,
    "City": "Halton Hills",
    "State": "ON",
    "Postal": "L7G 0J1",
    "Latitude": 0,
    "Longitude": 0
  },
  {
    "Name": "The Mall at Greece Ridge",
    "Address1": "458 Greece Center Drive",
    "Address2": null,
    "City": "Rochester",
    "State": "NY",
    "Postal": "14626",
    "Latitude": 43.148,
    "Longitude": -77.5233
  },
  {
    "Name": "Eastview Mall",
    "Address1": "782 Eastview Mall",
    "Address2": null,
    "City": "Victor",
    "State": "NY",
    "Postal": "14564",
    "Latitude": 42.9825,
    "Longitude": -77.4092
  },
  {
    "Name": "Marketplace Mall",
    "Address1": "3400 West Henrietta Road",
    "Address2": null,
    "City": "Rochester",
    "State": "NY",
    "Postal": "14623",
    "Latitude": 43.148,
    "Longitude": -77.5233
  },
  {
    "Name": "Walden Galleria",
    "Address1": "2000 Walden Avenue",
    "Address2": null,
    "City": "Cheektowaga",
    "State": "NY",
    "Postal": "14225",
    "Latitude": 42.9033,
    "Longitude": -78.755
  },
  {
    "Name": "Boulevard Mall",
    "Address1": "1231 Niagara Falls Boulevard",
    "Address2": null,
    "City": "Amherst",
    "State": "NY",
    "Postal": "14226",
    "Latitude": 42.9783,
    "Longitude": -78.8
  },
  {
    "Name": "Arnot Mall",
    "Address1": "3300 Chambers Road",
    "Address2": null,
    "City": "Horseheads",
    "State": "NY",
    "Postal": "14845",
    "Latitude": 42.1669,
    "Longitude": -76.8208
  },
  {
    "Name": "McKinley Mall",
    "Address1": "3701 McKinley Parkway",
    "Address2": null,
    "City": "Buffalo",
    "State": "NY",
    "Postal": "14219",
    "Latitude": 42.8864,
    "Longitude": -78.8786
  },
  {
    "Name": "Fashion Outlets of Niagara Falls",
    "Address1": "1672 Military Road",
    "Address2": null,
    "City": "Niagara Falls",
    "State": "NY",
    "Postal": "14304",
    "Latitude": 43.0944,
    "Longitude": -79.0569
  },
  {
    "Name": "Crossgates Mall",
    "Address1": "120 Washington Ave Extension",
    "Address2": null,
    "City": "Albany",
    "State": "NY",
    "Postal": "12203",
    "Latitude": 42.6525,
    "Longitude": -73.7567
  },
  {
    "Name": "Destiny USA",
    "Address1": "1 Destiny USA Drive",
    "Address2": null,
    "City": "Syracuse",
    "State": "NY",
    "Postal": "13204",
    "Latitude": 43.0065,
    "Longitude": -76.1961
  },
  {
    "Name": "Great Northern Mall  ",
    "Address1": "4155 Route 31",
    "Address2": null,
    "City": "Clay",
    "State": "NY",
    "Postal": "13041",
    "Latitude": 43.1858,
    "Longitude": -76.1728
  },
  {
    "Name": "Sangertown Mall",
    "Address1": "Route 5 & 5A",
    "Address2": null,
    "City": "New Hartford",
    "State": "NY",
    "Postal": "13413",
    "Latitude": 43.0733,
    "Longitude": -75.2881
  },
  {
    "Name": "Wilton Mall",
    "Address1": "3065 Route 50",
    "Address2": null,
    "City": "Saratoga Springs",
    "State": "NY",
    "Postal": "12866",
    "Latitude": 43.0831,
    "Longitude": -73.785
  },
  {
    "Name": "Oakdale Mall",
    "Address1": "601-635 Harry L Drive",
    "Address2": null,
    "City": "Johnson City",
    "State": "NY",
    "Postal": "13790",
    "Latitude": 42.1156,
    "Longitude": -75.9592
  },
  {
    "Name": "Salmon Run Mall",
    "Address1": "21182 Salmon Run Mall",
    "Address2": null,
    "City": "Watertown",
    "State": "NY",
    "Postal": "13601",
    "Latitude": 43.9747,
    "Longitude": -75.9111
  },
  {
    "Name": "Champlain Centres",
    "Address1": "60 Smithville Boulevard",
    "Address2": null,
    "City": "Plattsburgh",
    "State": "NY",
    "Postal": "12901",
    "Latitude": 44.6994,
    "Longitude": -73.4533
  },
  {
    "Name": "University Mall  ",
    "Address1": "155 Dorset Street",
    "Address2": null,
    "City": "South Burlington",
    "State": "VT",
    "Postal": "5403",
    "Latitude": 44.4669,
    "Longitude": -73.1714
  },
  {
    "Name": "Waterloo Premium Outlets",
    "Address1": "655 Route 318",
    "Address2": null,
    "City": "Waterloo",
    "State": "NY",
    "Postal": "13165",
    "Latitude": 42.9047,
    "Longitude": -76.8631
  },
  {
    "Name": "Colonie Center",
    "Address1": "131 Colonie Center",
    "Address2": null,
    "City": "Albany",
    "State": "NY",
    "Postal": "12205",
    "Latitude": 42.6525,
    "Longitude": -73.7567
  },
  {
    "Name": "Stones River Mall",
    "Address1": "1720 Old Fort Parkway",
    "Address2": null,
    "City": "Murfreesboro",
    "State": "TN",
    "Postal": "37129",
    "Latitude": 35.8456,
    "Longitude": -86.3903
  },
  {
    "Name": "Coolsprings Galleria",
    "Address1": "1800 Galleria Boulevard",
    "Address2": null,
    "City": "Franklin",
    "State": "TN",
    "Postal": "37067",
    "Latitude": 35.1386,
    "Longitude": -86.1246
  },
  {
    "Name": "RiverGate Mall",
    "Address1": "1000 Rivergate Parkway",
    "Address2": null,
    "City": "Goodlettsville",
    "State": "TN",
    "Postal": "37072",
    "Latitude": 36.3231,
    "Longitude": -86.7133
  },
  {
    "Name": "Opry Mills Mall",
    "Address1": "433 Opry Mills Drive",
    "Address2": null,
    "City": "Nashville",
    "State": "TN",
    "Postal": "37214",
    "Latitude": 36.1658,
    "Longitude": -86.7844
  },
  {
    "Name": "Governor's Square  ",
    "Address1": "2801 Wilma-Rudolph Blvd",
    "Address2": null,
    "City": "Clarksville",
    "State": "TN",
    "Postal": "37042",
    "Latitude": 36.5297,
    "Longitude": -87.3594
  },
  {
    "Name": "Parkway Place",
    "Address1": "2801 South Memorial Parkway",
    "Address2": null,
    "City": "Huntsville",
    "State": "AL",
    "Postal": "35801",
    "Latitude": 34.7829,
    "Longitude": -86.7351
  },
  {
    "Name": "Regency Square Mall",
    "Address1": "301 Cox Creek Parkway",
    "Address2": null,
    "City": "Florence",
    "State": "AL",
    "Postal": "35630",
    "Latitude": 34.7997,
    "Longitude": -87.6772
  },
  {
    "Name": "Old Hickory",
    "Address1": "2021 North Highland Ave",
    "Address2": null,
    "City": "Jackson",
    "State": "TN",
    "Postal": "38305",
    "Latitude": 36.3569,
    "Longitude": -85.6404
  },
  {
    "Name": "Lebanon Premium Outlets",
    "Address1": "315 Outlet Viallage Blvd",
    "Address2": null,
    "City": "Lebanon",
    "State": "TN",
    "Postal": "37090",
    "Latitude": 36.2081,
    "Longitude": -86.2911
  },
  {
    "Name": "Gwinnett Place",
    "Address1": "2100 Pleasant Hill Road",
    "Address2": null,
    "City": "Duluth",
    "State": "GA",
    "Postal": "30096",
    "Latitude": 34.0028,
    "Longitude": -84.1447
  },
  {
    "Name": "Mall of Georgia",
    "Address1": "3333 Buford Drive",
    "Address2": null,
    "City": "Buford",
    "State": "GA",
    "Postal": "30519",
    "Latitude": 34.1206,
    "Longitude": -84.0044
  },
  {
    "Name": "Georgia Square Mall",
    "Address1": "3700 Atlanta Highway",
    "Address2": null,
    "City": "Athens",
    "State": "GA",
    "Postal": "30606",
    "Latitude": 33.9608,
    "Longitude": -83.3781
  },
  {
    "Name": "Southlake Mall  ",
    "Address1": "1206 Southlake Mall",
    "Address2": null,
    "City": "Morrow",
    "State": "GA",
    "Postal": "30260",
    "Latitude": 33.5831,
    "Longitude": -84.3394
  },
  {
    "Name": "North Georgia Premium",
    "Address1": "800 Hwy 400 South",
    "Address2": null,
    "City": "Dawsonville",
    "State": "GA",
    "Postal": "30534",
    "Latitude": 34.4211,
    "Longitude": -84.1192
  },
  {
    "Name": "Locust Grove",
    "Address1": "1000 Tanger Drive",
    "Address2": null,
    "City": "Locust Grove",
    "State": "GA",
    "Postal": "30248",
    "Latitude": 33.3458,
    "Longitude": -84.1092
  },
  {
    "Name": "Tanger Commerce 2",
    "Address1": "800 Steven B Tanger Blvd",
    "Address2": null,
    "City": "Commerce",
    "State": "GA",
    "Postal": "30529",
    "Latitude": 34.2039,
    "Longitude": -83.4572
  },
  {
    "Name": "Galleria Centerville",
    "Address1": "2922 Watson Blvd",
    "Address2": null,
    "City": "Centerville",
    "State": "GA",
    "Postal": "31028",
    "Latitude": 32.63,
    "Longitude": -83.6897
  },
  {
    "Name": "Ave Webb Gin",
    "Address1": "1350 Scenic Highway",
    "Address2": null,
    "City": "Snellville",
    "State": "GA",
    "Postal": "30078",
    "Latitude": 33.8572,
    "Longitude": -84.02
  },
  {
    "Name": "Shoppes at River Crossing",
    "Address1": "5080 Riverside Drive",
    "Address2": null,
    "City": "Macon",
    "State": "GA",
    "Postal": "31210",
    "Latitude": 32.3481,
    "Longitude": -84.0497
  },
  {
    "Name": "Cary Town Center",
    "Address1": "1105 Walnut Street",
    "Address2": null,
    "City": "Cary",
    "State": "NC",
    "Postal": "27511",
    "Latitude": 35.7914,
    "Longitude": -78.7814
  },
  {
    "Name": "Greenville Mall",
    "Address1": "714 SE Greenville Boulevard",
    "Address2": null,
    "City": "Greenville",
    "State": "NC",
    "Postal": "27858",
    "Latitude": 35.593,
    "Longitude": -77.3731
  },
  {
    "Name": "Northgate Mall   ",
    "Address1": "1058 W Club Road",
    "Address2": null,
    "City": "Durham",
    "State": "NC",
    "Postal": "27701",
    "Latitude": 35.9939,
    "Longitude": -78.8989
  },
  {
    "Name": "Triangle Town Center",
    "Address1": "5950 Triangle Town Boulevard",
    "Address2": null,
    "City": "Raleigh",
    "State": "NC",
    "Postal": "27616",
    "Latitude": 35.7567,
    "Longitude": -78.4604
  },
  {
    "Name": "Golden East Crossings",
    "Address1": "1100 North Wesleyan Blvd",
    "Address2": null,
    "City": "Rocky Mount",
    "State": "NC",
    "Postal": "27804",
    "Latitude": 35.941,
    "Longitude": -77.7985
  },
  {
    "Name": "Berkeley Mall",
    "Address1": "621A Berkeley Blvd",
    "Address2": null,
    "City": "Goldsboro",
    "State": "NC",
    "Postal": "27534",
    "Latitude": 35.3542,
    "Longitude": -78.0087
  },
  {
    "Name": "Crabtree Valley",
    "Address1": "4325 Glenwood Avenue",
    "Address2": null,
    "City": "Raleigh",
    "State": "NC",
    "Postal": "27612",
    "Latitude": 35.7567,
    "Longitude": -78.4604
  },
  {
    "Name": "Streets at Southpoint",
    "Address1": "6910 Fayetteville Road",
    "Address2": null,
    "City": "Durham",
    "State": "NC",
    "Postal": "27713",
    "Latitude": 35.9939,
    "Longitude": -78.8989
  },
  {
    "Name": "Carolina Premium Outlet",
    "Address1": "1025 Outlet Center Drive",
    "Address2": null,
    "City": "Smithfield",
    "State": "NC",
    "Postal": "27577",
    "Latitude": 35.5083,
    "Longitude": -78.3397
  },
  {
    "Name": "Tanger Outlets Nags Head",
    "Address1": "7100 South Croatan Hwy",
    "Address2": null,
    "City": "Nags Head",
    "State": "NC",
    "Postal": "27959",
    "Latitude": 35.5758,
    "Longitude": -79.5183
  },
  {
    "Name": "Hamilton Place",
    "Address1": "2100 Hamitlon Place Boulevard",
    "Address2": null,
    "City": "Chattanooga",
    "State": "TN",
    "Postal": "37421",
    "Latitude": 35.0456,
    "Longitude": -85.3097
  },
  {
    "Name": "West Town Mall",
    "Address1": "7600 Kingston Pike",
    "Address2": null,
    "City": "Knoxville",
    "State": "TN",
    "Postal": "37919",
    "Latitude": 36.0445,
    "Longitude": -84.1361
  },
  {
    "Name": "Mall At Johnson City",
    "Address1": "2011 North Roan Street",
    "Address2": null,
    "City": "Johnson City ",
    "State": "TN",
    "Postal": "37601",
    "Latitude": 35.865,
    "Longitude": -85.6699
  },
  {
    "Name": "Northgate Mall  ",
    "Address1": "203 Northgate Mall",
    "Address2": null,
    "City": "Chattanooga",
    "State": "TN",
    "Postal": "37415",
    "Latitude": 35.0456,
    "Longitude": -85.3097
  },
  {
    "Name": "Tanger Outlet Sevierville",
    "Address1": "1645 Parkway Suite",
    "Address2": null,
    "City": "Sevierville",
    "State": "TN",
    "Postal": "37862",
    "Latitude": 35.8681,
    "Longitude": -83.5619
  },
  {
    "Name": "Fort Henry Mall",
    "Address1": "2101 Fort Henry Drive",
    "Address2": null,
    "City": "Kingsport",
    "State": "TN",
    "Postal": "37664",
    "Latitude": 36.5483,
    "Longitude": -82.5619
  },
  {
    "Name": "College Square",
    "Address1": "2550 East Morris Boulevard",
    "Address2": null,
    "City": "Morristown",
    "State": "TN",
    "Postal": "37813",
    "Latitude": 36.1155,
    "Longitude": -83.3765
  },
  {
    "Name": "Bradley Square",
    "Address1": "200 Paul Huff Parkway",
    "Address2": null,
    "City": "Cleveland",
    "State": "TN",
    "Postal": "37312",
    "Latitude": 35.1381,
    "Longitude": -84.6551
  },
  {
    "Name": "Concord Mills",
    "Address1": "8111 Concord Mills Boulevard ",
    "Address2": null,
    "City": "Concord",
    "State": "NC",
    "Postal": "28027",
    "Latitude": 35.4086,
    "Longitude": -80.5797
  },
  {
    "Name": "Valley Hills Mall",
    "Address1": "1960 Highway 70 South East",
    "Address2": null,
    "City": "Hickory",
    "State": "NC",
    "Postal": "28602",
    "Latitude": 35.7331,
    "Longitude": -81.3414
  },
  {
    "Name": "Cross Creek Mall",
    "Address1": "443 Cross Creek Mall",
    "Address2": null,
    "City": "Fayetteville",
    "State": "NC",
    "Postal": "28303",
    "Latitude": 35.038,
    "Longitude": -78.9822
  },
  {
    "Name": "Carolina Place",
    "Address1": "11025 Carolina Place Parkway",
    "Address2": null,
    "City": "Pineville",
    "State": "NC",
    "Postal": "28134",
    "Latitude": 35.0831,
    "Longitude": -80.8925
  },
  {
    "Name": "Carolina Mall",
    "Address1": "1480 Concord Parkway North",
    "Address2": null,
    "City": "Concord",
    "State": "NC",
    "Postal": "28025",
    "Latitude": 35.4086,
    "Longitude": -80.5797
  },
  {
    "Name": "Gaffney Premium Outlets",
    "Address1": "235 Factory Shops Boulevard",
    "Address2": null,
    "City": "Gaffney",
    "State": "SC",
    "Postal": "29341",
    "Latitude": 35.0717,
    "Longitude": -81.65
  },
  {
    "Name": "Northlake Mall",
    "Address1": "6801 Northlake Mall Drive",
    "Address2": null,
    "City": "Charlotte",
    "State": "NC",
    "Postal": "28216",
    "Latitude": 35.2269,
    "Longitude": -80.8433
  },
  {
    "Name": "Rock Hill Galleria",
    "Address1": "2301 Dave Lyle Blvd",
    "Address2": null,
    "City": "Rock Hill",
    "State": "SC",
    "Postal": "29730",
    "Latitude": 33.9577,
    "Longitude": -80.9742
  },
  {
    "Name": "Charlotte Premium Outlets",
    "Address1": "5512 New Fashion Way",
    "Address2": null,
    "City": "Charlotte",
    "State": "NC",
    "Postal": "28217",
    "Latitude": 35.2269,
    "Longitude": -80.8433
  },
  {
    "Name": "Haywood Mall",
    "Address1": "700 Haywood Road",
    "Address2": null,
    "City": "Greenville",
    "State": "SC",
    "Postal": "29607",
    "Latitude": 34.8525,
    "Longitude": -82.3942
  },
  {
    "Name": "Asheville Mall",
    "Address1": "3 South Tunnel Road",
    "Address2": null,
    "City": "Asheville",
    "State": "NC",
    "Postal": "28805",
    "Latitude": 35.5957,
    "Longitude": -82.6816
  },
  {
    "Name": "Augusta Mall",
    "Address1": "3450 Wrightsboro Road",
    "Address2": null,
    "City": "Augusta",
    "State": "GA",
    "Postal": "30909",
    "Latitude": 33.4708,
    "Longitude": -81.975
  },
  {
    "Name": "Anderson Mall",
    "Address1": "3101 North Main Street",
    "Address2": null,
    "City": "Anderson",
    "State": "SC",
    "Postal": "29621",
    "Latitude": 34.5033,
    "Longitude": -82.6503
  },
  {
    "Name": "Westgate Mall ",
    "Address1": "205 West Blackstock Road",
    "Address2": null,
    "City": "Spartanburg",
    "State": "SC",
    "Postal": "29301",
    "Latitude": 34.8346,
    "Longitude": -81.8424
  },
  {
    "Name": "Crossroads Mall  ",
    "Address1": "5475 Robert C Byrd Drive",
    "Address2": null,
    "City": "Prosperity",
    "State": "WV",
    "Postal": "25909",
    "Latitude": 37.8364,
    "Longitude": -81.2019
  },
  {
    "Name": "Columbiana",
    "Address1": "100 Columbiana Circle",
    "Address2": null,
    "City": "Columbia",
    "State": "SC",
    "Postal": "29212",
    "Latitude": 34.0842,
    "Longitude": -81.0406
  },
  {
    "Name": "Village at Sandhill",
    "Address1": "486-5 Town Center Place",
    "Address2": null,
    "City": "Columbia",
    "State": "SC",
    "Postal": "29229",
    "Latitude": 33.9805145,
    "Longitude": -81.2847925
  },
  {
    "Name": "Mercer Mall  ",
    "Address1": "261 Mercer Mall Rd",
    "Address2": null,
    "City": "Bluefield",
    "State": "WV",
    "Postal": "24605",
    "Latitude": 37.2697,
    "Longitude": -81.2225
  },
  {
    "Name": "Colonial Mall Gadsden",
    "Address1": "1001 Rainbow Drive",
    "Address2": null,
    "City": "Gadsden",
    "State": "AL",
    "Postal": "35901",
    "Latitude": 34.0476,
    "Longitude": -86.0343
  },
  {
    "Name": "Oak Court",
    "Address1": "4465 Poplar Avenue",
    "Address2": null,
    "City": "Memphis",
    "State": "TN",
    "Postal": "38117",
    "Latitude": 35.1494,
    "Longitude": -90.0489
  },
  {
    "Name": "University Mall ",
    "Address1": "1701 McFarlen Boulevard East",
    "Address2": null,
    "City": "Tuscaloosa",
    "State": "AL",
    "Postal": "35405",
    "Latitude": 33.1606,
    "Longitude": -87.7152
  },
  {
    "Name": "Riverchase Galleria",
    "Address1": "2000 Riverchase Galleria",
    "Address2": null,
    "City": "Hoover",
    "State": "AL",
    "Postal": "35244",
    "Latitude": 33.4053,
    "Longitude": -86.8114
  },
  {
    "Name": "Wolfchase Galleria",
    "Address1": "2760 N Germantown Parkway",
    "Address2": null,
    "City": "Memphis",
    "State": "TN",
    "Postal": "38133",
    "Latitude": 35.1494,
    "Longitude": -90.0489
  },
  {
    "Name": "Quintard Mall",
    "Address1": "700 Quintard Drive",
    "Address2": null,
    "City": "Oxford",
    "State": "AL",
    "Postal": "36203",
    "Latitude": 33.6142,
    "Longitude": -85.835
  },
  {
    "Name": "Wiregrass Commons",
    "Address1": "900 Commons Drive",
    "Address2": null,
    "City": "Dothan",
    "State": "AL",
    "Postal": "36303",
    "Latitude": 31.2455,
    "Longitude": -85.4692
  },
  {
    "Name": "Mall at Barnes Crossing",
    "Address1": "1001 Barnes Crossing Road",
    "Address2": null,
    "City": "Tupelo",
    "State": "MS",
    "Postal": "38804",
    "Latitude": 34.2575,
    "Longitude": -88.7033
  },
  {
    "Name": "Southhaven Towne Center",
    "Address1": "6524 Towne Center Loop",
    "Address2": null,
    "City": "Southaven",
    "State": "MS",
    "Postal": "38671",
    "Latitude": 34.9889,
    "Longitude": -90.0125
  },
  {
    "Name": "Mall at Turtle Creek",
    "Address1": "3000 East Highland Drive",
    "Address2": null,
    "City": "Jonesboro",
    "State": "AR",
    "Postal": "72401",
    "Latitude": 35.697,
    "Longitude": -90.6502
  },
  {
    "Name": "Carriage Crossing",
    "Address1": "4674 Merchants Park Circle",
    "Address2": null,
    "City": "Collierville",
    "State": "TN",
    "Postal": "38017",
    "Latitude": 35.0419,
    "Longitude": -89.6644
  },
  {
    "Name": "Pinnacle at Tutwiler Farm",
    "Address1": "5048 Pinnacle Square",
    "Address2": null,
    "City": "Trussville",
    "State": "AL",
    "Postal": "35173",
    "Latitude": 33.6197,
    "Longitude": -86.6089
  },
  {
    "Name": "Town Center At Cobb",
    "Address1": "400 Earnett Barrett Parkway",
    "Address2": null,
    "City": "Kennesaw",
    "State": "GA",
    "Postal": "30144",
    "Latitude": 34.0233,
    "Longitude": -84.6156
  },
  {
    "Name": "Arbor Place",
    "Address1": "6700 Douglas Boulevard",
    "Address2": null,
    "City": "Douglasville",
    "State": "GA",
    "Postal": "30315",
    "Latitude": 33.7514,
    "Longitude": -84.7478
  },
  {
    "Name": "Peachtree Mall",
    "Address1": "3507 Manchester Expwy",
    "Address2": null,
    "City": "Columbus",
    "State": "GA",
    "Postal": "31909",
    "Latitude": 32.4608,
    "Longitude": -84.9878
  },
  {
    "Name": "Mt Berry Square",
    "Address1": "32 Mt Berry Square NE",
    "Address2": null,
    "City": "Rome",
    "State": "GA",
    "Postal": "30165",
    "Latitude": 34.2637,
    "Longitude": -85.2137
  },
  {
    "Name": "Walnut Square Mall",
    "Address1": "2150 East Walnut Ave",
    "Address2": null,
    "City": "Dalton",
    "State": "GA",
    "Postal": "30721",
    "Latitude": 34.7969,
    "Longitude": -84.8563
  },
  {
    "Name": "Mall at Stonecrest",
    "Address1": "2929 Turner Hill Road",
    "Address2": null,
    "City": "Lithonia",
    "State": "GA",
    "Postal": "30038",
    "Latitude": 33.7122,
    "Longitude": -84.1053
  },
  {
    "Name": "Cumberland Mall  ",
    "Address1": "1341 Cumberland SE",
    "Address2": null,
    "City": "Atlanta",
    "State": "GA",
    "Postal": "30339",
    "Latitude": 33.7489,
    "Longitude": -84.3881
  },
  {
    "Name": "Lenox Square",
    "Address1": " 3393 Peachtree Rd NE",
    "Address2": null,
    "City": "Atlanta",
    "State": "GA",
    "Postal": "30326",
    "Latitude": 33.7489,
    "Longitude": -84.3881
  },
  {
    "Name": "Perimeter Mall",
    "Address1": "4400 Ashford Dunwoody Road",
    "Address2": null,
    "City": "Atlanta",
    "State": "GA",
    "Postal": "30346",
    "Latitude": 33.7489,
    "Longitude": -84.3881
  },
  {
    "Name": "The Outlet Shoppes at Atlanta",
    "Address1": "915 Ridgewalk Parkway",
    "Address2": null,
    "City": "Woodstock",
    "State": "GA",
    "Postal": "30188",
    "Latitude": 34.1014,
    "Longitude": -84.5194
  },
  {
    "Name": "Lynnhaven Mall",
    "Address1": "701 Lynnhaven Parkway",
    "Address2": null,
    "City": "Virginia Beach",
    "State": "VA",
    "Postal": "23452",
    "Latitude": 36.8528,
    "Longitude": -75.9783
  },
  {
    "Name": "Hanes Mall",
    "Address1": "3320 Silas Creek Parkway",
    "Address2": null,
    "City": "Winston Salem",
    "State": "NC",
    "Postal": "27103",
    "Latitude": 36.0789,
    "Longitude": -80.3451
  },
  {
    "Name": "Four Seasons Town Center",
    "Address1": "209 Four Seasons Town Cntr",
    "Address2": null,
    "City": "Greensboro",
    "State": "NC",
    "Postal": "27427",
    "Latitude": 36.0725,
    "Longitude": -79.7922
  },
  {
    "Name": "Valley View Mall",
    "Address1": "4802 Valley View Road",
    "Address2": null,
    "City": "Roanoke",
    "State": "VA",
    "Postal": "24012",
    "Latitude": 37.2862,
    "Longitude": -79.9469
  },
  {
    "Name": "New River Valley",
    "Address1": "716 New River Road",
    "Address2": null,
    "City": "Christiansburg",
    "State": "VA",
    "Postal": "24073",
    "Latitude": 37.1297,
    "Longitude": -80.4092
  },
  {
    "Name": "Greenbrier Mall",
    "Address1": "1401 Greenbrier Parkway",
    "Address2": null,
    "City": "Chesapeake",
    "State": "VA",
    "Postal": "23320",
    "Latitude": 36.8189,
    "Longitude": -76.2753
  },
  {
    "Name": "Piedmont Mall",
    "Address1": "325 Piedmont Drive",
    "Address2": null,
    "City": "Danville",
    "State": "VA",
    "Postal": "24540",
    "Latitude": 36.5858,
    "Longitude": -79.3953
  },
  {
    "Name": "Randolph Mall",
    "Address1": "345 Randolph Mall",
    "Address2": null,
    "City": "Asheboro",
    "State": "NC",
    "Postal": "27203",
    "Latitude": 35.7078,
    "Longitude": -79.8139
  },
  {
    "Name": "Chesapeake Square",
    "Address1": "4200 Portsmouth Blvd",
    "Address2": null,
    "City": "Chesapeake",
    "State": "VA",
    "Postal": "23321",
    "Latitude": 36.8189,
    "Longitude": -76.2753
  },
  {
    "Name": "Alamance Crossing",
    "Address1": "1050 Piper Lane",
    "Address2": null,
    "City": "Burlington",
    "State": "NC",
    "Postal": "27215",
    "Latitude": 36.044,
    "Longitude": -79.4006
  },
  {
    "Name": "Northwoods Mall ",
    "Address1": "2150 Northwoods Boulevard",
    "Address2": null,
    "City": "N Charleston",
    "State": "SC",
    "Postal": "29406",
    "Latitude": 33.9577,
    "Longitude": -80.9742
  },
  {
    "Name": "Independence Mall",
    "Address1": "3500 Oleander Drive",
    "Address2": null,
    "City": "Wilmington",
    "State": "NC",
    "Postal": "28403",
    "Latitude": 34.426,
    "Longitude": -77.8896
  },
  {
    "Name": "Magnolia Mall",
    "Address1": "2701 David H McLeod Blvd",
    "Address2": null,
    "City": "Florence",
    "State": "SC",
    "Postal": "29501",
    "Latitude": 34.1538,
    "Longitude": -79.8061
  },
  {
    "Name": "Myrtle Beach Factory Stores",
    "Address1": "4625 Factory Stores Boulevard",
    "Address2": null,
    "City": "Myrtle Beach",
    "State": "SC",
    "Postal": "29579",
    "Latitude": 33.6889,
    "Longitude": -78.8869
  },
  {
    "Name": "Oglethorpe Mall",
    "Address1": "7804 Abercorn Street",
    "Address2": null,
    "City": "Savannah",
    "State": "GA",
    "Postal": "31406",
    "Latitude": 32.1093,
    "Longitude": -81.2733
  },
  {
    "Name": "Jacksonville Mall",
    "Address1": "342 Jacksonville Mall",
    "Address2": null,
    "City": "Jacksonville",
    "State": "NC",
    "Postal": "28546",
    "Latitude": 34.7631,
    "Longitude": -77.4995
  },
  {
    "Name": "Tanger Outlet Myrtle Beach",
    "Address1": "10843 Kings Road",
    "Address2": null,
    "City": "Myrtle Beach",
    "State": "SC",
    "Postal": "29572",
    "Latitude": 33.6889,
    "Longitude": -78.8869
  },
  {
    "Name": "Tanger Outlet Charleston",
    "Address1": "4840 Tanger Outlet Blvd",
    "Address2": null,
    "City": "North Charleston",
    "State": "SC",
    "Postal": "29418",
    "Latitude": 32.8544,
    "Longitude": -79.975
  },
  {
    "Name": "Savannah Outlets",
    "Address1": "200 Tanger Outlets Blvd",
    "Address2": null,
    "City": "Pooler",
    "State": "GA",
    "Postal": "31322",
    "Latitude": 32.1153,
    "Longitude": -81.2472
  },
  {
    "Name": "Wausau Center",
    "Address1": "A124 Wausau Center",
    "Address2": null,
    "City": "Wausau",
    "State": "WI",
    "Postal": "54403",
    "Latitude": 44.898,
    "Longitude": -89.7578
  },
  {
    "Name": "West Towne Mall",
    "Address1": "61 West Towne Mall",
    "Address2": null,
    "City": "Madison",
    "State": "WI",
    "Postal": "53719",
    "Latitude": 43.0843,
    "Longitude": -89.5972
  },
  {
    "Name": "Bay Park Square",
    "Address1": "303 Bay Park Square",
    "Address2": null,
    "City": "Green Bay",
    "State": "WI",
    "Postal": "54304",
    "Latitude": 44.2402,
    "Longitude": -89.6614
  },
  {
    "Name": "Fox River Mall and Plaza",
    "Address1": "4301 West Wisconsin Avenue",
    "Address2": null,
    "City": "Appleton",
    "State": "WI",
    "Postal": "54913",
    "Latitude": 44.2906,
    "Longitude": -88.3723
  },
  {
    "Name": "East Towne Mall",
    "Address1": "21 East Towne Mall",
    "Address2": null,
    "City": "Madison",
    "State": "WI",
    "Postal": "53704",
    "Latitude": 43.0843,
    "Longitude": -89.5972
  },
  {
    "Name": "Forest Mall",
    "Address1": "835 W Johnson Street",
    "Address2": null,
    "City": "Fond du Lac",
    "State": "WI",
    "Postal": "54935",
    "Latitude": 44.2402,
    "Longitude": -89.6614
  },
  {
    "Name": "The Outlet Shoppes at Oshkosh",
    "Address1": "3001 South Washburn Street",
    "Address2": null,
    "City": "Oshkosh",
    "State": "WI",
    "Postal": "54904",
    "Latitude": 44.0247,
    "Longitude": -88.5425
  },
  {
    "Name": "Wisconsin Dells Outlet  ",
    "Address1": "210 N Gasser Road",
    "Address2": null,
    "City": "Baraboo",
    "State": "WI",
    "Postal": "53913",
    "Latitude": 43.4711,
    "Longitude": -89.7442
  },
  {
    "Name": "Hawthorn Center",
    "Address1": "707 Hawthorn Center",
    "Address2": null,
    "City": "Vernon Hills",
    "State": "IL",
    "Postal": "60061",
    "Latitude": 42.2194,
    "Longitude": -87.9794
  },
  {
    "Name": "Brookfield Square",
    "Address1": "95 W Mooreland Road",
    "Address2": null,
    "City": "Brookfield",
    "State": "WI",
    "Postal": "53005",
    "Latitude": 43.0606,
    "Longitude": -88.1064
  },
  {
    "Name": "Pleasant Prairie Premium Outlets",
    "Address1": "11211 120th Avenue",
    "Address2": null,
    "City": "Kenosha",
    "State": "WI",
    "Postal": "53158",
    "Latitude": 42.5847,
    "Longitude": -87.8211
  },
  {
    "Name": "Southridge Mall",
    "Address1": "5300 South 76th Street",
    "Address2": null,
    "City": "Greendale",
    "State": "WI",
    "Postal": "53129",
    "Latitude": 42.9406,
    "Longitude": -87.9958
  },
  {
    "Name": "Valley West Mall",
    "Address1": "1551 Valley West Drive",
    "Address2": null,
    "City": "West Des Moines",
    "State": "IA",
    "Postal": "50266",
    "Latitude": 42.0006,
    "Longitude": -93.2032
  },
  {
    "Name": "Jordan Creek",
    "Address1": "101 Jordan Creek Parkway",
    "Address2": null,
    "City": "Des Moines",
    "State": "IA",
    "Postal": "50266",
    "Latitude": 42.0006,
    "Longitude": -93.2032
  },
  {
    "Name": "Lindale Mall",
    "Address1": "4444 1st Ave NE",
    "Address2": null,
    "City": "Cedar Rapids",
    "State": "IA",
    "Postal": "52402",
    "Latitude": 42.0856,
    "Longitude": -91.6305
  },
  {
    "Name": "Gurnee Mills",
    "Address1": "6170 W Grand Ave",
    "Address2": null,
    "City": "Gurnee",
    "State": "IL",
    "Postal": "60031",
    "Latitude": 42.3703,
    "Longitude": -87.9019
  },
  {
    "Name": "Castleton Square",
    "Address1": "6020 East 82nd Street",
    "Address2": null,
    "City": "Indianapolis",
    "State": "IN",
    "Postal": "46250",
    "Latitude": 39.7683,
    "Longitude": -86.1581
  },
  {
    "Name": "Glenbrook Square Mall",
    "Address1": "4201 Coldwater Road",
    "Address2": null,
    "City": "Fort Wayne",
    "State": "IN",
    "Postal": "46805",
    "Latitude": 39.8507,
    "Longitude": -86.275
  },
  {
    "Name": "Muncie Mall",
    "Address1": "3501 North Granville Avenue",
    "Address2": null,
    "City": "Muncie",
    "State": "IN",
    "Postal": "47303",
    "Latitude": 40.2275,
    "Longitude": -85.3993
  },
  {
    "Name": "Jefferson Pointe Mall",
    "Address1": "4120 W Jefferson Boulevard",
    "Address2": null,
    "City": "Fort Wayne",
    "State": "IN",
    "Postal": "46804",
    "Latitude": 39.8507,
    "Longitude": -86.275
  },
  {
    "Name": "Markland Mall",
    "Address1": "1207 South Reed Road",
    "Address2": null,
    "City": "Kokomo",
    "State": "IN",
    "Postal": "46902",
    "Latitude": 40.4835,
    "Longitude": -86.1141
  },
  {
    "Name": "Hamilton Town Center",
    "Address1": "13976 Town Center Blvd",
    "Address2": null,
    "City": "Noblesville",
    "State": "IN",
    "Postal": "46060",
    "Latitude": 40.0456,
    "Longitude": -86.0086
  },
  {
    "Name": "Greenwood Park Mall",
    "Address1": "1251 US 31 North",
    "Address2": null,
    "City": "Greenwood",
    "State": "IN",
    "Postal": "46142",
    "Latitude": 39.6136,
    "Longitude": -86.1067
  },
  {
    "Name": "Tippecanoe Mall",
    "Address1": "2415 Sagamore Pkwy South",
    "Address2": null,
    "City": "Lafayette",
    "State": "IN",
    "Postal": "47905",
    "Latitude": 40.4167,
    "Longitude": -86.8753
  },
  {
    "Name": "College Mall",
    "Address1": "2918 East Third Street",
    "Address2": null,
    "City": "Bloomington",
    "State": "IN",
    "Postal": "47401",
    "Latitude": 39.2417,
    "Longitude": -86.6718
  },
  {
    "Name": "Honey Creek",
    "Address1": "3401 South US Highway 41",
    "Address2": null,
    "City": "Terre Haute",
    "State": "IN",
    "Postal": "47802",
    "Latitude": 39.3924,
    "Longitude": -87.3471
  },
  {
    "Name": "Circle Centre Mall",
    "Address1": "49 West Maryland Street",
    "Address2": null,
    "City": "Indianapolis",
    "State": "IN",
    "Postal": "46225",
    "Latitude": 39.7683,
    "Longitude": -86.1581
  },
  {
    "Name": "Washington Square",
    "Address1": "10202 East Washington Street ",
    "Address2": null,
    "City": "Indianapolis",
    "State": "IN",
    "Postal": "46229",
    "Latitude": 39.7683,
    "Longitude": -86.1581
  },
  {
    "Name": "Edinburgh Premium Outlets",
    "Address1": "11660 NE Executive Dr",
    "Address2": null,
    "City": "Edinburgh",
    "State": "IN",
    "Postal": "46124",
    "Latitude": 39.3542,
    "Longitude": -85.9667
  },
  {
    "Name": "Metropolis Mall",
    "Address1": "2498 Futura Park Way",
    "Address2": null,
    "City": "Plainfield",
    "State": "IN",
    "Postal": "46168",
    "Latitude": 39.7042,
    "Longitude": -86.3994
  },
  {
    "Name": "Southlake Mall ",
    "Address1": "2250 Southlake Mall",
    "Address2": null,
    "City": "Merrillville",
    "State": "IN",
    "Postal": "46410",
    "Latitude": 41.4828,
    "Longitude": -87.3328
  },
  {
    "Name": "Orland Square",
    "Address1": "240 Orland Square",
    "Address2": null,
    "City": "Orland Park",
    "State": "IL",
    "Postal": "60462",
    "Latitude": 41.6303,
    "Longitude": -87.8539
  },
  {
    "Name": "Chicago Ridge Mall",
    "Address1": "591 Chicago Ridge Mall",
    "Address2": null,
    "City": "Chicago Ridge",
    "State": "IL",
    "Postal": "60415",
    "Latitude": 41.7014,
    "Longitude": -87.7792
  },
  {
    "Name": "Lighthouse Place Premium Outlets",
    "Address1": "815 Lighhouse Place",
    "Address2": null,
    "City": "Michigan City",
    "State": "IN",
    "Postal": "46360",
    "Latitude": 41.7075,
    "Longitude": -86.895
  },
  {
    "Name": "Promenade at Bolingbrook",
    "Address1": "623 East Boughton Road",
    "Address2": null,
    "City": "Bolingbrook",
    "State": "IL",
    "Postal": "60440",
    "Latitude": 41.6986,
    "Longitude": -88.0683
  },
  {
    "Name": "Northfield Square",
    "Address1": "1600 North US Route 50",
    "Address2": null,
    "City": "Bourbonnais",
    "State": "IL",
    "Postal": "60914",
    "Latitude": 41.1417,
    "Longitude": -87.875
  },
  {
    "Name": "Harlem Irving Plaza ",
    "Address1": "4154 E North Harlem Ave",
    "Address2": null,
    "City": "Norridge",
    "State": "IL",
    "Postal": "60706",
    "Latitude": 41.9633,
    "Longitude": -87.8272
  },
  {
    "Name": "North Riverside Park Mall",
    "Address1": "7501 Cermak Road",
    "Address2": null,
    "City": "North Riverside",
    "State": "IL",
    "Postal": "60546",
    "Latitude": 41.8428,
    "Longitude": -87.8231
  },
  {
    "Name": "Fashion Outlets of Chicago",
    "Address1": "5220 Rose Street",
    "Address2": null,
    "City": "Rosemont",
    "State": "IL",
    "Postal": "60018",
    "Latitude": 41.9953,
    "Longitude": -87.8844
  },
  {
    "Name": "Fox Valley",
    "Address1": "2426 Fox Valley Center",
    "Address2": null,
    "City": "Aurora",
    "State": "IL",
    "Postal": "60504",
    "Latitude": 41.7606,
    "Longitude": -88.32
  },
  {
    "Name": "Westroads Mall",
    "Address1": "10000 California Street",
    "Address2": null,
    "City": "Omaha",
    "State": "NE",
    "Postal": "68114",
    "Latitude": 41.2586,
    "Longitude": -95.9375
  },
  {
    "Name": "Gateway Mall",
    "Address1": "21 Gateway Mall",
    "Address2": null,
    "City": "Lincoln",
    "State": "NE",
    "Postal": "68505",
    "Latitude": 40.8175,
    "Longitude": -96.8687
  },
  {
    "Name": "Spring Hill Mall",
    "Address1": "1422 Spring Hill Mall",
    "Address2": null,
    "City": "West Dundee",
    "State": "IL",
    "Postal": "60118",
    "Latitude": 42.0981,
    "Longitude": -88.2828
  },
  {
    "Name": "Geneva Commons",
    "Address1": "502 Commons Drive",
    "Address2": null,
    "City": "Geneva",
    "State": "IL",
    "Postal": "60134",
    "Latitude": 41.8875,
    "Longitude": -88.3053
  },
  {
    "Name": "Southern Hills",
    "Address1": "4400 Sergeant Road",
    "Address2": null,
    "City": "Sioux City",
    "State": "IA",
    "Postal": "51106",
    "Latitude": 42.0006,
    "Longitude": -93.2032
  },
  {
    "Name": "Algoniquin Commons",
    "Address1": "1904 South Randall Road",
    "Address2": null,
    "City": "Algonquin",
    "State": "IL",
    "Postal": "60102",
    "Latitude": 42.1656,
    "Longitude": -88.2942
  },
  {
    "Name": "Oak View Mall",
    "Address1": "3001 South 144th Street",
    "Address2": null,
    "City": "Omaha",
    "State": "NE",
    "Postal": "68144",
    "Latitude": 41.2586,
    "Longitude": -95.9375
  },
  {
    "Name": "Chicago Premium Outlets",
    "Address1": "1650 Premium Outlets Boulevard",
    "Address2": null,
    "City": "Aurora",
    "State": "IL",
    "Postal": "60502",
    "Latitude": 41.7606,
    "Longitude": -88.32
  },
  {
    "Name": "The Mall at Fairfield Commons",
    "Address1": "2727 Fairfield Commons Drive",
    "Address2": null,
    "City": "Beavercreek",
    "State": "OH",
    "Postal": "45431",
    "Latitude": 39.7092,
    "Longitude": -84.0633
  },
  {
    "Name": "Dayton Mall",
    "Address1": "2700 Miamisburg-Centerville Road",
    "Address2": null,
    "City": "Dayton",
    "State": "OH",
    "Postal": "45459",
    "Latitude": 39.8289,
    "Longitude": -84.1418
  },
  {
    "Name": "Charleston Town Center",
    "Address1": "2105 Charleston Town Center",
    "Address2": null,
    "City": "Charleston",
    "State": "WV",
    "Postal": "25389",
    "Latitude": 38.2832,
    "Longitude": -81.4926
  },
  {
    "Name": "Ashland Town Center",
    "Address1": "500 Winchester Avenue",
    "Address2": null,
    "City": "Ashland",
    "State": "KY",
    "Postal": "41101",
    "Latitude": 38.4783,
    "Longitude": -82.6381
  },
  {
    "Name": "Huntington Mall",
    "Address1": "Route 60 and Mall Road",
    "Address2": null,
    "City": "Barboursville",
    "State": "WV",
    "Postal": "25504",
    "Latitude": 38.4094,
    "Longitude": -82.2947
  },
  {
    "Name": "Lima Mall",
    "Address1": "2400 Elida Road ",
    "Address2": null,
    "City": "Lima",
    "State": "OH",
    "Postal": "45805",
    "Latitude": 40.7716,
    "Longitude": -84.1061
  },
  {
    "Name": "Cincinnati Premium Outlets",
    "Address1": "874 Premium Outlet Drive",
    "Address2": null,
    "City": "Monroe",
    "State": "OH",
    "Postal": "45050",
    "Latitude": 39.4403,
    "Longitude": -84.3622
  },
  {
    "Name": "Tri-County Mall",
    "Address1": "11700 Princeton Pike",
    "Address2": null,
    "City": "Cincinnati",
    "State": "OH",
    "Postal": "45246",
    "Latitude": 39.1619,
    "Longitude": -84.4569
  },
  {
    "Name": "Eastgate Mall",
    "Address1": "4601 Eastgate Boulevard",
    "Address2": null,
    "City": "Cincinnati",
    "State": "OH",
    "Postal": "45245",
    "Latitude": 39.1619,
    "Longitude": -84.4569
  },
  {
    "Name": "Florence Mall",
    "Address1": "2028 Florence Mall",
    "Address2": null,
    "City": "Florence",
    "State": "KY",
    "Postal": "41042",
    "Latitude": 38.9989,
    "Longitude": -84.6267
  },
  {
    "Name": "Kenwood Towne Center",
    "Address1": "7875 Montgomery Road",
    "Address2": null,
    "City": "Cincinnati",
    "State": "OH",
    "Postal": "45236",
    "Latitude": 39.1619,
    "Longitude": -84.4569
  },
  {
    "Name": "Northgate Mall ",
    "Address1": "9707/9709 Colerain Ave",
    "Address2": null,
    "City": "Cincinnati",
    "State": "OH",
    "Postal": "45251",
    "Latitude": 39.1619,
    "Longitude": -84.4569
  },
  {
    "Name": "Fayette Mall",
    "Address1": "3615 Nicholasville Road",
    "Address2": null,
    "City": "Lexington",
    "State": "KY",
    "Postal": "40503",
    "Latitude": 37.9886,
    "Longitude": -84.4778
  },
  {
    "Name": "Hamburg Pavilion",
    "Address1": "2312 Sir Barton Way",
    "Address2": null,
    "City": "Lexington",
    "State": "KY",
    "Postal": "40509",
    "Latitude": 37.9886,
    "Longitude": -84.4778
  },
  {
    "Name": "River Oaks Center",
    "Address1": "96 River Oaks Dr",
    "Address2": null,
    "City": "Calumet City",
    "State": "IL",
    "Postal": "60409",
    "Latitude": 41.6156,
    "Longitude": -87.5294
  },
  {
    "Name": "Stratford Square Mall",
    "Address1": "220 Stratford Square",
    "Address2": null,
    "City": "Bloomingdale",
    "State": "IL",
    "Postal": "60108",
    "Latitude": 41.9575,
    "Longitude": -88.0808
  },
  {
    "Name": "Woodfield Mall",
    "Address1": "5 Woodfield Mall",
    "Address2": null,
    "City": "Schaumburg",
    "State": "IL",
    "Postal": "60173",
    "Latitude": 42.0333,
    "Longitude": -88.0833
  },
  {
    "Name": "CherryVale Mall",
    "Address1": "7200 Harrison Avenue",
    "Address2": null,
    "City": "Rockford",
    "State": "IL",
    "Postal": "61112",
    "Latitude": 42.3312,
    "Longitude": -89.0429
  },
  {
    "Name": "Louis Joliet Mall",
    "Address1": "1118 Mall Loop Drive",
    "Address2": null,
    "City": "Joliet",
    "State": "IL",
    "Postal": "60431",
    "Latitude": 41.525,
    "Longitude": -88.0817
  },
  {
    "Name": "Yorktown Mall",
    "Address1": "133 Yorktown Center",
    "Address2": null,
    "City": "Lombard",
    "State": "IL",
    "Postal": "60148",
    "Latitude": 41.88,
    "Longitude": -88.0078
  },
  {
    "Name": "Water Tower Place",
    "Address1": "835 North Michigan Avenue",
    "Address2": null,
    "City": "Chicago",
    "State": "IL",
    "Postal": "60611",
    "Latitude": 41.85,
    "Longitude": -87.65
  },
  {
    "Name": "The Mall at St Matthews",
    "Address1": "5000 Shelbyville Road",
    "Address2": null,
    "City": "Louisville",
    "State": "KY",
    "Postal": "40207",
    "Latitude": 38.2542,
    "Longitude": -85.7594
  },
  {
    "Name": "Eastland Mall ",
    "Address1": "800 N Green River Road",
    "Address2": null,
    "City": "Evansville",
    "State": "IN",
    "Postal": "47715",
    "Latitude": 37.9747,
    "Longitude": -87.5558
  },
  {
    "Name": "Jefferson Mall",
    "Address1": "4801 Outer Loop Road",
    "Address2": null,
    "City": "Louisville",
    "State": "KY",
    "Postal": "40219",
    "Latitude": 38.2542,
    "Longitude": -85.7594
  },
  {
    "Name": "Kentucky Oaks Mall",
    "Address1": "5101 Hinkleville Road",
    "Address2": null,
    "City": "Paducah",
    "State": "KY",
    "Postal": "42001",
    "Latitude": 37.0833,
    "Longitude": -88.6
  },
  {
    "Name": "Towne Mall",
    "Address1": "1704 North Dixie Highway",
    "Address2": null,
    "City": "Elizabethtown",
    "State": "KY",
    "Postal": "42701",
    "Latitude": 37.6939,
    "Longitude": -85.8592
  },
  {
    "Name": "Town Square Mall",
    "Address1": "5000 Frederica Street",
    "Address2": null,
    "City": "Owensboro",
    "State": "KY",
    "Postal": "42301",
    "Latitude": 37.6937,
    "Longitude": -87.0771
  },
  {
    "Name": "Greenwood Mall",
    "Address1": "2625 Scottsville Road",
    "Address2": null,
    "City": "Bowling Green",
    "State": "KY",
    "Postal": "42104",
    "Latitude": 37.0468,
    "Longitude": -86.3971
  },
  {
    "Name": "Green Tree Mall",
    "Address1": "757 East Highway 131",
    "Address2": null,
    "City": "Clarksville",
    "State": "IN",
    "Postal": "47129",
    "Latitude": 38.2967,
    "Longitude": -85.76
  },
  {
    "Name": "The Outlet Shoppes of the Blue Grass",
    "Address1": "1155 Buck Creek Road",
    "Address2": null,
    "City": "Simpsonville",
    "State": "KY",
    "Postal": "40067",
    "Latitude": 38.2225,
    "Longitude": -85.3553
  },
  {
    "Name": "Eastland Mall  ",
    "Address1": "2716 Eastland Mall",
    "Address2": null,
    "City": "Columbus",
    "State": "OH",
    "Postal": "43232",
    "Latitude": 39.9686,
    "Longitude": -82.8359
  },
  {
    "Name": "Polaris Fashion Place",
    "Address1": "1500 Polaris Parkway",
    "Address2": null,
    "City": "Columbus",
    "State": "OH",
    "Postal": "43240",
    "Latitude": 39.9686,
    "Longitude": -82.8359
  },
  {
    "Name": "River Valley Mall",
    "Address1": "1635 River Valley Circle South",
    "Address2": null,
    "City": "Lancaster",
    "State": "OH",
    "Postal": "43130",
    "Latitude": 39.7136,
    "Longitude": -82.5994
  },
  {
    "Name": "The Towne Center at Easton",
    "Address1": "206 Easton Town Center",
    "Address2": null,
    "City": "Columbus",
    "State": "OH",
    "Postal": "43219",
    "Latitude": 39.9686,
    "Longitude": -82.8359
  },
  {
    "Name": "Indian Mound Mall",
    "Address1": "771 S 30th Street",
    "Address2": null,
    "City": "Heath",
    "State": "OH",
    "Postal": "43056",
    "Latitude": 40.0228,
    "Longitude": -82.4447
  },
  {
    "Name": "Colony Square Mall",
    "Address1": "3575 Maple Avenue",
    "Address2": null,
    "City": "Zanesville",
    "State": "OH",
    "Postal": "43701",
    "Latitude": 39.9403,
    "Longitude": -82.0133
  },
  {
    "Name": "Tanger Outlets at Jeffersonville",
    "Address1": "8755 Factory Shop Boulevard",
    "Address2": null,
    "City": "Jeffersonville",
    "State": "OH",
    "Postal": "43128",
    "Latitude": 39.6536,
    "Longitude": -83.5639
  },
  {
    "Name": "Tuttle Crossing",
    "Address1": "5043 Tuttle Crossing Blvd",
    "Address2": null,
    "City": "Dublin",
    "State": "OH",
    "Postal": "43016",
    "Latitude": 40.0992,
    "Longitude": -83.1142
  },
  {
    "Name": "Market Place",
    "Address1": "2000 North Neil Street",
    "Address2": null,
    "City": "Champaign",
    "State": "IL",
    "Postal": "61820",
    "Latitude": 40.1164,
    "Longitude": -88.2433
  },
  {
    "Name": "Eastland Mall  ",
    "Address1": "1615 E Empire Street",
    "Address2": null,
    "City": "Bloomington",
    "State": "IL",
    "Postal": "61701",
    "Latitude": 40.4056,
    "Longitude": -88.8613
  },
  {
    "Name": "South County Mall",
    "Address1": "342 South County Cente Way",
    "Address2": null,
    "City": "Koch",
    "State": "MO",
    "Postal": "63129",
    "Latitude": 38.2102,
    "Longitude": -92.2678
  },
  {
    "Name": "St Clair Square",
    "Address1": "105 Street Clair Square",
    "Address2": null,
    "City": "Fairview Heights",
    "State": "IL",
    "Postal": "62208",
    "Latitude": 38.5889,
    "Longitude": -89.9903
  },
  {
    "Name": "White Oaks Mall ",
    "Address1": "2501 West Wabash",
    "Address2": null,
    "City": "Springfield",
    "State": "IL",
    "Postal": "62704",
    "Latitude": 39.8286,
    "Longitude": -89.6962
  },
  {
    "Name": "Northwoods Mall  ",
    "Address1": "2200 W War Memorial Drive",
    "Address2": null,
    "City": "Peoria",
    "State": "IL",
    "Postal": "61613",
    "Latitude": 40.7883,
    "Longitude": -89.5147
  },
  {
    "Name": "University Mall   ",
    "Address1": "1235 E Main Street",
    "Address2": null,
    "City": "Carbondale",
    "State": "IL",
    "Postal": "62901",
    "Latitude": 37.7272,
    "Longitude": -89.2167
  },
  {
    "Name": "Hickory Point",
    "Address1": "1145 Hickory Point Mall",
    "Address2": null,
    "City": "Forsyth",
    "State": "IL",
    "Postal": "62535",
    "Latitude": 39.9325,
    "Longitude": -88.9511
  },
  {
    "Name": "West County Mall",
    "Address1": "33 West County Center",
    "Address2": null,
    "City": "Des Peres",
    "State": "MO",
    "Postal": "63131",
    "Latitude": 38.2102,
    "Longitude": -92.2678
  },
  {
    "Name": "Tanger Outlets Tuscola",
    "Address1": "D400 Tuscola Blvd  Box 4045",
    "Address2": null,
    "City": "Tuscola",
    "State": "IL",
    "Postal": "61953",
    "Latitude": 39.7992,
    "Longitude": -88.2831
  },
  {
    "Name": "Country Side Mall",
    "Address1": "27001 US Highway 19",
    "Address2": null,
    "City": "Clearwater",
    "State": "FL",
    "Postal": "33761",
    "Latitude": 27.9656,
    "Longitude": -82.8003
  },
  {
    "Name": "Tyrone Square",
    "Address1": "6901 22nd Avenue North",
    "Address2": null,
    "City": "St Petersburg",
    "State": "FL",
    "Postal": "33710",
    "Latitude": 28.6436,
    "Longitude": -82.3958
  },
  {
    "Name": "University Mall    ",
    "Address1": "2205 University Square Mall ",
    "Address2": null,
    "City": "Tampa",
    "State": "FL",
    "Postal": "33612",
    "Latitude": 27.9472,
    "Longitude": -82.4586
  },
  {
    "Name": "Citrus Park Town Center",
    "Address1": "8081 Citrus Park Town Center",
    "Address2": null,
    "City": "Tampa",
    "State": "FL",
    "Postal": "33625",
    "Latitude": 27.9472,
    "Longitude": -82.4586
  },
  {
    "Name": "Desoto Square",
    "Address1": "303 US Hwy 301 Blvd West",
    "Address2": null,
    "City": "Bradenton",
    "State": "FL",
    "Postal": "34205",
    "Latitude": 27.4986,
    "Longitude": -82.575
  },
  {
    "Name": "Gulf View Square",
    "Address1": "9409 US Highway 19",
    "Address2": null,
    "City": "Port Richey",
    "State": "FL",
    "Postal": "34668",
    "Latitude": 28.2714,
    "Longitude": -82.7197
  },
  {
    "Name": "Shops at Wiregrass",
    "Address1": "28210 Paseo Drive",
    "Address2": null,
    "City": "Wesley Chapel",
    "State": "FL",
    "Postal": "33544",
    "Latitude": 28.2394,
    "Longitude": -82.3281
  },
  {
    "Name": "West Shore Plaza",
    "Address1": "306 Westshore Plaza",
    "Address2": null,
    "City": "Tampa ",
    "State": "FL",
    "Postal": "33609",
    "Latitude": 28.6436,
    "Longitude": -82.3958
  },
  {
    "Name": "Plaza Carolina",
    "Address1": "65 Infantry and Fragoso",
    "Address2": null,
    "City": "Carolina",
    "State": "PR",
    "Postal": "00983",
    "Latitude": 18.3828,
    "Longitude": -65.9578
  },
  {
    "Name": "Plaza Las Americas",
    "Address1": "FD Roosevelt Avenue",
    "Address2": null,
    "City": "San Juan ",
    "State": "PR",
    "Postal": "918",
    "Latitude": 18.2287,
    "Longitude": -66.4595
  },
  {
    "Name": "Puerto Rico Premium Outlets",
    "Address1": "1 Prime Outlet Bvld",
    "Address2": null,
    "City": "Barceloneta",
    "State": "PR",
    "Postal": "612",
    "Latitude": 18.4525,
    "Longitude": -66.5389
  },
  {
    "Name": "Plaza Del Norte",
    "Address1": "506 Trucado St",
    "Address2": null,
    "City": "Hatillo",
    "State": "PR",
    "Postal": "659",
    "Latitude": 18.4883,
    "Longitude": -66.8258
  },
  {
    "Name": "Las Catalinas Mall",
    "Address1": "400 Calle Betances",
    "Address2": null,
    "City": "Caguas",
    "State": "PR",
    "Postal": "00725-5201",
    "Latitude": 18.2361,
    "Longitude": -66.0489
  },
  {
    "Name": "The Outlet at Route 66",
    "Address1": "State Road #3, KM 184",
    "Address2": null,
    "City": "Canovanas",
    "State": "PR",
    "Postal": "00729",
    "Latitude": 0,
    "Longitude": 0
  },
  {
    "Name": "Plaza Del Sol",
    "Address1": "725 Avenida Principle Oeste",
    "Address2": null,
    "City": "Bayamon",
    "State": "PR",
    "Postal": "961",
    "Latitude": 18.1797,
    "Longitude": -66.1136
  },
  {
    "Name": "Plaza Isabela",
    "Address1": "PR 2 & PR 4494",
    "Address2": null,
    "City": "Isabela",
    "State": "PR",
    "Postal": "662",
    "Latitude": 18.5028,
    "Longitude": -67.0247
  },
  {
    "Name": "Dadeland",
    "Address1": "7225 Southwest 88th Street",
    "Address2": null,
    "City": "Miami ",
    "State": "FL",
    "Postal": "33156",
    "Latitude": 28.6436,
    "Longitude": -82.3958
  },
  {
    "Name": "Aventura Mall",
    "Address1": "19501 Biscayne Boulevard ",
    "Address2": null,
    "City": "Aventura",
    "State": "FL",
    "Postal": "33180",
    "Latitude": 25.9561,
    "Longitude": -80.1394
  },
  {
    "Name": "Sawgrass Mills",
    "Address1": "12801 West Sunrise Boulevard",
    "Address2": null,
    "City": "Sunrise",
    "State": "FL",
    "Postal": "33323",
    "Latitude": 26.1336,
    "Longitude": -80.1133
  },
  {
    "Name": "Dolphin Mall",
    "Address1": "11401 North West 12th Street",
    "Address2": null,
    "City": "Miami",
    "State": "FL",
    "Postal": "33172",
    "Latitude": 25.7739,
    "Longitude": -80.1939
  },
  {
    "Name": "Shops at Sunset Place",
    "Address1": "5701 Sunset Drive",
    "Address2": null,
    "City": "Miami",
    "State": "FL",
    "Postal": "33143",
    "Latitude": 25.7739,
    "Longitude": -80.1939
  },
  {
    "Name": "Pembroke Lakes Mall",
    "Address1": "11401 Pines Blvd",
    "Address2": null,
    "City": "Pembroke Pines",
    "State": "FL",
    "Postal": "33026",
    "Latitude": 26.0028,
    "Longitude": -80.2242
  },
  {
    "Name": "The Falls",
    "Address1": "8888 SW 136th St",
    "Address2": null,
    "City": "Miami",
    "State": "FL",
    "Postal": "33176",
    "Latitude": 25.7739,
    "Longitude": -80.1939
  },
  {
    "Name": "Southland Mall  ",
    "Address1": "20505 S Dixie Highway",
    "Address2": null,
    "City": "Cutler Bay",
    "State": "FL",
    "Postal": "33189",
    "Latitude": 28.6436,
    "Longitude": -82.3958
  },
  {
    "Name": "Edison Mall",
    "Address1": "4125 Cleveland Avenue",
    "Address2": null,
    "City": "Fort Myers",
    "State": "FL",
    "Postal": "33901",
    "Latitude": 28.6436,
    "Longitude": -82.3958
  },
  {
    "Name": "The Oaks Mall",
    "Address1": "6357 West Newberry Road",
    "Address2": null,
    "City": "Gainesville",
    "State": "FL",
    "Postal": "32605",
    "Latitude": 29.678,
    "Longitude": -82.48
  },
  {
    "Name": "Sarasota Square",
    "Address1": "8201 South Tamiami Trail",
    "Address2": null,
    "City": "Sarasota",
    "State": "FL",
    "Postal": "34238",
    "Latitude": 27.3361,
    "Longitude": -82.5308
  },
  {
    "Name": "Ellenton Premium Outlets",
    "Address1": "5109 Factory Shops Boulevard",
    "Address2": null,
    "City": "Ellenton",
    "State": "FL",
    "Postal": "34222",
    "Latitude": 27.5214,
    "Longitude": -82.5278
  },
  {
    "Name": "Brandon Town Center",
    "Address1": "553 Brandon Town Center Mall",
    "Address2": null,
    "City": "Brandon",
    "State": "FL",
    "Postal": "33511",
    "Latitude": 27.9375,
    "Longitude": -82.2861
  },
  {
    "Name": "Paddock Mall",
    "Address1": "3100 College Road",
    "Address2": null,
    "City": "Ocala",
    "State": "FL",
    "Postal": "34474",
    "Latitude": 29.2028,
    "Longitude": -82.0431
  },
  {
    "Name": "Coastland Center",
    "Address1": "1912 Tamiami Trail North",
    "Address2": null,
    "City": "Naples",
    "State": "FL",
    "Postal": "34102",
    "Latitude": 26.1417,
    "Longitude": -81.795
  },
  {
    "Name": "Port Charlotte Town Center",
    "Address1": "1441 Tamiami Trail",
    "Address2": null,
    "City": "Port Charlotte",
    "State": "FL",
    "Postal": "33948",
    "Latitude": 26.9758,
    "Longitude": -82.0908
  },
  {
    "Name": "Coconut Point",
    "Address1": "23141 Fashion Drive",
    "Address2": null,
    "City": "Bonita Springs",
    "State": "FL",
    "Postal": "33928",
    "Latitude": 26.3394,
    "Longitude": -81.7789
  },
  {
    "Name": "Miromar Outlet",
    "Address1": "10801 Corkscrew Rd Suite 510",
    "Address2": null,
    "City": "Estero",
    "State": "FL",
    "Postal": "33928",
    "Latitude": 26.4378,
    "Longitude": -81.8069
  },
  {
    "Name": "Governor's Square ",
    "Address1": "1500 Apalachee Parkway",
    "Address2": null,
    "City": "Tallahassee",
    "State": "FL",
    "Postal": "32301",
    "Latitude": 30.3864,
    "Longitude": -84.2804
  },
  {
    "Name": "Colonial Mall Valdosta",
    "Address1": "1700 Norman Drive",
    "Address2": null,
    "City": "Valdosta",
    "State": "GA",
    "Postal": "31601",
    "Latitude": 30.8275,
    "Longitude": -83.2421
  },
  {
    "Name": "St Augustine Premium Outlets",
    "Address1": "2700 State Road 16",
    "Address2": null,
    "City": "St Augustine",
    "State": "FL",
    "Postal": "32092",
    "Latitude": 28.6436,
    "Longitude": -82.3958
  },
  {
    "Name": "Panama City Mall",
    "Address1": "2202 Martin Luther King Jr Blvd",
    "Address2": null,
    "City": "Panama City",
    "State": "FL",
    "Postal": "32405",
    "Latitude": 30.1011,
    "Longitude": -85.475
  },
  {
    "Name": "Orange Park Mall",
    "Address1": "1910 Wells Road",
    "Address2": null,
    "City": "Orange Park",
    "State": "FL",
    "Postal": "32073",
    "Latitude": 30.1658,
    "Longitude": -81.7067
  },
  {
    "Name": "The Avenues",
    "Address1": "10300 Southside Boulevard",
    "Address2": null,
    "City": "Jacksonville",
    "State": "FL",
    "Postal": "32256",
    "Latitude": 30.2371,
    "Longitude": -81.7553
  },
  {
    "Name": "Albany Mall",
    "Address1": "2601 Dawson Road",
    "Address2": null,
    "City": "Albany ",
    "State": "GA",
    "Postal": "31707",
    "Latitude": 33.1635,
    "Longitude": -83.7526
  },
  {
    "Name": "Regency Square",
    "Address1": "9501 Arlington Expressway",
    "Address2": null,
    "City": "Jacksonville",
    "State": "FL",
    "Postal": "32225",
    "Latitude": 30.2371,
    "Longitude": -81.7553
  },
  {
    "Name": "Pier Park",
    "Address1": "204 Bluefish Drive",
    "Address2": null,
    "City": "Panama City Beach",
    "State": "FL",
    "Postal": "32413",
    "Latitude": 28.6436,
    "Longitude": -82.3958
  },
  {
    "Name": "St John's Town Center",
    "Address1": "10281 Midtown Parkway",
    "Address2": null,
    "City": "Jacksonville",
    "State": "FL",
    "Postal": "32246",
    "Latitude": 30.2371,
    "Longitude": -81.7553
  },
  {
    "Name": "Mall at Wellington Green",
    "Address1": "10300 West Forest Hill Blvd",
    "Address2": null,
    "City": "Wellington",
    "State": "FL",
    "Postal": "33414",
    "Latitude": 26.6583,
    "Longitude": -80.2417
  },
  {
    "Name": "Boynton Beach Mall",
    "Address1": "801 North Congress Avenue",
    "Address2": null,
    "City": "Boynton Beach",
    "State": "FL",
    "Postal": "33426",
    "Latitude": 26.525,
    "Longitude": -80.0667
  },
  {
    "Name": "Coral Square Mall",
    "Address1": "9501 W Atlantic Boulevard",
    "Address2": null,
    "City": "Coral Springs",
    "State": "FL",
    "Postal": "33071",
    "Latitude": 26.2708,
    "Longitude": -80.2708
  },
  {
    "Name": "Broward Mall",
    "Address1": "8000 West Broward Boulevard",
    "Address2": null,
    "City": "Plantation",
    "State": "FL",
    "Postal": "33388",
    "Latitude": 26.1272,
    "Longitude": -80.2333
  },
  {
    "Name": "The Gardens Mall",
    "Address1": "3101 PGA Blvd",
    "Address2": null,
    "City": "Palm Beach ",
    "State": "FL",
    "Postal": "33410",
    "Latitude": 28.6436,
    "Longitude": -82.3958
  },
  {
    "Name": "Florida Keys Outlet Center",
    "Address1": "250 East Palm Dr ",
    "Address2": null,
    "City": "Florida City",
    "State": "FL",
    "Postal": "33034",
    "Latitude": 25.4475,
    "Longitude": -80.4794
  },
  {
    "Name": "Westland Mall",
    "Address1": "1685 W 49th St",
    "Address2": null,
    "City": "Hialeah",
    "State": "FL",
    "Postal": "33012",
    "Latitude": 25.8572,
    "Longitude": -80.2783
  },
  {
    "Name": "Town Center at Boca Raton",
    "Address1": "6000 West Glades Road, Suite #1035",
    "Address2": null,
    "City": "Boca Raton",
    "State": "FL",
    "Postal": "33431",
    "Latitude": 0,
    "Longitude": 0
  },
  {
    "Name": "Melbourne Mall",
    "Address1": "1700 West New Haven Avenue",
    "Address2": null,
    "City": "Melbourne",
    "State": "FL",
    "Postal": "32904",
    "Latitude": 28.0833,
    "Longitude": -80.6083
  },
  {
    "Name": "Treasure Coast Mall",
    "Address1": "3256 Northwest Federal Hwy",
    "Address2": null,
    "City": "Jensen Beach",
    "State": "FL",
    "Postal": "34957",
    "Latitude": 27.2542,
    "Longitude": -80.23
  },
  {
    "Name": "Indian River Mall",
    "Address1": "6200 20th Street",
    "Address2": null,
    "City": "Vero Beach",
    "State": "FL",
    "Postal": "32966",
    "Latitude": 28.6436,
    "Longitude": -82.3958
  },
  {
    "Name": "Waterford Lakes Town Center",
    "Address1": "653 North Alafaya Trail",
    "Address2": null,
    "City": "Orlando",
    "State": "FL",
    "Postal": "32828",
    "Latitude": 28.5381,
    "Longitude": -81.3794
  },
  {
    "Name": "Merritt Square",
    "Address1": "777 East Merritt Island Cswy",
    "Address2": null,
    "City": "Merritt Island",
    "State": "FL",
    "Postal": "32952",
    "Latitude": 28.5389,
    "Longitude": -80.6722
  },
  {
    "Name": "Lake Buena Vista",
    "Address1": "15555 S Apopka Vineland Rd",
    "Address2": null,
    "City": "Orlando",
    "State": "FL",
    "Postal": "32821",
    "Latitude": 28.5381,
    "Longitude": -81.3794
  },
  {
    "Name": "Eagle Ridge",
    "Address1": "430 Eagle Ridge Drive",
    "Address2": null,
    "City": "Lake Wales",
    "State": "FL",
    "Postal": "33859",
    "Latitude": 28.6436,
    "Longitude": -82.3958
  },
  {
    "Name": "The Loop",
    "Address1": "3220 North John Young Pkwy",
    "Address2": null,
    "City": "Kissimmee",
    "State": "FL",
    "Postal": "34741",
    "Latitude": 28.2917,
    "Longitude": -81.4078
  },
  {
    "Name": "Seminole Towne Center",
    "Address1": "268 Towne Center Circle",
    "Address2": null,
    "City": "Sanford",
    "State": "FL",
    "Postal": "32771",
    "Latitude": 28.8003,
    "Longitude": -81.2733
  },
  {
    "Name": "Lakeland Square",
    "Address1": "3800 US Hwy 98 North",
    "Address2": null,
    "City": "Lakeland",
    "State": "FL",
    "Postal": "33809",
    "Latitude": 28.0392,
    "Longitude": -81.95
  },
  {
    "Name": "Altamonte Mall",
    "Address1": "451 East Altamonte Drive",
    "Address2": null,
    "City": "Altamonte Springs",
    "State": "FL",
    "Postal": "32701",
    "Latitude": 28.6608,
    "Longitude": -81.3658
  },
  {
    "Name": "Florida Mall",
    "Address1": "8001 S Orange Blossom Trail",
    "Address2": null,
    "City": "Orlando",
    "State": "FL",
    "Postal": "32809",
    "Latitude": 28.5381,
    "Longitude": -81.3794
  },
  {
    "Name": "Volusia Mall",
    "Address1": "1700 West Int Speedway Blvd",
    "Address2": null,
    "City": "Daytona Beach",
    "State": "FL",
    "Postal": "32114",
    "Latitude": 29.2106,
    "Longitude": -81.0231
  },
  {
    "Name": "West Oaks Mall ",
    "Address1": "9401 West Colonial Drive",
    "Address2": null,
    "City": "Ocoee",
    "State": "FL",
    "Postal": "34761",
    "Latitude": 28.5689,
    "Longitude": -81.5442
  },
  {
    "Name": "Orlando Premium Outlets",
    "Address1": "4975 International Drive",
    "Address2": null,
    "City": "Orlando",
    "State": "FL",
    "Postal": "32819",
    "Latitude": 28.5381,
    "Longitude": -81.3794
  },
  {
    "Name": "South Hill Mall",
    "Address1": "3500 South Meridian",
    "Address2": null,
    "City": "Puyallup",
    "State": "WA",
    "Postal": "98373",
    "Latitude": 47.1856,
    "Longitude": -122.2917
  },
  {
    "Name": "Tacoma Mall",
    "Address1": "4502 S Stelle Street",
    "Address2": null,
    "City": "Tacoma",
    "State": "WA",
    "Postal": "98409",
    "Latitude": 47.2531,
    "Longitude": -122.4431
  },
  {
    "Name": "Columbia Center",
    "Address1": "1321 North Columbia Ctr Blvd",
    "Address2": null,
    "City": "Kennewick",
    "State": "WA",
    "Postal": "99336",
    "Latitude": 46.2114,
    "Longitude": -119.1361
  },
  {
    "Name": "The Outlet Collection",
    "Address1": "1101 Outlet Collection Way",
    "Address2": null,
    "City": "Auburn",
    "State": "WA",
    "Postal": "98001",
    "Latitude": 47.3075,
    "Longitude": -122.2272
  },
  {
    "Name": "Valley Mall   ",
    "Address1": "2529 Main Street",
    "Address2": null,
    "City": "Yakima",
    "State": "WA",
    "Postal": "98903",
    "Latitude": 46.4566,
    "Longitude": -120.7401
  },
  {
    "Name": "Centralia Outlets",
    "Address1": "1322 Lum Road",
    "Address2": null,
    "City": "Centralia",
    "State": "WA",
    "Postal": "98531",
    "Latitude": 46.7164,
    "Longitude": -122.9531
  },
  {
    "Name": "Bellevue Square",
    "Address1": "230 Bellevue Square",
    "Address2": null,
    "City": "Bellevue",
    "State": "WA",
    "Postal": "98004",
    "Latitude": 47.6106,
    "Longitude": -122.1994
  },
  {
    "Name": "The Citadel",
    "Address1": "750 Citadel Drive",
    "Address2": null,
    "City": "Colorado Springs",
    "State": "CO",
    "Postal": "80909",
    "Latitude": 38.8455,
    "Longitude": -104.6386
  },
  {
    "Name": "Rushmore Mall",
    "Address1": "2200 North Maple",
    "Address2": null,
    "City": "Rapid City",
    "State": "SD",
    "Postal": "57701",
    "Latitude": 44.2811,
    "Longitude": -99.5369
  },
  {
    "Name": "Castle Rock",
    "Address1": "5050 Factory Shops Blvd",
    "Address2": null,
    "City": "Castle Rock",
    "State": "CO",
    "Postal": "80108",
    "Latitude": 39.3722,
    "Longitude": -104.8556
  },
  {
    "Name": "Chapel Hills Mall",
    "Address1": "1710 Briargate Boulevard",
    "Address2": null,
    "City": "Colorado Springs",
    "State": "CO",
    "Postal": "80920",
    "Latitude": 38.8455,
    "Longitude": -104.6386
  },
  {
    "Name": "Rimrock Mall",
    "Address1": "300 S 24th Street West",
    "Address2": null,
    "City": "Billings",
    "State": "MT",
    "Postal": "59102",
    "Latitude": 45.7755,
    "Longitude": -108.7279
  },
  {
    "Name": "Town Center at Aurora",
    "Address1": "14200 E Alameda",
    "Address2": null,
    "City": "Aurora",
    "State": "CO",
    "Postal": "80012",
    "Latitude": 39.7294,
    "Longitude": -104.8314
  },
  {
    "Name": "Park Meadows",
    "Address1": "8505 Park Meadows Center Drive",
    "Address2": null,
    "City": "Lone Tree",
    "State": "CO",
    "Postal": "80124",
    "Latitude": 39.079,
    "Longitude": -105.4577
  },
  {
    "Name": "Mall of America",
    "Address1": "267 North Garden",
    "Address2": null,
    "City": "Bloomington",
    "State": "MN",
    "Postal": "55425",
    "Latitude": 44.8408,
    "Longitude": -93.2981
  },
  {
    "Name": "Maplewood Mall",
    "Address1": "3001 White Bear Avenue",
    "Address2": null,
    "City": "Maplewood",
    "State": "MN",
    "Postal": "55109",
    "Latitude": 44.9531,
    "Longitude": -92.995
  },
  {
    "Name": "Miller Hill",
    "Address1": "1600 Miller Trunk Highway",
    "Address2": null,
    "City": "Duluth",
    "State": "MN",
    "Postal": "55811",
    "Latitude": 46.7833,
    "Longitude": -92.1064
  },
  {
    "Name": "Northtown Mall",
    "Address1": "398 Northtown Drive",
    "Address2": null,
    "City": "Blaine",
    "State": "MN",
    "Postal": "55434",
    "Latitude": 45.1608,
    "Longitude": -93.2347
  },
  {
    "Name": "Crossroads Center Mall",
    "Address1": "4101 W Division Street",
    "Address2": null,
    "City": "St Cloud",
    "State": "MN",
    "Postal": "56301",
    "Latitude": 45.7884,
    "Longitude": -94.0236
  },
  {
    "Name": "Outlet Center at Albertville",
    "Address1": "6415 Labeaux Avenue",
    "Address2": null,
    "City": "Albertville",
    "State": "MN",
    "Postal": "55301",
    "Latitude": 45.2378,
    "Longitude": -93.6542
  },
  {
    "Name": "Woodbury Lakes",
    "Address1": "9140 Hudson Road",
    "Address2": null,
    "City": "Woodbury",
    "State": "MN",
    "Postal": "55125",
    "Latitude": 44.9239,
    "Longitude": -92.9592
  },
  {
    "Name": "Rosedale Shopping Center",
    "Address1": "10 Rosedale Center",
    "Address2": null,
    "City": "Roseville",
    "State": "MN",
    "Postal": "55113",
    "Latitude": 45.0061,
    "Longitude": -93.1564
  },
  {
    "Name": "Riverdale Village",
    "Address1": "12768 Riverdale Blvd",
    "Address2": null,
    "City": "Coon Rapids",
    "State": "MN",
    "Postal": "55448",
    "Latitude": 45.12,
    "Longitude": -93.2875
  },
  {
    "Name": "Vancouver Mall",
    "Address1": "8700 NE Vancouver Mall Drive",
    "Address2": null,
    "City": "Vancouver",
    "State": "WA",
    "Postal": "98662",
    "Latitude": 45.6389,
    "Longitude": -122.6603
  },
  {
    "Name": "Clackamas Town Center",
    "Address1": "12000 South East 82nd Ave",
    "Address2": null,
    "City": "Portland",
    "State": "OR",
    "Postal": "97266",
    "Latitude": 45.5236,
    "Longitude": -122.675
  },
  {
    "Name": "Rogue Valley Mall",
    "Address1": "1600 North Riverside Avenue",
    "Address2": null,
    "City": "Medford",
    "State": "OR",
    "Postal": "97501",
    "Latitude": 42.4116,
    "Longitude": -122.6757
  },
  {
    "Name": "Lincoln City",
    "Address1": "1500 SE East Devils Lake Rd",
    "Address2": null,
    "City": "Lincoln City",
    "State": "OR",
    "Postal": "97367",
    "Latitude": 44.9583,
    "Longitude": -124.0167
  },
  {
    "Name": "Woodburn Company Store",
    "Address1": "1001 Arney Road",
    "Address2": null,
    "City": "Woodburn",
    "State": "OR",
    "Postal": "97071",
    "Latitude": 45.1439,
    "Longitude": -122.8542
  },
  {
    "Name": "Lloyd Center",
    "Address1": "1225 Lloyd Center",
    "Address2": null,
    "City": "Portland",
    "State": "OR",
    "Postal": "97232",
    "Latitude": 45.5236,
    "Longitude": -122.675
  },
  {
    "Name": "Dimond Center Mall",
    "Address1": "800 E Dimond Blvd",
    "Address2": null,
    "City": "Anchorage",
    "State": "AK",
    "Postal": "99515",
    "Latitude": 62.2128,
    "Longitude": -149.6782
  },
  {
    "Name": "Anchorage 5th Ave Mall",
    "Address1": "320 W 5th Avenue",
    "Address2": null,
    "City": "Anchorage",
    "State": "AK",
    "Postal": "99501",
    "Latitude": 62.2128,
    "Longitude": -149.6782
  },
  {
    "Name": "Washington Square Mall",
    "Address1": "9677 SW Washington Square Rd",
    "Address2": null,
    "City": "Portland ",
    "State": "OR",
    "Postal": "97223",
    "Latitude": 44.5445,
    "Longitude": -122.1079
  },
  {
    "Name": "Bentley Mall",
    "Address1": "32 College Road",
    "Address2": null,
    "City": "Fairbanks",
    "State": "AK",
    "Postal": "99701",
    "Latitude": 64.6882,
    "Longitude": -146.5893
  },
  {
    "Name": "Burnsville Center",
    "Address1": "1178 Burnsville Center",
    "Address2": null,
    "City": "Burnsville",
    "State": "MN",
    "Postal": "55306",
    "Latitude": 44.7678,
    "Longitude": -93.2775
  },
  {
    "Name": "River Hills Mall",
    "Address1": "1850 Adams Street",
    "Address2": null,
    "City": "Mankato",
    "State": "MN",
    "Postal": "56001",
    "Latitude": 44.1636,
    "Longitude": -93.9992
  },
  {
    "Name": "Oakwood Mall",
    "Address1": "4800 Golf Road",
    "Address2": null,
    "City": "Eau Claire",
    "State": "WI",
    "Postal": "54701",
    "Latitude": 44.2402,
    "Longitude": -89.6614
  },
  {
    "Name": "Apache Mall",
    "Address1": "333 Apache Mall",
    "Address2": null,
    "City": "Rochester",
    "State": "MN",
    "Postal": "55901",
    "Latitude": 43.9499,
    "Longitude": -92.3357
  },
  {
    "Name": "Kirkwood Mall",
    "Address1": "877 Kirkwood Mall",
    "Address2": null,
    "City": "Bismarck",
    "State": "ND",
    "Postal": "58504",
    "Latitude": 46.7266,
    "Longitude": -100.9961
  },
  {
    "Name": "Valley View",
    "Address1": "3800 State Road 16",
    "Address2": null,
    "City": "La Crosse",
    "State": "WI",
    "Postal": "54601",
    "Latitude": 44.2402,
    "Longitude": -89.6614
  },
  {
    "Name": "Empire Mall",
    "Address1": "1230 Empire Mall",
    "Address2": null,
    "City": "Sioux Falls",
    "State": "SD",
    "Postal": "57106",
    "Latitude": 43.4954,
    "Longitude": -96.9953
  },
  {
    "Name": "West Acres Mall",
    "Address1": "3902 13th Avenue",
    "Address2": null,
    "City": "Fargo",
    "State": "ND",
    "Postal": "58103",
    "Latitude": 46.8772,
    "Longitude": -96.7894
  },
  {
    "Name": "University Mall    ",
    "Address1": "575 East University Parkway",
    "Address2": null,
    "City": "Orem",
    "State": "UT",
    "Postal": "84097",
    "Latitude": 40.2969,
    "Longitude": -111.6939
  },
  {
    "Name": "Provo Towne Centre",
    "Address1": "1200 Towne Centre Boulevard",
    "Address2": null,
    "City": "Provo",
    "State": "UT",
    "Postal": "84601",
    "Latitude": 40.2339,
    "Longitude": -111.6578
  },
  {
    "Name": "Newgate Mall",
    "Address1": "3651 Wall Avenue",
    "Address2": null,
    "City": "Ogden",
    "State": "UT",
    "Postal": "84405",
    "Latitude": 41.2231,
    "Longitude": -111.9731
  },
  {
    "Name": "Layton Hills Mall",
    "Address1": "2008 Layton Hills Mall",
    "Address2": null,
    "City": "Layton",
    "State": "UT",
    "Postal": "84041",
    "Latitude": 41.0603,
    "Longitude": -111.9703
  },
  {
    "Name": "South Towne Center",
    "Address1": "10450 South State Street",
    "Address2": null,
    "City": "Sandy",
    "State": "UT",
    "Postal": "84070",
    "Latitude": 40.5771011,
    "Longitude": -111.8890457
  },
  {
    "Name": "Tanger Outlet Park City",
    "Address1": "6699 North Landmark Drive",
    "Address2": null,
    "City": "Park City",
    "State": "UT",
    "Postal": "84098",
    "Latitude": 40.3311,
    "Longitude": -111.8464
  },
  {
    "Name": "Grand Teton Mall",
    "Address1": "2300 East 17th Street",
    "Address2": null,
    "City": "Idaho Falls",
    "State": "ID",
    "Postal": "83404",
    "Latitude": 43.6205,
    "Longitude": -112.4208
  },
  {
    "Name": "Jordan Landing Strip",
    "Address1": "7138 South Plaza Center Drive",
    "Address2": null,
    "City": "West Jordan",
    "State": "UT",
    "Postal": "84084",
    "Latitude": 40.6097,
    "Longitude": -111.9383
  },
  {
    "Name": "Fashion Place",
    "Address1": "6191 South State Street",
    "Address2": null,
    "City": "Murray",
    "State": "UT",
    "Postal": "84107",
    "Latitude": 40.6669,
    "Longitude": -111.8872
  },
  {
    "Name": "Pine Ridge Mall",
    "Address1": "4155 Yellowstone Highway",
    "Address2": null,
    "City": "Chubbuck",
    "State": "ID",
    "Postal": "83202",
    "Latitude": 42.9208,
    "Longitude": -112.4653
  },
  {
    "Name": "Bellis Fair Mall",
    "Address1": "1 Bellis Fair Parkway",
    "Address2": null,
    "City": "Bellingham",
    "State": "WA",
    "Postal": "98226",
    "Latitude": 48.8427,
    "Longitude": -121.8364
  },
  {
    "Name": "Spokane Valley Mall",
    "Address1": "14700 East Indiana Avenue",
    "Address2": null,
    "City": "Spokane",
    "State": "WA",
    "Postal": "99216",
    "Latitude": 47.6589,
    "Longitude": -117.425
  },
  {
    "Name": "Boise Towne Square",
    "Address1": "350 N Milwaukee",
    "Address2": null,
    "City": "Boise",
    "State": "ID",
    "Postal": "83704",
    "Latitude": 43.6136,
    "Longitude": -116.2025
  },
  {
    "Name": "Seattle Premium Outlets",
    "Address1": "10600 Quil Ceda Blvd",
    "Address2": null,
    "City": "Tulalip",
    "State": "WA",
    "Postal": "98271",
    "Latitude": 48.0686,
    "Longitude": -122.2906
  },
  {
    "Name": "Magic Valley Mall",
    "Address1": "1485 Poleline Road East",
    "Address2": null,
    "City": "Twin Falls ",
    "State": "ID",
    "Postal": "83301",
    "Latitude": 44.6907,
    "Longitude": -114.8082
  },
  {
    "Name": "Southgate Mall",
    "Address1": "2901 Brooks Street",
    "Address2": null,
    "City": "Missoula",
    "State": "MT",
    "Postal": "59801",
    "Latitude": 47.0273,
    "Longitude": -113.8927
  },
  {
    "Name": "Southcenter",
    "Address1": "2626 Southcenter Mall",
    "Address2": null,
    "City": "Tukwila",
    "State": "WA",
    "Postal": "98188",
    "Latitude": 47.4742,
    "Longitude": -122.2597
  },
  {
    "Name": "Bel Mar",
    "Address1": "7251 West Alaska Drive",
    "Address2": null,
    "City": "Lakewood",
    "State": "CO",
    "Postal": "80226",
    "Latitude": 39.7047,
    "Longitude": -105.0808
  },
  {
    "Name": "Colorado Mills",
    "Address1": "14500 Colfax Avenue",
    "Address2": null,
    "City": "Lakewood",
    "State": "CO",
    "Postal": "80401",
    "Latitude": 39.7047,
    "Longitude": -105.0808
  },
  {
    "Name": "Flatiron Crossing",
    "Address1": "1 West Flat Iron Circle",
    "Address2": null,
    "City": "Broomfield",
    "State": "CO",
    "Postal": "80021",
    "Latitude": 39.9206,
    "Longitude": -105.0861
  },
  {
    "Name": "Red Cliffs Mall",
    "Address1": "1770 E Red Cliffs Drive",
    "Address2": null,
    "City": "St George",
    "State": "UT",
    "Postal": "84790",
    "Latitude": 40.3311,
    "Longitude": -111.8464
  },
  {
    "Name": "Mesa Mall",
    "Address1": "2424 US Highways 6 & 50",
    "Address2": null,
    "City": "Grand Junction",
    "State": "CO",
    "Postal": "81505",
    "Latitude": 39.0195,
    "Longitude": -108.4618
  },
  {
    "Name": "The Shops at Centerra",
    "Address1": "5971 Sky Pond Drive",
    "Address2": null,
    "City": "Loveland",
    "State": "CO",
    "Postal": "80538",
    "Latitude": 40.3978,
    "Longitude": -105.0744
  },
  {
    "Name": "The Orchard Town Center",
    "Address1": "14697 Delaware St ",
    "Address2": null,
    "City": "Westminster",
    "State": "CO",
    "Postal": "80020",
    "Latitude": 39.8367,
    "Longitude": -105.0367
  },
  {
    "Name": "Eastridge Mall  ",
    "Address1": "601 SE Wyoming Blvd",
    "Address2": null,
    "City": "Casper",
    "State": "WY",
    "Postal": "82609",
    "Latitude": 42.9736,
    "Longitude": -106.7651
  },
  {
    "Name": "Outlets at Silverthorne",
    "Address1": "125-I Stephans Way Red Village",
    "Address2": null,
    "City": "Silverthorne",
    "State": "CO",
    "Postal": "80498",
    "Latitude": 39.8049138,
    "Longitude": -106.0769355
  }
]
