[
  {
    "Name": "Fulton Mall",
    "Address1": "458 Fulton Street",
    "Address2": null,
    "City": "Brooklyn",
    "State": "NY",
    "Postal": 11201,
    "Latitude": 40.6937,
    "Longitude": -73.9897
  },
  {
    "Name": "Kings Plaza Mall",
    "Address1": "5330 Kings Plaza",
    "Address2": "Space C4",
    "City": "Brooklyn",
    "State": "NY",
    "Postal": 11234,
    "Latitude": 40.6051,
    "Longitude": -73.9117
  },
  {
    "Name": "Grand Concourse",
    "Address1": "2450-2458 Grand Concourse",
    "Address2": null,
    "City": "Bronx",
    "State": "NY",
    "Postal": 10458,
    "Latitude": 40.7044449,
    "Longitude": -74.0137214
  },
  {
    "Name": "West 125th Street",
    "Address1": "216-220 W 125th Street",
    "Address2": null,
    "City": "New York",
    "State": "NY",
    "Postal": 10027,
    "Latitude": 40.8114,
    "Longitude": -73.9531
  },
  {
    "Name": "Union",
    "Address1": "1721 East Morris Ave",
    "Address2": "Route 22",
    "City": "Union",
    "State": "NJ",
    "Postal": 7083,
    "Latitude": 40.6953,
    "Longitude": -74.2691
  },
  {
    "Name": "Bay Plaza Center",
    "Address1": "2130 Bartow Avenue",
    "Address2": null,
    "City": "Bronx",
    "State": "NY",
    "Postal": 10475,
    "Latitude": 40.8752,
    "Longitude": -73.8238
  },
  {
    "Name": "Southfield Road",
    "Address1": "27821 Southfield Road",
    "Address2": null,
    "City": "Lathrup Village",
    "State": "MI",
    "Postal": 48076,
    "Latitude": 42.4975,
    "Longitude": -83.2309
  },
  {
    "Name": "Jamaica Avenue",
    "Address1": "165-21 Jamaica Avenue",
    "Address2": null,
    "City": "Jamaica",
    "State": "NY",
    "Postal": 11432,
    "Latitude": 40.6092765,
    "Longitude": -74.0326299
  },
  {
    "Name": "Bedford Stuyvesant",
    "Address1": "1222 Fulton Street",
    "Address2": null,
    "City": "Brooklyn",
    "State": "NY",
    "Postal": 11216,
    "Latitude": 40.6808,
    "Longitude": -73.9492
  },
  {
    "Name": "Westview Mall",
    "Address1": "5758 Baltimore National Pike",
    "Address2": "Suite B1A",
    "City": "Baltimore",
    "State": "MD",
    "Postal": 21228,
    "Latitude": 39.2729,
    "Longitude": -76.7477
  },
  {
    "Name": "Pitkin Avenue",
    "Address1": "1573 Pitkin Avenue",
    "Address2": null,
    "City": "Brooklyn",
    "State": "NY",
    "Postal": 11212,
    "Latitude": 40.6629,
    "Longitude": -73.913
  },
  {
    "Name": "Shoppes at 3 Corners",
    "Address1": "8190 Kirby Drive",
    "Address2": null,
    "City": "Houston",
    "State": "TX",
    "Postal": 77054,
    "Latitude": 29.6802,
    "Longitude": -95.4049
  },
  {
    "Name": "Marlow Heights",
    "Address1": "4009 Branch Avenue",
    "Address2": null,
    "City": "Marlow Heights",
    "State": "MD",
    "Postal": 20748,
    "Latitude": 38.8149,
    "Longitude": -76.9334
  },
  {
    "Name": "Marketplace- Hollywood Pa",
    "Address1": "3501 W Century Blvd",
    "Address2": "Suite B",
    "City": "Inglewood",
    "State": "CA",
    "Postal": 90303,
    "Latitude": 33.9398,
    "Longitude": -118.3311
  },
  {
    "Name": "Wheatland",
    "Address1": "2525 W Wheatland Road",
    "Address2": "Suite 238",
    "City": "Dallas",
    "State": "TX",
    "Postal": 75237,
    "Latitude": 32.6656,
    "Longitude": -96.873
  },
  {
    "Name": "Green Acres Mall",
    "Address1": "1077 Green Acres Mall",
    "Address2": null,
    "City": "Valley Stream",
    "State": "NY",
    "Postal": 11581,
    "Latitude": 40.651,
    "Longitude": -73.7153
  },
  {
    "Name": "River Oaks Mall",
    "Address1": "55 River Oaks Center, A-17",
    "Address2": null,
    "City": "Calumet City",
    "State": "IL",
    "Postal": 60409,
    "Latitude": 41.6136,
    "Longitude": -87.5521
  },
  {
    "Name": "Cheltenham Square",
    "Address1": "2385 Cheltenham Avenue #150",
    "Address2": null,
    "City": "Philadelphia",
    "State": "PA",
    "Postal": 19150,
    "Latitude": 0,
    "Longitude": 0
  },
  {
    "Name": "Eastover Square",
    "Address1": "5215 Indian Head Highway",
    "Address2": null,
    "City": "Oxon Hill",
    "State": "MD",
    "Postal": 20745,
    "Latitude": 38.8069,
    "Longitude": -76.9957
  },
  {
    "Name": "Mondawmin Mall",
    "Address1": "2301 Liberty Heights Ave Space # 2002",
    "Address2": null,
    "City": "Baltimore",
    "State": "MD",
    "Postal": 21215,
    "Latitude": 0,
    "Longitude": 0
  },
  {
    "Name": "Market Street",
    "Address1": "799-807 Broad Street",
    "Address2": null,
    "City": "Newark",
    "State": "NJ",
    "Postal": 7102,
    "Latitude": 40.8986043,
    "Longitude": -74.4206171
  },
  {
    "Name": "Forest Village Park Mall",
    "Address1": "3345 Donnell Drive, Space No D81",
    "Address2": null,
    "City": "Forestville",
    "State": "MD",
    "Postal": 20747,
    "Latitude": 38.8549,
    "Longitude": -76.8833
  },
  {
    "Name": "Brick Church Plaza",
    "Address1": "14 South Harrison Street",
    "Address2": null,
    "City": "East Orange",
    "State": "NJ",
    "Postal": 7017,
    "Latitude": 40.7721,
    "Longitude": -74.2071
  },
  {
    "Name": "Flatbush Avenue",
    "Address1": "1000-1002 Flatbush Avenue",
    "Address2": null,
    "City": "Brooklyn",
    "State": "NY",
    "Postal": 11226,
    "Latitude": 40.6092765,
    "Longitude": -74.0326299
  },
  {
    "Name": "Hammond Aire Plaza",
    "Address1": "9620 Airline Highway #E-1&2",
    "Address2": null,
    "City": "Baton Rouge",
    "State": "LA",
    "Postal": 70815,
    "Latitude": 0,
    "Longitude": 0
  },
  {
    "Name": "Dolphin Plaza",
    "Address1": "17239 Northwest 27th Avenue",
    "Address2": null,
    "City": "Miami",
    "State": "FL",
    "Postal": 33056,
    "Latitude": 25.9488,
    "Longitude": -80.2436
  },
  {
    "Name": "Rockaway Parkway",
    "Address1": "1449 Rockaway Parkway",
    "Address2": null,
    "City": "Brooklyn",
    "State": "NY",
    "Postal": 11236,
    "Latitude": 40.6394,
    "Longitude": -73.9007
  },
  {
    "Name": "Gentilly Shopping Center",
    "Address1": "3116 Gentilly Blvd",
    "Address2": null,
    "City": "New Orleans",
    "State": "LA",
    "Postal": 70122,
    "Latitude": 30.0134,
    "Longitude": -90.0628
  },
  {
    "Name": "Century Plaza",
    "Address1": "1632 Montclair Road",
    "Address2": "Suite 100",
    "City": "Birmingham",
    "State": "AL",
    "Postal": 35210,
    "Latitude": 33.5416,
    "Longitude": -86.6695
  },
  {
    "Name": "Chatham Square",
    "Address1": "8658 S Cottage Grove Ave,Space No2 ",
    "Address2": null,
    "City": "Chicago",
    "State": "IL",
    "Postal": 60619,
    "Latitude": 41.7436,
    "Longitude": -87.6055
  },
  {
    "Name": "Military Circle Mall",
    "Address1": "700 N Military Highway",
    "Address2": "Suite C",
    "City": "Norfolk",
    "State": "VA",
    "Postal": 23502,
    "Latitude": 36.8609,
    "Longitude": -76.2049
  },
  {
    "Name": "Boulevard at Capital Cent",
    "Address1": "820 Capital Centre Blvd, Space 101B",
    "Address2": null,
    "City": "Largo",
    "State": "MD",
    "Postal": 20774,
    "Latitude": 38.8745,
    "Longitude": -76.7741
  },
  {
    "Name": "Camp Creek Market Place I",
    "Address1": "3755 Carmia Drive",
    "Address2": "Suite No 650",
    "City": "Eastpoint",
    "State": "GA",
    "Postal": 30344,
    "Latitude": 33.6764,
    "Longitude": -84.4608
  },
  {
    "Name": "The Mall at Stonecrest",
    "Address1": "2929 Turner Hill Road #2505",
    "Address2": null,
    "City": "Lithonia",
    "State": "GA",
    "Postal": 30038,
    "Latitude": 0,
    "Longitude": 0
  },
  {
    "Name": "Midtown Center",
    "Address1": "4101 56th St, Space 19A",
    "Address2": null,
    "City": "Milwaukee",
    "State": "WI",
    "Postal": 53209,
    "Latitude": 43.1278,
    "Longitude": -87.9495
  },
  {
    "Name": "Wilkinson Crossing",
    "Address1": "2770 Ashley Road Space E1",
    "Address2": null,
    "City": "Charlotte",
    "State": "NC",
    "Postal": 28208,
    "Latitude": 35.2305,
    "Longitude": -80.9072
  },
  {
    "Name": "South Lake Centre",
    "Address1": "35 Goodman Road",
    "Address2": "Suite J",
    "City": "Southaven",
    "State": "MS",
    "Postal": 38671,
    "Latitude": 34.9662,
    "Longitude": -89.9982
  },
  {
    "Name": "Ogelthorpe Mall",
    "Address1": "7804 Abercorn Street",
    "Address2": null,
    "City": "Savannah",
    "State": "GA",
    "Postal": 31406,
    "Latitude": 31.9805,
    "Longitude": -81.0852
  },
  {
    "Name": "The Hub",
    "Address1": "2899 3rd Avenue",
    "Address2": null,
    "City": "Bronx",
    "State": "NY",
    "Postal": 10455,
    "Latitude": 40.8147,
    "Longitude": -73.9086
  },
  {
    "Name": "St Charles Towne Center",
    "Address1": "11110 Mall Circle, Space NoL4",
    "Address2": null,
    "City": "Waldorf",
    "State": "MD",
    "Postal": 20603,
    "Latitude": 38.6304,
    "Longitude": -76.9766
  },
  {
    "Name": "BOWIE TOWN CENTER",
    "Address1": "1506 Emerald Way",
    "Address2": null,
    "City": "Bowie",
    "State": "MD",
    "Postal": 20716,
    "Latitude": 38.9264,
    "Longitude": -76.715
  },
  {
    "Name": "White Oak Village",
    "Address1": "4501 S Laburnum Avenue Space#120",
    "Address2": null,
    "City": "Richmond",
    "State": "VA",
    "Postal": 23231,
    "Latitude": 0,
    "Longitude": 0
  },
  {
    "Name": "Ford City Mall",
    "Address1": "7601 South Cicero-Space No1422",
    "Address2": null,
    "City": "Chicago",
    "State": "IL",
    "Postal": 60652,
    "Latitude": 41.7479,
    "Longitude": -87.7148
  },
  {
    "Name": "Gallery at Market East",
    "Address1": "9th and Market Street",
    "Address2": null,
    "City": "Philadelphia",
    "State": "PA",
    "Postal": 19107,
    "Latitude": 39.9517,
    "Longitude": -75.1587
  },
  {
    "Name": "Cumberland Mall",
    "Address1": "1228 Cumberland Mall",
    "Address2": null,
    "City": "Atlanta",
    "State": "GA",
    "Postal": 30339,
    "Latitude": 33.8763,
    "Longitude": -84.4621
  },
  {
    "Name": "Olney Plaza",
    "Address1": "101 East Olney Avenue",
    "Address2": null,
    "City": "Philadelphia",
    "State": "PA",
    "Postal": 19120,
    "Latitude": 40.0341,
    "Longitude": -75.1192
  },
  {
    "Name": "Severance Town Center",
    "Address1": "3630 Mayfield Rd, Sp J-01",
    "Address2": null,
    "City": "Cleveland Heights",
    "State": "OH",
    "Postal": 44118,
    "Latitude": 41.5023,
    "Longitude": -81.5566
  },
  {
    "Name": "69th Street",
    "Address1": "30 South 69th Street",
    "Address2": null,
    "City": "Upper Darby",
    "State": "PA",
    "Postal": 19082,
    "Latitude": 39.9604,
    "Longitude": -75.2704
  },
  {
    "Name": "The Crossing at Halls Fer",
    "Address1": "10835-B-Old Halls Ferry Road",
    "Address2": null,
    "City": "St Louis",
    "State": "MO",
    "Postal": 63136,
    "Latitude": 38.7433,
    "Longitude": -90.2598
  },
  {
    "Name": "Compton Plaza",
    "Address1": "127-131 East Compton Blvd",
    "Address2": null,
    "City": "Compton",
    "State": "CA",
    "Postal": 90220,
    "Latitude": 34.0271862,
    "Longitude": -118.469948
  },
  {
    "Name": "Hawthorne Plaza",
    "Address1": "12730 Hawthorne Blvd",
    "Address2": null,
    "City": "Hawthorne",
    "State": "CA",
    "Postal": 90250,
    "Latitude": 33.9148,
    "Longitude": -118.3481
  },
  {
    "Name": "Stony Island Plaza",
    "Address1": "1631 East 95th Street",
    "Address2": null,
    "City": "Chicago",
    "State": "IL",
    "Postal": 60617,
    "Latitude": 41.7182,
    "Longitude": -87.5527
  },
  {
    "Name": "North Philadelphia Statio",
    "Address1": "2906-08 North Broad Street",
    "Address2": null,
    "City": "Philadelphia",
    "State": "PA",
    "Postal": 19132,
    "Latitude": 39.9963,
    "Longitude": -75.1709
  },
  {
    "Name": "Baldwin Hills Shopping Ct",
    "Address1": "3650 ML King Blvd, Ste 175",
    "Address2": null,
    "City": "Los Angeles",
    "State": "CA",
    "Postal": 90008,
    "Latitude": 34.0096,
    "Longitude": -118.3467
  },
  {
    "Name": "Number One Marketplace",
    "Address1": "10996 NW 7th Avenue",
    "Address2": null,
    "City": "Miami",
    "State": "FL",
    "Postal": 33138,
    "Latitude": 25.8538,
    "Longitude": -80.178
  },
  {
    "Name": "Waverly Towers",
    "Address1": "2849 Greenmount Avenue",
    "Address2": null,
    "City": "Baltimore",
    "State": "MD",
    "Postal": 21218,
    "Latitude": 39.3301,
    "Longitude": -76.6015
  },
  {
    "Name": "Capital Plaza",
    "Address1": "1548 B North Olden Avenue",
    "Address2": null,
    "City": "Ewing",
    "State": "NJ",
    "Postal": 8638,
    "Latitude": 40.254,
    "Longitude": -74.7634
  },
  {
    "Name": "Renaissance Plaza",
    "Address1": "49 W 116th Street",
    "Address2": null,
    "City": "New York",
    "State": "NY",
    "Postal": 10026,
    "Latitude": 40.8024,
    "Longitude": -73.9526
  },
  {
    "Name": "Southgate Shopping Center",
    "Address1": "21664 Libby Road",
    "Address2": null,
    "City": "Maple Heights",
    "State": "OH",
    "Postal": 44137,
    "Latitude": 41.4093,
    "Longitude": -81.5625
  },
  {
    "Name": "Cherry Hill Mall",
    "Address1": "2000 Rt 38 West-Space 2179",
    "Address2": null,
    "City": "Cherry Hill",
    "State": "NJ",
    "Postal": 8002,
    "Latitude": 39.932,
    "Longitude": -75.0276
  },
  {
    "Name": "Pathmark Shopping Center",
    "Address1": "134-52 Springfield Blvd",
    "Address2": null,
    "City": "Queens",
    "State": "NY",
    "Postal": 11413,
    "Latitude": 40.6717,
    "Longitude": -73.7526
  },
  {
    "Name": "The Hub Shopping Center",
    "Address1": "156 Fulton Avenue",
    "Address2": null,
    "City": "Hempstead",
    "State": "NY",
    "Postal": 11550,
    "Latitude": 40.7015,
    "Longitude": -73.6211
  },
  {
    "Name": "Governors Square",
    "Address1": "2839 E South Blvd",
    "Address2": null,
    "City": "Montgomery",
    "State": "AL",
    "Postal": 36116,
    "Latitude": 32.2736,
    "Longitude": -86.2145
  },
  {
    "Name": "Augusta Exchange",
    "Address1": "220 Robert C Daniel Pkwy",
    "Address2": null,
    "City": "Augusta",
    "State": "GA",
    "Postal": 30909,
    "Latitude": 33.4705,
    "Longitude": -82.083
  },
  {
    "Name": "Eastgate Shopping Center",
    "Address1": "5132 Park Avenue",
    "Address2": null,
    "City": "Memphis",
    "State": "TN",
    "Postal": 38117,
    "Latitude": 35.1152,
    "Longitude": -89.9053
  },
  {
    "Name": "Cross Creek Mall",
    "Address1": "120 Cross Creek Mall, Space TC-12",
    "Address2": null,
    "City": "Fayetteville",
    "State": "NC",
    "Postal": 28303,
    "Latitude": 35.0856,
    "Longitude": -78.9594
  },
  {
    "Name": "King Shopping Center",
    "Address1": "7001 Martin Luther King Highway",
    "Address2": null,
    "City": "Landover",
    "State": "MD",
    "Postal": 20785,
    "Latitude": 38.9183,
    "Longitude": -76.8819
  },
  {
    "Name": "Victory Crossing",
    "Address1": "4012 Victory Boulevard",
    "Address2": "Unit A",
    "City": "Portsmouth",
    "State": "VA",
    "Postal": 23701,
    "Latitude": 36.8129,
    "Longitude": -76.371
  },
  {
    "Name": "Forest Park Plaza",
    "Address1": "7610 W Roosevelt Road",
    "Address2": "Suite 103",
    "City": "Forest Park",
    "State": "IL",
    "Postal": 60130,
    "Latitude": 41.8664,
    "Longitude": -87.8174
  },
  {
    "Name": "The Village Shopping Cent",
    "Address1": "3602 Village Court",
    "Address2": "Space 174",
    "City": "Gary",
    "State": "IN",
    "Postal": 46408,
    "Latitude": 41.5459,
    "Longitude": -87.3685
  },
  {
    "Name": "Highland Lakes",
    "Address1": "7461 West Colomial Drive",
    "Address2": null,
    "City": "Orlando",
    "State": "FL",
    "Postal": 32818,
    "Latitude": 28.5868,
    "Longitude": -81.4869
  },
  {
    "Name": "The Gallery @ Canterbury",
    "Address1": "2935 W 159th Street",
    "Address2": null,
    "City": "Markham",
    "State": "IL",
    "Postal": 60428,
    "Latitude": 41.5998,
    "Longitude": -87.6906
  },
  {
    "Name": "Town & Country",
    "Address1": "3872-3874 East Broad Street",
    "Address2": null,
    "City": "Whitehall",
    "State": "OH",
    "Postal": 43213,
    "Latitude": 39.9968122,
    "Longitude": -83.0297461
  },
  {
    "Name": "Culver City",
    "Address1": "6000 Sepulveda Blvd",
    "Address2": "Ste 2600",
    "City": "Culver City",
    "State": "CA",
    "Postal": 90230,
    "Latitude": 33.9979,
    "Longitude": -118.3936
  },
  {
    "Name": "Jersey Gardens",
    "Address1": "651 Kapkowski Rd",
    "Address2": "Ste 2430",
    "City": "Elizabeth",
    "State": "NJ",
    "Postal": 7201,
    "Latitude": 40.689,
    "Longitude": -74.1654
  },
  {
    "Name": "Southway Shopping Center",
    "Address1": "8000 South Gessner",
    "Address2": "Suite 8080",
    "City": "Houston",
    "State": "TX",
    "Postal": 77036,
    "Latitude": 29.7018,
    "Longitude": -95.5345
  },
  {
    "Name": "Sherman Plaza",
    "Address1": "205 West 87th St",
    "Address2": "Suite E",
    "City": "Chicago",
    "State": "IL",
    "Postal": 60620,
    "Latitude": 41.7405,
    "Longitude": -87.6526
  },
  {
    "Name": "Quartermaster Plaza",
    "Address1": "2350 W Oregon Avenue",
    "Address2": null,
    "City": "Philadelphia",
    "State": "PA",
    "Postal": 19145,
    "Latitude": 39.9099,
    "Longitude": -75.1983
  },
  {
    "Name": "The Walk",
    "Address1": "1927 Atlantic Avenue Space #440",
    "Address2": null,
    "City": "Atlantic City",
    "State": "NJ",
    "Postal": 8401,
    "Latitude": 0,
    "Longitude": 0
  },
  {
    "Name": "Marshfield Plaza",
    "Address1": "1700 W 119th Street",
    "Address2": null,
    "City": "Chicago",
    "State": "IL",
    "Postal": 60643,
    "Latitude": 41.7003,
    "Longitude": -87.6633
  },
  {
    "Name": "Powell Street Plaza",
    "Address1": "575 Christie Avenue",
    "Address2": null,
    "City": "Emervyille",
    "State": "CA",
    "Postal": 94608,
    "Latitude": 37.8367,
    "Longitude": -122.2891
  },
  {
    "Name": "Parkwest Town Center",
    "Address1": "1575 North 52nd Street",
    "Address2": "Suite 101",
    "City": "Philadelphia",
    "State": "PA",
    "Postal": 19131,
    "Latitude": 39.9902,
    "Longitude": -75.2178
  },
  {
    "Name": "Good Hope Marketplace",
    "Address1": "2847 Alabama Avenue, SE",
    "Address2": null,
    "City": "Washington",
    "State": "DC",
    "Postal": 20020,
    "Latitude": 38.8604,
    "Longitude": -76.9789
  },
  {
    "Name": "Southland Mall",
    "Address1": "1221 Southland Mall",
    "Address2": null,
    "City": "Memphis",
    "State": "TN",
    "Postal": 38116,
    "Latitude": 35.0332,
    "Longitude": -90.0114
  },
  {
    "Name": "West End Mall",
    "Address1": "805 Ralph D Abernathy Blvd, SW",
    "Address2": null,
    "City": "Atlanta",
    "State": "GA",
    "Postal": 30310,
    "Latitude": 33.7266,
    "Longitude": -84.426
  },
  {
    "Name": "North Riverside Park Mall",
    "Address1": "7501 W Cermak Road, Space K-5",
    "Address2": null,
    "City": "North Riverside",
    "State": "IL",
    "Postal": 60546,
    "Latitude": 41.8379,
    "Longitude": -87.8219
  },
  {
    "Name": "One Market Center",
    "Address1": "300 Lexington Street",
    "Address2": null,
    "City": "Baltimore",
    "State": "MD",
    "Postal": 21201,
    "Latitude": 39.2948,
    "Longitude": -76.6222
  },
  {
    "Name": "NorthPark Shopping Center",
    "Address1": "5858 Eastex Freeway",
    "Address2": null,
    "City": "Beaumont",
    "State": "TX",
    "Postal": 77708,
    "Latitude": 30.1461,
    "Longitude": -94.1606
  },
  {
    "Name": "Wynnewood Village",
    "Address1": "727 Wynnewood Village",
    "Address2": null,
    "City": "Dallas",
    "State": "TX",
    "Postal": 75224,
    "Latitude": 32.7114,
    "Longitude": -96.8386
  },
  {
    "Name": "Eastpoint Mall",
    "Address1": "7744 Eastpoint Mall",
    "Address2": null,
    "City": "Baltimore",
    "State": "MD",
    "Postal": 21224,
    "Latitude": 39.2749,
    "Longitude": -76.5428
  },
  {
    "Name": "Sunny Isle Shopping Ctr",
    "Address1": "Queen 23 Mary Highway-Rte 70",
    "Address2": null,
    "City": "St Croix",
    "State": "VI",
    "Postal": 823,
    "Latitude": 17.7235,
    "Longitude": -64.7459
  },
  {
    "Name": "Southtown Shopping Center",
    "Address1": "3047 South Freeway",
    "Address2": null,
    "City": "Fort Worth",
    "State": "TX",
    "Postal": 76104,
    "Latitude": 32.7287,
    "Longitude": -97.3178
  },
  {
    "Name": "Lee Harvard Shopping Cent",
    "Address1": "4071 Lee Road",
    "Address2": "Suite No240",
    "City": "Cleveland  ",
    "State": "OH",
    "Postal": 44128,
    "Latitude": 41.4399,
    "Longitude": -81.5385
  },
  {
    "Name": "Eddystone Crossings",
    "Address1": "1554 Chester Pike",
    "Address2": "Unit E2",
    "City": "Eddystone",
    "State": "PA",
    "Postal": 19022,
    "Latitude": 39.8614,
    "Longitude": -75.337
  },
  {
    "Name": "Glenwood Crossing Shoppin",
    "Address1": "10593 Springfield Pike",
    "Address2": "STE A9",
    "City": "Woodlawn",
    "State": "OH",
    "Postal": 45215,
    "Latitude": 39.2353,
    "Longitude": -84.4619
  },
  {
    "Name": "Ashland Avenue Plaza",
    "Address1": "1250 SAshland Avenue, Space NoC3",
    "Address2": null,
    "City": "Chicago",
    "State": "IL",
    "Postal": 60607,
    "Latitude": 41.8748,
    "Longitude": -87.6516
  },
  {
    "Name": "Greenbriar Mall",
    "Address1": "2841 Greenbriar Parkway",
    "Address2": null,
    "City": "Atlanta",
    "State": "GA",
    "Postal": 30381,
    "Latitude": 33.7489,
    "Longitude": -84.3881
  },
  {
    "Name": "Fayette Paviliony",
    "Address1": "127 B Pavillion Parkway",
    "Address2": null,
    "City": "Fayetteville",
    "State": "GA",
    "Postal": 30214,
    "Latitude": 33.4905,
    "Longitude": -84.486
  },
  {
    "Name": "Raceway Park",
    "Address1": "13065 South Ashland Avenue",
    "Address2": null,
    "City": "Calumet Park",
    "State": "IL",
    "Postal": 60827,
    "Latitude": 41.6494,
    "Longitude": -87.6336
  },
  {
    "Name": "Greece Ridge Center",
    "Address1": "271 Greece Ridge Center Drive",
    "Address2": "Suite 212",
    "City": "Rochester",
    "State": "NY",
    "Postal": 14626,
    "Latitude": 43.2166,
    "Longitude": -77.7108
  },
  {
    "Name": "Plaza on the Boulevard",
    "Address1": "8025 W Florissant Avenue",
    "Address2": "Suite A",
    "City": "Jennings",
    "State": "MO",
    "Postal": 63136,
    "Latitude": 38.7433,
    "Longitude": -90.2598
  },
  {
    "Name": "Southland Terrace",
    "Address1": "3943 7th St Road",
    "Address2": null,
    "City": "Louisville",
    "State": "KY",
    "Postal": 40216,
    "Latitude": 38.1899,
    "Longitude": -85.8403
  },
  {
    "Name": "Lamar Crossing SC",
    "Address1": "2938 Lamar Avenue, Space 103",
    "Address2": null,
    "City": "Memphis",
    "State": "TN",
    "Postal": 38114,
    "Latitude": 35.0965,
    "Longitude": -89.9858
  },
  {
    "Name": "Keystone Plaza",
    "Address1": "2252 E 53rd Street",
    "Address2": null,
    "City": "Indianapolis",
    "State": "IN",
    "Postal": 46220,
    "Latitude": 39.8671,
    "Longitude": -86.1088
  },
  {
    "Name": "Frayser Village SC",
    "Address1": "2582-2584 Frayser Blvd",
    "Address2": null,
    "City": "Memphis",
    "State": "TN",
    "Postal": 38127,
    "Latitude": 35.089624,
    "Longitude": -90.2989635
  },
  {
    "Name": "North Oaks SC",
    "Address1": "4681 FM 1960 WEST, SpNo 12",
    "Address2": null,
    "City": "Houston",
    "State": "TX",
    "Postal": 77069,
    "Latitude": 29.9885,
    "Longitude": -95.5312
  },
  {
    "Name": "Northgate Mall",
    "Address1": "1058 West Club Blvd, SpNo133",
    "Address2": null,
    "City": "Durham",
    "State": "NC",
    "Postal": 27701,
    "Latitude": 35.9992,
    "Longitude": -78.8979
  },
  {
    "Name": "River City Marketplace",
    "Address1": "13221 City Station Drive",
    "Address2": "Ste 145",
    "City": "Jacksonville",
    "State": "FL",
    "Postal": 32218,
    "Latitude": 30.4878,
    "Longitude": -81.6671
  },
  {
    "Name": "Edgewood Towne Center",
    "Address1": "1745 South Braddock Avenue",
    "Address2": "Space No114",
    "City": "Pittsburgh",
    "State": "PA",
    "Postal": 15218,
    "Latitude": 40.4236,
    "Longitude": -79.8897
  },
  {
    "Name": "Dudley Square",
    "Address1": "2 Warren Street",
    "Address2": null,
    "City": "Roxbury",
    "State": "MA",
    "Postal": 2119,
    "Latitude": 42.324,
    "Longitude": -71.0849
  },
  {
    "Name": "Chicago Building",
    "Address1": "7 West Madison Street",
    "Address2": null,
    "City": "Chicago",
    "State": "IL",
    "Postal": 60602,
    "Latitude": 41.8831,
    "Longitude": -87.629
  },
  {
    "Name": "Wal Mart Supercenter",
    "Address1": "12250 Lake June Road, No104",
    "Address2": null,
    "City": "Balch Springs",
    "State": "TX",
    "Postal": 75180,
    "Latitude": 32.7166,
    "Longitude": -96.62
  },
  {
    "Name": "Fondren Southwest",
    "Address1": "11105 Fondren Road",
    "Address2": "Unit M-01",
    "City": "Houston",
    "State": "TX",
    "Postal": 77096,
    "Latitude": 29.6753,
    "Longitude": -95.4794
  },
  {
    "Name": "Lauderhill Mall",
    "Address1": "1337 Northwest 40th Avenue",
    "Address2": null,
    "City": "Lauderhill",
    "State": "FL",
    "Postal": 33313,
    "Latitude": 26.1515,
    "Longitude": -80.2273
  },
  {
    "Name": "Security Square Mall",
    "Address1": "Space No229, 6901 Security Blvd",
    "Address2": null,
    "City": "Baltimore",
    "State": "MD",
    "Postal": 21244,
    "Latitude": 39.3349,
    "Longitude": -76.7766
  },
  {
    "Name": "Grand Boulevard East",
    "Address1": "5401 South Wentworth Ave",
    "Address2": "Suite 8",
    "City": "Chicago",
    "State": "IL",
    "Postal": 60609,
    "Latitude": 41.8127,
    "Longitude": -87.6568
  },
  {
    "Name": "Chicago and Kedzie Plaza",
    "Address1": "800 North Kedzie",
    "Address2": null,
    "City": "Chicago",
    "State": "IL",
    "Postal": 60651,
    "Latitude": 41.9021,
    "Longitude": -87.7409
  },
  {
    "Name": "Gateway Shopping Center",
    "Address1": "5184 Norwood Avenue",
    "Address2": null,
    "City": "Jacksonville",
    "State": "FL",
    "Postal": 32208,
    "Latitude": 30.3931,
    "Longitude": -81.6829
  },
  {
    "Name": "Beltway Plaza Shopping Ce",
    "Address1": "6108 Greenbelt Road",
    "Address2": null,
    "City": "Greenbelt",
    "State": "MD",
    "Postal": 20770,
    "Latitude": 39.003,
    "Longitude": -76.8792
  },
  {
    "Name": "Dutch Square Center",
    "Address1": "421 Bush River Road",
    "Address2": null,
    "City": "Columbia",
    "State": "SC",
    "Postal": 29210,
    "Latitude": 34.0462,
    "Longitude": -81.1066
  },
  {
    "Name": "Crosspointe Plaza",
    "Address1": "836 Wood Crossing Road",
    "Address2": null,
    "City": "Greenville",
    "State": "SC",
    "Postal": 29607,
    "Latitude": 34.8128,
    "Longitude": -82.3317
  },
  {
    "Name": "Northridge Plaza Shopping",
    "Address1": "8271 W Brown Deer Rd",
    "Address2": null,
    "City": "Milwaukee",
    "State": "WI",
    "Postal": 53223,
    "Latitude": 43.1635,
    "Longitude": -87.9905
  },
  {
    "Name": "Columbia Place Mall",
    "Address1": "7201 Two Notch Road Space 632",
    "Address2": null,
    "City": "Columbia",
    "State": "SC",
    "Postal": 29223,
    "Latitude": 34.0926,
    "Longitude": -80.9193
  },
  {
    "Name": "Richmond Town Square",
    "Address1": "691 Richmond Road",
    "Address2": null,
    "City": "Richmond Hts",
    "State": "OH",
    "Postal": 44113,
    "Latitude": 41.4831,
    "Longitude": -81.6972
  },
  {
    "Name": "Albany Mall",
    "Address1": "2601 Dawson Blvd, D-12",
    "Address2": null,
    "City": "Albany",
    "State": "GA",
    "Postal": 31707,
    "Latitude": 31.5869,
    "Longitude": -84.2064
  },
  {
    "Name": "Pyramids Village",
    "Address1": "2101 Pyramids Village Blvd",
    "Address2": "Suite 105 B",
    "City": "Greensboro",
    "State": "NC",
    "Postal": 27405,
    "Latitude": 36.1149,
    "Longitude": -79.737
  },
  {
    "Name": "Golden East Crossing",
    "Address1": "1100 North Wesleyan Blvd-Sp 5036",
    "Address2": null,
    "City": "Rocky Mount",
    "State": "NC",
    "Postal": 27804,
    "Latitude": 35.9891,
    "Longitude": -77.8426
  },
  {
    "Name": "Florin Towne Center",
    "Address1": "6075 Florin Road",
    "Address2": "Suite L2",
    "City": "Sacramento",
    "State": "CA",
    "Postal": 95823,
    "Latitude": 38.4741,
    "Longitude": -121.4435
  },
  {
    "Name": "Hudson Mall",
    "Address1": "Rte 440, Space No46",
    "Address2": null,
    "City": "Jersey City",
    "State": "NJ",
    "Postal": 7304,
    "Latitude": 40.7165,
    "Longitude": -74.0726
  },
  {
    "Name": "Northline",
    "Address1": "4400 N FWY Building #F Space #100",
    "Address2": null,
    "City": "Houston",
    "State": "TX",
    "Postal": 77022,
    "Latitude": 0,
    "Longitude": 0
  },
  {
    "Name": "St Clair",
    "Address1": "134 St Claire Square, Space #237",
    "Address2": null,
    "City": "Fairview Heights",
    "State": "IL",
    "Postal": 62208,
    "Latitude": 0,
    "Longitude": 0
  },
  {
    "Name": "Arbor Place",
    "Address1": "6700 Douglas Boulevard Space 1250",
    "Address2": null,
    "City": "Douglasville",
    "State": "GA",
    "Postal": 30135,
    "Latitude": 33.6704,
    "Longitude": -84.7343
  },
  {
    "Name": "Cutler Bay",
    "Address1": "20505 South Dixie Highway, Room # 829",
    "Address2": null,
    "City": "Cutler Bay",
    "State": "FL",
    "Postal": 33189,
    "Latitude": 0,
    "Longitude": 0
  },
  {
    "Name": "Willow Lawn",
    "Address1": "1601 Willow Lawn Drive Space #835",
    "Address2": null,
    "City": "Richmond",
    "State": "VA",
    "Postal": 23230,
    "Latitude": 0,
    "Longitude": 0
  },
  {
    "Name": "Yonkers",
    "Address1": "2468 B Central Park Avenue",
    "Address2": null,
    "City": "Yonkers",
    "State": "NY",
    "Postal": 10710,
    "Latitude": 40.9672,
    "Longitude": -73.8463
  }
]
