[
  {
    "Name": "Springfield",
    "Address1": "715 Morris Turnpike",
    "Address2": "",
    "City": "Springfield",
    "State": "NJ",
    "Postal": "7081",
    "Latitude": 40.6978,
    "Longitude": -74.3345
  },
  {
    "Name": "Lawrence-Bay Harbor Mall",
    "Address1": "365 Rockaway Turnpike",
    "Address2": "Unit 40",
    "City": "Lawrence",
    "State": "NY",
    "Postal": "11559",
    "Latitude": 40.6037,
    "Longitude": -73.7174
  },
  {
    "Name": "Huntington Station",
    "Address1": "340 Walt Whitman Road",
    "Address2": "",
    "City": "Huntington Station",
    "State": "NY",
    "Postal": "11746",
    "Latitude": 40.8143,
    "Longitude": -73.3623
  },
  {
    "Name": "Danbury",
    "Address1": "13 Sugar Hollow Road",
    "Address2": "",
    "City": "Danbury",
    "State": "CT",
    "Postal": "6810",
    "Latitude": 41.3743,
    "Longitude": -73.4576
  },
  {
    "Name": "Stamford",
    "Address1": "2275 Summer Street",
    "Address2": "",
    "City": "Stamford",
    "State": "CT",
    "Postal": "6905",
    "Latitude": 41.0882,
    "Longitude": -73.5427
  },
  {
    "Name": "Lawrenceville",
    "Address1": "3371 US Highway 1",
    "Address2": "",
    "City": "Lawrenceville",
    "State": "NJ",
    "Postal": "8648",
    "Latitude": 40.2843,
    "Longitude": -74.718
  },
  {
    "Name": "Canoga Park",
    "Address1": "6530 Canoga Avenue",
    "Address2": "",
    "City": "Canoga Park",
    "State": "CA",
    "Postal": "91303",
    "Latitude": 34.1983,
    "Longitude": -118.6009
  },
  {
    "Name": "Paramus",
    "Address1": "Rt 17N & Ridgewood Avenue",
    "Address2": "",
    "City": "Paramus",
    "State": "NJ",
    "Postal": "7652",
    "Latitude": 40.9473,
    "Longitude": -74.0702
  },
  {
    "Name": "Norwalk",
    "Address1": "542 Westport Avenue",
    "Address2": "",
    "City": "Norwalk",
    "State": "CT",
    "Postal": "6851",
    "Latitude": 41.1382,
    "Longitude": -73.4015
  },
  {
    "Name": "West Nyack",
    "Address1": "1406 Palisades Center Drive",
    "Address2": "",
    "City": "West Nyack",
    "State": "NY",
    "Postal": "10994",
    "Latitude": 41.0981,
    "Longitude": -73.9726
  },
  {
    "Name": "West Los Angeles",
    "Address1": "11854 West Olympic Boulevard",
    "Address2": "",
    "City": "Los Angeles",
    "State": "CA",
    "Postal": "90064",
    "Latitude": 34.0373,
    "Longitude": -118.4236
  },
  {
    "Name": "Huntington Beach",
    "Address1": "7777 Edinger Ave",
    "Address2": "",
    "City": "Huntington Beach",
    "State": "CA",
    "Postal": "92647",
    "Latitude": 33.7232,
    "Longitude": -118.0087
  },
  {
    "Name": "Santa Rosa",
    "Address1": "2785 Santa Rosa Avenue",
    "Address2": "",
    "City": "Santa Rosa",
    "State": "CA",
    "Postal": "95407",
    "Latitude": 38.3933,
    "Longitude": -122.745
  },
  {
    "Name": "Studio City",
    "Address1": "12555 Ventura Boulevard",
    "Address2": "",
    "City": "Studio City",
    "State": "CA",
    "Postal": "91604",
    "Latitude": 34.1408,
    "Longitude": -118.3929
  },
  {
    "Name": "Oakland",
    "Address1": "590 2nd Street",
    "Address2": "",
    "City": "Oakland",
    "State": "CA",
    "Postal": "94607",
    "Latitude": 37.8072,
    "Longitude": -122.3015
  },
  {
    "Name": "Cherry Hill",
    "Address1": "2130 Marlton Pike W",
    "Address2": "Suite D",
    "City": "Cherry Hill",
    "State": "NJ",
    "Postal": "8002",
    "Latitude": 39.932,
    "Longitude": -75.0276
  },
  {
    "Name": "Falls Church",
    "Address1": "5810 Crossroad Center",
    "Address2": "",
    "City": "Falls Church",
    "State": "VA",
    "Postal": "22041",
    "Latitude": 38.8493,
    "Longitude": -77.1414
  },
  {
    "Name": "Franklin Mills",
    "Address1": "1417 Franklin Mills Circle",
    "Address2": "",
    "City": "Philadelphia",
    "State": "PA",
    "Postal": "19154",
    "Latitude": 40.0965,
    "Longitude": -74.9832
  },
  {
    "Name": "San Diego",
    "Address1": "1750 Camino Del Rio North",
    "Address2": "",
    "City": "San Diego",
    "State": "CA",
    "Postal": "92108",
    "Latitude": 32.774,
    "Longitude": -117.1425
  },
  {
    "Name": "Deerfield",
    "Address1": "96 S. Waukegan Road",
    "Address2": "",
    "City": "Deerfield",
    "State": "IL",
    "Postal": "60015",
    "Latitude": 42.1738,
    "Longitude": -87.8782
  },
  {
    "Name": "Rockville",
    "Address1": "1519 Rockville Pike",
    "Address2": "",
    "City": "Rockville",
    "State": "MD",
    "Postal": "20852",
    "Latitude": 39.052,
    "Longitude": -77.1219
  },
  {
    "Name": "Sawgrass Mills",
    "Address1": "12801 W. Sunrise Blvd.",
    "Address2": "Anchor C",
    "City": "Sunrise",
    "State": "FL",
    "Postal": "33323",
    "Latitude": 26.1517,
    "Longitude": -80.321
  },
  {
    "Name": "Annapolis",
    "Address1": "200 Harker Place",
    "Address2": "Suite 200",
    "City": "Annapolis",
    "State": "MD",
    "Postal": "21401",
    "Latitude": 38.9876,
    "Longitude": -76.5528
  },
  {
    "Name": "Gurnee Mills",
    "Address1": "6132 Grand Ave.",
    "Address2": "",
    "City": "Gurnee",
    "State": "IL",
    "Postal": "60031",
    "Latitude": 42.3736,
    "Longitude": -87.9394
  },
  {
    "Name": "Lake Grove",
    "Address1": "2045 Smith Haven Plaza",
    "Address2": "",
    "City": "Lake Grove",
    "State": "NY",
    "Postal": "11755",
    "Latitude": 40.8578,
    "Longitude": -73.1168
  },
  {
    "Name": "San Francisco",
    "Address1": "555 9th Street",
    "Address2": "",
    "City": "San Francisco",
    "State": "CA",
    "Postal": "94103",
    "Latitude": 37.7731,
    "Longitude": -122.4112
  },
  {
    "Name": "Schaumburg",
    "Address1": "915 East Golf Road",
    "Address2": "",
    "City": "Schaumburg",
    "State": "IL",
    "Postal": "60173",
    "Latitude": 42.0516,
    "Longitude": -88.0555
  },
  {
    "Name": "Albany",
    "Address1": "32 Wolf Road",
    "Address2": "",
    "City": "Albany",
    "State": "NY",
    "Postal": "12205",
    "Latitude": 42.7188,
    "Longitude": -73.8292
  },
  {
    "Name": "Casselberry Exchange",
    "Address1": "5803 S US 17/92",
    "Address2": "",
    "City": "Casselberry",
    "State": "FL",
    "Postal": "32707",
    "Latitude": 28.664,
    "Longitude": -81.315
  },
  {
    "Name": "Manhattan",
    "Address1": "620 6th Avenue",
    "Address2": "",
    "City": "New York",
    "State": "NY",
    "Postal": "10011",
    "Latitude": 40.742,
    "Longitude": -74.0006
  },
  {
    "Name": "Farmington Hills",
    "Address1": "31075 Orchard Lake Road",
    "Address2": "",
    "City": "Farmington Hills",
    "State": "MI",
    "Postal": "48334",
    "Latitude": 42.5047,
    "Longitude": -83.3492
  },
  {
    "Name": "Troy",
    "Address1": "650 John R. Road",
    "Address2": "",
    "City": "Troy",
    "State": "MI",
    "Postal": "48083",
    "Latitude": 42.557,
    "Longitude": -83.1169
  },
  {
    "Name": "N.W. Houston",
    "Address1": "7736 FM 1960 West",
    "Address2": "",
    "City": "Houston",
    "State": "TX",
    "Postal": "77070",
    "Latitude": 29.9796,
    "Longitude": -95.5729
  },
  {
    "Name": "Kendall",
    "Address1": "8380 South Dixie Highway",
    "Address2": "",
    "City": "Miami",
    "State": "FL",
    "Postal": "33143",
    "Latitude": 25.703,
    "Longitude": -80.2974
  },
  {
    "Name": "Tucson",
    "Address1": "4811 E. Grant Road",
    "Address2": "Suite 131",
    "City": "Tucson",
    "State": "AZ",
    "Postal": "85712",
    "Latitude": 32.2528,
    "Longitude": -110.8866
  },
  {
    "Name": "Chagrin Highlands",
    "Address1": "4031 Richmond Road",
    "Address2": "",
    "City": "Warrensville Heights",
    "State": "OH",
    "Postal": "44122",
    "Latitude": 41.4694,
    "Longitude": -81.5124
  },
  {
    "Name": "Sterling Heights",
    "Address1": "12020 Hall Road",
    "Address2": "",
    "City": "Sterling Heights",
    "State": "MI",
    "Postal": "48313",
    "Latitude": 42.6007,
    "Longitude": -83.0029
  },
  {
    "Name": "Beverly Center",
    "Address1": "142 S. San Vicente Blvd",
    "Address2": "Suite 101",
    "City": "Los Angeles",
    "State": "CA",
    "Postal": "90048",
    "Latitude": 34.0728,
    "Longitude": -118.3727
  },
  {
    "Name": "Clear Lake/Webster",
    "Address1": "19801 Gulf Freeway",
    "Address2": "Suite 1000",
    "City": "Webster",
    "State": "TX",
    "Postal": "77598",
    "Latitude": 29.5394,
    "Longitude": -95.135
  },
  {
    "Name": "Columbia",
    "Address1": "9021 Snowden River Parkway",
    "Address2": "",
    "City": "Columbia",
    "State": "MD",
    "Postal": "21046",
    "Latitude": 39.1731,
    "Longitude": -76.842
  },
  {
    "Name": "Downers Grove",
    "Address1": "1548 Butterfield Rd.",
    "Address2": "",
    "City": "Downers Grove",
    "State": "IL",
    "Postal": "60515",
    "Latitude": 41.8106,
    "Longitude": -88.0228
  },
  {
    "Name": "Westlake",
    "Address1": "30083 Detroit Road",
    "Address2": "",
    "City": "Westlake",
    "State": "OH",
    "Postal": "44145",
    "Latitude": 41.4495,
    "Longitude": -81.9302
  },
  {
    "Name": "West Palm Beach",
    "Address1": "2025 Okeechobee Blvd.",
    "Address2": "",
    "City": "West Palm Beach",
    "State": "FL",
    "Postal": "33409",
    "Latitude": 26.7146,
    "Longitude": -80.0958
  },
  {
    "Name": "Fairfax",
    "Address1": "9666 Main Street",
    "Address2": "",
    "City": "Fairfax",
    "State": "VA",
    "Postal": "22031",
    "Latitude": 38.8589,
    "Longitude": -77.2603
  },
  {
    "Name": "Atlanta",
    "Address1": "130 Perimeter Center West",
    "Address2": "",
    "City": "Atlanta",
    "State": "GA",
    "Postal": "30346",
    "Latitude": 33.9242,
    "Longitude": -84.3389
  },
  {
    "Name": "King of Prussia",
    "Address1": "224 W. DeKalb Pike",
    "Address2": "Unit 15",
    "City": "King of Prussia",
    "State": "PA",
    "Postal": "19406",
    "Latitude": 40.0933,
    "Longitude": -75.3836
  },
  {
    "Name": "Hialeah",
    "Address1": "1700 W. 49th Street",
    "Address2": "",
    "City": "Hialeah",
    "State": "FL",
    "Postal": "33012",
    "Latitude": 25.8661,
    "Longitude": -80.3011
  },
  {
    "Name": "Fairlawn",
    "Address1": "3750 West Market Street",
    "Address2": "Unit K",
    "City": "Fairlawn",
    "State": "OH",
    "Postal": "44333",
    "Latitude": 41.1606,
    "Longitude": -81.6309
  },
  {
    "Name": "Plano",
    "Address1": "801 West 15th St",
    "Address2": "Suite D",
    "City": "Plano",
    "State": "TX",
    "Postal": "75075",
    "Latitude": 33.0212,
    "Longitude": -96.7416
  },
  {
    "Name": "Meyerland",
    "Address1": "700 Meyerland Plaza",
    "Address2": "",
    "City": "Houston",
    "State": "TX",
    "Postal": "77096",
    "Latitude": 29.6753,
    "Longitude": -95.4794
  },
  {
    "Name": "Lincoln Park",
    "Address1": "1800 N. Clybourn",
    "Address2": "Suite A",
    "City": "Chicago",
    "State": "IL",
    "Postal": "60614",
    "Latitude": 41.9227,
    "Longitude": -87.6496
  },
  {
    "Name": "Wilmette",
    "Address1": "3232 Lake Ave",
    "Address2": "Suite 125",
    "City": "Wilmette",
    "State": "IL",
    "Postal": "60091",
    "Latitude": 42.0778,
    "Longitude": -87.7206
  },
  {
    "Name": "Fairfax",
    "Address1": "12100 Fairfax Towne Center",
    "Address2": "",
    "City": "Fairfax",
    "State": "VA",
    "Postal": "22033",
    "Latitude": 38.8752,
    "Longitude": -77.3847
  },
  {
    "Name": "Kennesaw",
    "Address1": "840 Ernest W. Barrett Parkway NW",
    "Address2": "Suite 170",
    "City": "Kennesaw",
    "State": "GA",
    "Postal": "30144",
    "Latitude": 34.0369,
    "Longitude": -84.5909
  },
  {
    "Name": "North Dallas",
    "Address1": "13900 Dallas Parkway",
    "Address2": "",
    "City": "Dallas",
    "State": "TX",
    "Postal": "75240",
    "Latitude": 32.9303,
    "Longitude": -96.7875
  },
  {
    "Name": "Denver",
    "Address1": "2500 East First Avenue",
    "Address2": "",
    "City": "Denver",
    "State": "CO",
    "Postal": "80206",
    "Latitude": 39.7303,
    "Longitude": -104.9526
  },
  {
    "Name": "Brandon",
    "Address1": "320 Brandon Town Center Drive",
    "Address2": "",
    "City": "Brandon",
    "State": "FL",
    "Postal": "33511",
    "Latitude": 27.9098,
    "Longitude": -82.2957
  },
  {
    "Name": "Duluth",
    "Address1": "3675 Satellite Blvd.",
    "Address2": "",
    "City": "Duluth",
    "State": "GA",
    "Postal": "30096",
    "Latitude": 33.9743,
    "Longitude": -84.1454
  },
  {
    "Name": "Dallas",
    "Address1": "8005 Park Lane",
    "Address2": "",
    "City": "Dallas",
    "State": "TX",
    "Postal": "75231",
    "Latitude": 32.8735,
    "Longitude": -96.7475
  },
  {
    "Name": "Palm Desert",
    "Address1": "72459 Highway 111",
    "Address2": "",
    "City": "Palm Desert",
    "State": "CA",
    "Postal": "92260",
    "Latitude": 33.708,
    "Longitude": -116.4036
  },
  {
    "Name": "North Austin",
    "Address1": "9333 Research Blvd",
    "Address2": "",
    "City": "Austin",
    "State": "TX",
    "Postal": "78759",
    "Latitude": 30.4027,
    "Longitude": -97.7611
  },
  {
    "Name": "Auburn",
    "Address1": "1101 Super Mall Way",
    "Address2": "Ste 1260",
    "City": "Auburn",
    "State": "WA",
    "Postal": "98001",
    "Latitude": 47.3106,
    "Longitude": -122.2633
  },
  {
    "Name": "Tulsa",
    "Address1": "10011 East 71st Street",
    "Address2": "",
    "City": "Tulsa",
    "State": "OK",
    "Postal": "74133",
    "Latitude": 36.0393,
    "Longitude": -95.8774
  },
  {
    "Name": "Overland Park",
    "Address1": "12035 Metcalf Ave.",
    "Address2": "",
    "City": "Overland Park",
    "State": "KS",
    "Postal": "66213",
    "Latitude": 38.8989,
    "Longitude": -94.7082
  },
  {
    "Name": "Houston",
    "Address1": "10515 Katy Freeway",
    "Address2": "Suite A",
    "City": "Houston",
    "State": "TX",
    "Postal": "77024",
    "Latitude": 29.7722,
    "Longitude": -95.5142
  },
  {
    "Name": "Gaithersburg",
    "Address1": "558 N. Frederick Ave",
    "Address2": "",
    "City": "Gaithersburg",
    "State": "MD",
    "Postal": "20877",
    "Latitude": 39.1407,
    "Longitude": -77.1921
  },
  {
    "Name": "Orlando",
    "Address1": "5295 International Drive",
    "Address2": "Suite 100",
    "City": "Orlando",
    "State": "FL",
    "Postal": "32819",
    "Latitude": 28.4534,
    "Longitude": -81.4723
  },
  {
    "Name": "Indianapolis",
    "Address1": "8655 N. River Crossing Blvd",
    "Address2": "",
    "City": "Indianapolis",
    "State": "IN",
    "Postal": "46240",
    "Latitude": 39.906,
    "Longitude": -86.1246
  },
  {
    "Name": "Boca Raton",
    "Address1": "20560 State Road 7",
    "Address2": "",
    "City": "Boca Raton",
    "State": "FL",
    "Postal": "33498",
    "Latitude": 26.3861,
    "Longitude": -80.2196
  },
  {
    "Name": "Phoenix",
    "Address1": "10845 North Tatum Blvd",
    "Address2": "",
    "City": "Phoenix",
    "State": "AZ",
    "Postal": "85028",
    "Latitude": 33.5757,
    "Longitude": -112.0084
  },
  {
    "Name": "Tyson's Corner",
    "Address1": "2051 Chain Bridge Road",
    "Address2": "",
    "City": "Vienna",
    "State": "VA",
    "Postal": "22182",
    "Latitude": 38.9384,
    "Longitude": -77.2754
  },
  {
    "Name": "Northridge",
    "Address1": "8959 Tampa Ave",
    "Address2": "",
    "City": "Northridge",
    "State": "CA",
    "Postal": "91324",
    "Latitude": 34.2382,
    "Longitude": -118.5503
  },
  {
    "Name": "Merrillville",
    "Address1": "2520 East 79th Ave",
    "Address2": "",
    "City": "Merrillville",
    "State": "IN",
    "Postal": "46410",
    "Latitude": 41.4802,
    "Longitude": -87.3331
  },
  {
    "Name": "South Austin",
    "Address1": "5400 Brodie Lane",
    "Address2": "Suite. 300",
    "City": "Sunset Valley",
    "State": "TX",
    "Postal": "78745",
    "Latitude": 30.2069,
    "Longitude": -97.7974
  },
  {
    "Name": "Hoover",
    "Address1": "1771 Montgomery Hwy",
    "Address2": "",
    "City": "Hoover",
    "State": "AL",
    "Postal": "35244",
    "Latitude": 33.3529,
    "Longitude": -86.8253
  },
  {
    "Name": "Tampa",
    "Address1": "13123 N Dale Mabry Hwy",
    "Address2": "",
    "City": "Tampa",
    "State": "FL",
    "Postal": "33618",
    "Latitude": 28.0748,
    "Longitude": -82.4984
  },
  {
    "Name": "West Kendall",
    "Address1": "12010 N Kendall Dr.",
    "Address2": "",
    "City": "Miami",
    "State": "FL",
    "Postal": "33186",
    "Latitude": 25.6544,
    "Longitude": -80.4122
  },
  {
    "Name": "Ontario Mills",
    "Address1": "4646 Mills Circle",
    "Address2": "",
    "City": "Ontario",
    "State": "CA",
    "Postal": "91764",
    "Latitude": 34.0741,
    "Longitude": -117.6056
  },
  {
    "Name": "Burlington",
    "Address1": "3 Abbott Park",
    "Address2": "",
    "City": "Burlington",
    "State": "MA",
    "Postal": "1803",
    "Latitude": 42.5032,
    "Longitude": -71.2017
  },
  {
    "Name": "Alpharetta",
    "Address1": "6050 North Point Parkway",
    "Address2": "",
    "City": "Alpharetta",
    "State": "GA",
    "Postal": "30022",
    "Latitude": 34.0299,
    "Longitude": -84.2397
  },
  {
    "Name": "West Houston",
    "Address1": "2306 S Hwy 6",
    "Address2": "",
    "City": "Houston",
    "State": "TX",
    "Postal": "77077",
    "Latitude": 29.7502,
    "Longitude": -95.6153
  },
  {
    "Name": "Manhasset",
    "Address1": "2103 Northern Blvd",
    "Address2": "",
    "City": "Manhasset",
    "State": "NY",
    "Postal": "11030",
    "Latitude": 40.7934,
    "Longitude": -73.6885
  },
  {
    "Name": "Chesapeake",
    "Address1": "1324 Greenbrier Pkwy",
    "Address2": "",
    "City": "Chesapeake",
    "State": "VA",
    "Postal": "23320",
    "Latitude": 36.7517,
    "Longitude": -76.2176
  },
  {
    "Name": "Independence",
    "Address1": "19950 East Jackson Drive",
    "Address2": "",
    "City": "Independence",
    "State": "MO",
    "Postal": "64057",
    "Latitude": 39.072,
    "Longitude": -94.3193
  },
  {
    "Name": "Rockford",
    "Address1": "6309 East State Street",
    "Address2": "",
    "City": "Rockford",
    "State": "IL",
    "Postal": "61108",
    "Latitude": 42.2573,
    "Longitude": -89.0021
  },
  {
    "Name": "Framingham",
    "Address1": "84 Worcester Road-Route 9",
    "Address2": "",
    "City": "Framingham",
    "State": "MA",
    "Postal": "1702",
    "Latitude": 42.2824,
    "Longitude": -71.4366
  },
  {
    "Name": "Charlottesville",
    "Address1": "975A N. Emmet St",
    "Address2": "",
    "City": "Charlottesville",
    "State": "VA",
    "Postal": "22903",
    "Latitude": 38.007,
    "Longitude": -78.5951
  },
  {
    "Name": "Albuquerque",
    "Address1": "2100 Louisiana Blvd. NE",
    "Address2": "",
    "City": "Albuquerque",
    "State": "NM",
    "Postal": "87110",
    "Latitude": 35.1081,
    "Longitude": -106.5781
  },
  {
    "Name": "Pittsford",
    "Address1": "3349 Monroe Ave",
    "Address2": "",
    "City": "Rochester",
    "State": "NY",
    "Postal": "14618",
    "Latitude": 43.1145,
    "Longitude": -77.555
  },
  {
    "Name": "Northville",
    "Address1": "17223 Haggerty Rd.",
    "Address2": "",
    "City": "Northville",
    "State": "MI",
    "Postal": "48168",
    "Latitude": 42.4052,
    "Longitude": -83.5405
  },
  {
    "Name": "Virginia Beach",
    "Address1": "220 Constitution Dr.",
    "Address2": "",
    "City": "Virginia Beach",
    "State": "VA",
    "Postal": "23462",
    "Latitude": 36.8373,
    "Longitude": -76.1504
  },
  {
    "Name": "Edgewater",
    "Address1": "489 River Rd.",
    "Address2": "",
    "City": "Edgewater",
    "State": "NJ",
    "Postal": "7020",
    "Latitude": 40.8239,
    "Longitude": -73.9742
  },
  {
    "Name": "Humble",
    "Address1": "20514 Highway 59N",
    "Address2": "",
    "City": "Humble",
    "State": "TX",
    "Postal": "77338",
    "Latitude": 30.0173,
    "Longitude": -95.2861
  },
  {
    "Name": "Park Meadows",
    "Address1": "8467 South Yosemite",
    "Address2": "",
    "City": "Lone Tree",
    "State": "CO",
    "Postal": "80124",
    "Latitude": 39.5329,
    "Longitude": -104.8911
  },
  {
    "Name": "Buckhead",
    "Address1": "1 Buckhead Loop",
    "Address2": "",
    "City": "Atlanta",
    "State": "GA",
    "Postal": "30326",
    "Latitude": 33.8495,
    "Longitude": -84.364
  },
  {
    "Name": "Canton",
    "Address1": "6725 Strip Ave NW",
    "Address2": "",
    "City": "North Canton",
    "State": "OH",
    "Postal": "44720",
    "Latitude": 40.9035,
    "Longitude": -81.4333
  },
  {
    "Name": "Memphis",
    "Address1": "2810 Germantown Pky",
    "Address2": "",
    "City": "Memphis",
    "State": "TN",
    "Postal": "38133",
    "Latitude": 35.2129,
    "Longitude": -89.7943
  },
  {
    "Name": "Irvine",
    "Address1": "13692 Jamboree Rd.",
    "Address2": "",
    "City": "Irvine",
    "State": "CA",
    "Postal": "92602",
    "Latitude": 33.754,
    "Longitude": -117.7523
  },
  {
    "Name": "Charlotte",
    "Address1": "3413 Pineville-Matthews Rd.",
    "Address2": "",
    "City": "Charlotte",
    "State": "NC",
    "Postal": "28226",
    "Latitude": 35.1027,
    "Longitude": -80.8221
  },
  {
    "Name": "Cary",
    "Address1": "405 Cross Roads Blvd.",
    "Address2": "",
    "City": "Cary",
    "State": "NC",
    "Postal": "27511",
    "Latitude": 35.7634,
    "Longitude": -78.7885
  },
  {
    "Name": "Bethel Park",
    "Address1": "1700 Oxford Dr.",
    "Address2": "",
    "City": "Bethel Park",
    "State": "PA",
    "Postal": "15102",
    "Latitude": 40.3213,
    "Longitude": -80.0365
  },
  {
    "Name": "Stafford",
    "Address1": "12520 Fountain Lake Circle",
    "Address2": "",
    "City": "Stafford",
    "State": "TX",
    "Postal": "77477",
    "Latitude": 29.6243,
    "Longitude": -95.568
  },
  {
    "Name": "Santa Clara",
    "Address1": "5201 Stevens Creek Blvd.",
    "Address2": "",
    "City": "Santa Clara",
    "State": "CA",
    "Postal": "95051",
    "Latitude": 37.3486,
    "Longitude": -121.9844
  },
  {
    "Name": "Naples",
    "Address1": "5351 N. Airport Rd",
    "Address2": "",
    "City": "Naples",
    "State": "FL",
    "Postal": "34109",
    "Latitude": 26.2408,
    "Longitude": -81.7638
  },
  {
    "Name": "South Arlington",
    "Address1": "4000 Retail Connection Way",
    "Address2": "Suite 101",
    "City": "Arlington",
    "State": "TX",
    "Postal": "76018",
    "Latitude": 32.6646,
    "Longitude": -97.0965
  },
  {
    "Name": "Holyoke",
    "Address1": "39 Holyoke St.",
    "Address2": "",
    "City": "Holyoke",
    "State": "MA",
    "Postal": "1040",
    "Latitude": 42.2117,
    "Longitude": -72.6424
  },
  {
    "Name": "Vestal",
    "Address1": "3120 Vestal Pkwy East",
    "Address2": "",
    "City": "Vestal",
    "State": "NY",
    "Postal": "13850",
    "Latitude": 42.0494,
    "Longitude": -76.0176
  },
  {
    "Name": "Madison",
    "Address1": "215 Junction Rd.",
    "Address2": "",
    "City": "Madison",
    "State": "WI",
    "Postal": "53717",
    "Latitude": 43.0677,
    "Longitude": -89.5211
  },
  {
    "Name": "Naperville",
    "Address1": "704 South State Route 59",
    "Address2": "",
    "City": "Naperville",
    "State": "IL",
    "Postal": "60540",
    "Latitude": 41.7647,
    "Longitude": -88.1454
  },
  {
    "Name": "San Antonio",
    "Address1": "11745 IH 10 West",
    "Address2": "Suite. 750",
    "City": "San Antonio",
    "State": "TX",
    "Postal": "78230",
    "Latitude": 29.5465,
    "Longitude": -98.5572
  },
  {
    "Name": "Rego Park",
    "Address1": "96-05 Queens Blvd",
    "Address2": "",
    "City": "Rego Park",
    "State": "NY",
    "Postal": "11374",
    "Latitude": 40.7264,
    "Longitude": -73.8615
  },
  {
    "Name": "Tigard",
    "Address1": "16800 Southwest 72nd Ave",
    "Address2": "",
    "City": "Tigard",
    "State": "OR",
    "Postal": "97224",
    "Latitude": 45.4055,
    "Longitude": -122.7951
  },
  {
    "Name": "Golden",
    "Address1": "14383 West Colfax Ave.",
    "Address2": "",
    "City": "Lakewood",
    "State": "CO",
    "Postal": "80401",
    "Latitude": 39.7187,
    "Longitude": -105.236
  },
  {
    "Name": "Westlake Village",
    "Address1": "121 South Westlake Blvd.",
    "Address2": "",
    "City": "Thousand Oaks",
    "State": "CA",
    "Postal": "91362",
    "Latitude": 34.1933,
    "Longitude": -118.8187
  },
  {
    "Name": "Oceanside",
    "Address1": "2120 Vista Way",
    "Address2": "",
    "City": "Oceanside",
    "State": "CA",
    "Postal": "92054",
    "Latitude": 33.1955,
    "Longitude": -117.3545
  },
  {
    "Name": "Cheektowaga",
    "Address1": "3781 Union Road",
    "Address2": "Suite #100",
    "City": "Cheektowaga",
    "State": "NY",
    "Postal": "14225",
    "Latitude": 42.9289,
    "Longitude": -78.7503
  },
  {
    "Name": "San Antonio",
    "Address1": "255 E. Basse Rd",
    "Address2": "Suite. 1500",
    "City": "San Antonio",
    "State": "TX",
    "Postal": "78209",
    "Latitude": 29.4889,
    "Longitude": -98.4562
  },
  {
    "Name": "Pembroke Pines",
    "Address1": "11470 Pines Blvd.",
    "Address2": "",
    "City": "Pembroke Pines",
    "State": "FL",
    "Postal": "33026",
    "Latitude": 26.0262,
    "Longitude": -80.296
  },
  {
    "Name": "Manchester",
    "Address1": "141 Highlands Boulevard Drive",
    "Address2": "",
    "City": "Manchester",
    "State": "MO",
    "Postal": "63011",
    "Latitude": 38.6037,
    "Longitude": -90.5592
  },
  {
    "Name": "Birmingham/Mountain Brook",
    "Address1": "313 Summit Blvd.",
    "Address2": "",
    "City": "Birmingham",
    "State": "AL",
    "Postal": "35243",
    "Latitude": 33.4409,
    "Longitude": -86.7415
  },
  {
    "Name": "Braintree",
    "Address1": "400 Grossman Dr.",
    "Address2": "",
    "City": "Braintree",
    "State": "MA",
    "Postal": "2184",
    "Latitude": 42.2062,
    "Longitude": -71.0023
  },
  {
    "Name": "Boynton Beach",
    "Address1": "371 N. Congress Ave.",
    "Address2": "",
    "City": "Boynton Beach",
    "State": "FL",
    "Postal": "33426",
    "Latitude": 26.5337,
    "Longitude": -80.0832
  },
  {
    "Name": "Kansas City",
    "Address1": "8201 N.W. Roanridge Rd.",
    "Address2": "",
    "City": "Kansas City",
    "State": "MO",
    "Postal": "64151",
    "Latitude": 39.2154,
    "Longitude": -94.6301
  },
  {
    "Name": "Grapevine Mills",
    "Address1": "3000 Grapevine Mills Parkway",
    "Address2": "Suite. 253",
    "City": "Grapevine",
    "State": "TX",
    "Postal": "76051",
    "Latitude": 32.9258,
    "Longitude": -97.0715
  },
  {
    "Name": "North Hills",
    "Address1": "7507 McKnight Road",
    "Address2": "",
    "City": "Pittsburgh",
    "State": "PA",
    "Postal": "15237",
    "Latitude": 40.5496,
    "Longitude": -80.0435
  },
  {
    "Name": "Jacksonville",
    "Address1": "8801-1 Southside Blvd.",
    "Address2": "",
    "City": "Jacksonville",
    "State": "FL",
    "Postal": "32256",
    "Latitude": 30.1608236,
    "Longitude": -81.8408252
  },
  {
    "Name": "Augusta",
    "Address1": "221 Robert C. Daniel, Jr Parkway",
    "Address2": "",
    "City": "Augusta",
    "State": "GA",
    "Postal": "30909",
    "Latitude": 33.4705,
    "Longitude": -82.083
  },
  {
    "Name": "West End",
    "Address1": "10050 West Broad Street",
    "Address2": "",
    "City": "Glen Allen",
    "State": "VA",
    "Postal": "23060",
    "Latitude": 37.6562,
    "Longitude": -77.5378
  },
  {
    "Name": "St. Peters",
    "Address1": "281 Mid Rivers Mall Drive",
    "Address2": "",
    "City": "St. Peters",
    "State": "MO",
    "Postal": "63376",
    "Latitude": 38.7989,
    "Longitude": -90.6066
  },
  {
    "Name": "San Mateo",
    "Address1": "2280 Bridgepoint Parkway",
    "Address2": "",
    "City": "San Mateo",
    "State": "CA",
    "Postal": "94404",
    "Latitude": 37.556,
    "Longitude": -122.2677
  },
  {
    "Name": "East Hanover",
    "Address1": "180 Route 10 West",
    "Address2": "",
    "City": "East Hanover",
    "State": "NJ",
    "Postal": "7936",
    "Latitude": 40.8186,
    "Longitude": -74.3637
  },
  {
    "Name": "Woodbridge",
    "Address1": "1 Ronson Road/Rt 1",
    "Address2": "",
    "City": "Iselin",
    "State": "NJ",
    "Postal": "8830",
    "Latitude": 40.5696,
    "Longitude": -74.3149
  },
  {
    "Name": "Wynnewood",
    "Address1": "70 E. Wynnewood Blvd.",
    "Address2": "",
    "City": "Wynnewood",
    "State": "PA",
    "Postal": "19096",
    "Latitude": 39.9979,
    "Longitude": -75.2741
  },
  {
    "Name": "Oklahoma City",
    "Address1": "2848 N.W. 63rd Street",
    "Address2": "",
    "City": "Oklahoma City",
    "State": "OK",
    "Postal": "73116",
    "Latitude": 35.5467,
    "Longitude": -97.5646
  },
  {
    "Name": "Bloomington",
    "Address1": "7961 Southtown Center",
    "Address2": "",
    "City": "Bloomington",
    "State": "MN",
    "Postal": "55431",
    "Latitude": 44.8245,
    "Longitude": -93.3126
  },
  {
    "Name": "Roseville",
    "Address1": "30801 Gratiot",
    "Address2": "",
    "City": "Roseville",
    "State": "MI",
    "Postal": "48066",
    "Latitude": 42.5075,
    "Longitude": -82.9366
  },
  {
    "Name": "Lexington",
    "Address1": "3220 Nicholasville Rd",
    "Address2": "Suite 175",
    "City": "Lexington",
    "State": "KY",
    "Postal": "40503",
    "Latitude": 38.0058,
    "Longitude": -84.5335
  },
  {
    "Name": "Snellville",
    "Address1": "1905 Scenic Hwy",
    "Address2": "Suite 5000",
    "City": "Snellville",
    "State": "GA",
    "Postal": "30078",
    "Latitude": 33.861,
    "Longitude": -84.018
  },
  {
    "Name": "Waldorf",
    "Address1": "3270 Crain Highway",
    "Address2": "",
    "City": "Waldorf",
    "State": "MD",
    "Postal": "20603",
    "Latitude": 38.6304,
    "Longitude": -76.9766
  },
  {
    "Name": "Fairview Heights",
    "Address1": "6611 N. Illinois",
    "Address2": "",
    "City": "Fairview Heights",
    "State": "IL",
    "Postal": "62208",
    "Latitude": 38.5954,
    "Longitude": -90.0049
  },
  {
    "Name": "Oviedo",
    "Address1": "1115 Vidina Place",
    "Address2": "",
    "City": "Oviedo",
    "State": "FL",
    "Postal": "32765",
    "Latitude": 28.6639,
    "Longitude": -81.1962
  },
  {
    "Name": "Newport News",
    "Address1": "12132 A Jefferson Avenue",
    "Address2": "",
    "City": "Newport News",
    "State": "VA",
    "Postal": "23602",
    "Latitude": 37.1134,
    "Longitude": -76.5179
  },
  {
    "Name": "Dublin",
    "Address1": "4882 Dublin Blvd.",
    "Address2": "",
    "City": "Dublin",
    "State": "CA",
    "Postal": "94568",
    "Latitude": 37.7152,
    "Longitude": -121.9147
  },
  {
    "Name": "Owings Mills",
    "Address1": "10300 Reisterstown Road",
    "Address2": "",
    "City": "Owings Mills",
    "State": "MD",
    "Postal": "21117",
    "Latitude": 39.4276,
    "Longitude": -76.778
  },
  {
    "Name": "Seattle",
    "Address1": "1930 3rd Avenue",
    "Address2": "",
    "City": "Seattle",
    "State": "WA",
    "Postal": "98101",
    "Latitude": 47.6109,
    "Longitude": -122.3364
  },
  {
    "Name": "Shawnee",
    "Address1": "15400 Shawnee Mission Pkwy",
    "Address2": "",
    "City": "Shawnee",
    "State": "KS",
    "Postal": "66217",
    "Latitude": 39.0095,
    "Longitude": -94.7823
  },
  {
    "Name": "Knoxville",
    "Address1": "244 Morrell Road",
    "Address2": "",
    "City": "Knoxville",
    "State": "TN",
    "Postal": "37919",
    "Latitude": 35.9147,
    "Longitude": -84.0002
  },
  {
    "Name": "St. Petersburg",
    "Address1": "2060 66th Street North",
    "Address2": "",
    "City": "St. Petersburg",
    "State": "FL",
    "Postal": "33710",
    "Latitude": 27.7907,
    "Longitude": -82.7307
  },
  {
    "Name": "Valencia",
    "Address1": "25540 The Old Road",
    "Address2": "",
    "City": "Valencia",
    "State": "CA",
    "Postal": "91381",
    "Latitude": 34.3847,
    "Longitude": -118.6472
  },
  {
    "Name": "Greece",
    "Address1": "112 Greece Ridge Center Drive",
    "Address2": "",
    "City": "Greece",
    "State": "NY",
    "Postal": "14626",
    "Latitude": 43.2166,
    "Longitude": -77.7108
  },
  {
    "Name": "Williston",
    "Address1": "115 Trader Lane",
    "Address2": "",
    "City": "Williston",
    "State": "VT",
    "Postal": "5495",
    "Latitude": 44.4291,
    "Longitude": -73.0962
  },
  {
    "Name": "Springfield",
    "Address1": "857 Baltimore Pike",
    "Address2": "",
    "City": "Springfield",
    "State": "PA",
    "Postal": "19064",
    "Latitude": 39.9332,
    "Longitude": -75.3408
  },
  {
    "Name": "Pasadena",
    "Address1": "3341 East Foothill Blvd.",
    "Address2": "",
    "City": "Pasadena",
    "State": "CA",
    "Postal": "91107",
    "Latitude": 34.1555,
    "Longitude": -118.0862
  },
  {
    "Name": "Redmond",
    "Address1": "7589 170th Ave, NE",
    "Address2": "",
    "City": "Redmond",
    "State": "WA",
    "Postal": "98052",
    "Latitude": 47.681,
    "Longitude": -122.1205
  },
  {
    "Name": "Brandywine",
    "Address1": "1020 Brandywine Pky",
    "Address2": "",
    "City": "Wilmington",
    "State": "DE",
    "Postal": "19803",
    "Latitude": 39.8007,
    "Longitude": -75.5424
  },
  {
    "Name": "Yorba Linda",
    "Address1": "23041 Savi Ranch Parkway",
    "Address2": "",
    "City": "Yorba Linda",
    "State": "CA",
    "Postal": "92887",
    "Latitude": 33.8855,
    "Longitude": -117.7302
  },
  {
    "Name": "Geneva",
    "Address1": "1584 S. Randall Rd.",
    "Address2": "",
    "City": "Geneva",
    "State": "IL",
    "Postal": "60134",
    "Latitude": 41.8783,
    "Longitude": -88.3421
  },
  {
    "Name": "Frederick",
    "Address1": "5413 Urbana Pike",
    "Address2": "",
    "City": "Frederick",
    "State": "MD",
    "Postal": "21704",
    "Latitude": 39.3549,
    "Longitude": -77.3759
  },
  {
    "Name": "Chandler",
    "Address1": "850 N. 54th Street",
    "Address2": "",
    "City": "Chandler",
    "State": "AZ",
    "Postal": "85226",
    "Latitude": 33.2522,
    "Longitude": -112.0103
  },
  {
    "Name": "Crystal Lake",
    "Address1": "6000 Northwest Hwy",
    "Address2": "Suite. 24",
    "City": "Crystal Lake",
    "State": "IL",
    "Postal": "60014",
    "Latitude": 42.2324,
    "Longitude": -88.3274
  },
  {
    "Name": "Midlothian",
    "Address1": "11609 Midlothian Tnpke.",
    "Address2": "",
    "City": "Midlothian",
    "State": "VA",
    "Postal": "23113",
    "Latitude": 37.5388,
    "Longitude": -77.6795
  },
  {
    "Name": "Milford",
    "Address1": "1212 Boston Post Road",
    "Address2": "",
    "City": "Milford",
    "State": "CT",
    "Postal": "6460",
    "Latitude": 41.2143,
    "Longitude": -73.0508
  },
  {
    "Name": "Fort Collins",
    "Address1": "110 W. Troutman Parkway",
    "Address2": "",
    "City": "Fort Collins",
    "State": "CO",
    "Postal": "80525",
    "Latitude": 40.5299,
    "Longitude": -105.0366
  },
  {
    "Name": "Columbus",
    "Address1": "3750 Easton Market",
    "Address2": "",
    "City": "Columbus",
    "State": "OH",
    "Postal": "43219",
    "Latitude": 40.0061,
    "Longitude": -82.9209
  },
  {
    "Name": "Towson",
    "Address1": "1238 Putty Hill Ave.",
    "Address2": "",
    "City": "Towson",
    "State": "MD",
    "Postal": "21286",
    "Latitude": 39.4118,
    "Longitude": -76.5732
  },
  {
    "Name": "Aventura",
    "Address1": "19205 Biscayne Blvd.",
    "Address2": "",
    "City": "Aventura",
    "State": "FL",
    "Postal": "33180",
    "Latitude": 25.9604,
    "Longitude": -80.1431
  },
  {
    "Name": "Fort Union",
    "Address1": "7210 S. Union Park Ave.",
    "Address2": "",
    "City": "Midvale",
    "State": "UT",
    "Postal": "84047",
    "Latitude": 40.6152,
    "Longitude": -111.8907
  },
  {
    "Name": "Columbia",
    "Address1": "136 Harbison Blvd.",
    "Address2": "",
    "City": "Columbia",
    "State": "SC",
    "Postal": "29212",
    "Latitude": 34.0762,
    "Longitude": -81.1988
  },
  {
    "Name": "North Colorado Springs",
    "Address1": "1790 E. Woodmen Rd.",
    "Address2": "",
    "City": "Colorado Springs",
    "State": "CO",
    "Postal": "80920",
    "Latitude": 38.9576,
    "Longitude": -104.7707
  },
  {
    "Name": "Grand Rapids",
    "Address1": "4901 28th Street, SE",
    "Address2": "",
    "City": "Grand Rapids",
    "State": "MI",
    "Postal": "49512",
    "Latitude": 42.8831,
    "Longitude": -85.5276
  },
  {
    "Name": "Solon",
    "Address1": "6025 Kruse Dr.",
    "Address2": "Suite. 123",
    "City": "Solon",
    "State": "OH",
    "Postal": "44139",
    "Latitude": 41.3833,
    "Longitude": -81.4442
  },
  {
    "Name": "Auburn Hills",
    "Address1": "4780 Baldwin Rd.",
    "Address2": "",
    "City": "Auburn Hills",
    "State": "MI",
    "Postal": "48326",
    "Latitude": 42.6882,
    "Longitude": -83.2441
  },
  {
    "Name": "West Covina",
    "Address1": "2753 Eastland Center Dr.",
    "Address2": "Suite. 2100",
    "City": "West Covina",
    "State": "CA",
    "Postal": "91791",
    "Latitude": 34.0616,
    "Longitude": -117.8922
  },
  {
    "Name": "Deptford",
    "Address1": "1555 Almonesson Rd.",
    "Address2": "",
    "City": "Deptford",
    "State": "NJ",
    "Postal": "8096",
    "Latitude": 39.8269,
    "Longitude": -75.1267
  },
  {
    "Name": "Reno",
    "Address1": "4983 S. Virginia Street",
    "Address2": "",
    "City": "Reno",
    "State": "NV",
    "Postal": "89502",
    "Latitude": 39.4913,
    "Longitude": -119.7438
  },
  {
    "Name": "Lincoln",
    "Address1": "2960 Pine Lake Rd",
    "Address2": "Suite. A",
    "City": "Lincoln",
    "State": "NE",
    "Postal": "68516",
    "Latitude": 40.7353,
    "Longitude": -96.6427
  },
  {
    "Name": "Chula Vista",
    "Address1": "394 East H Street",
    "Address2": "",
    "City": "Chula Vista",
    "State": "CA",
    "Postal": "91910",
    "Latitude": 32.6379,
    "Longitude": -117.058
  },
  {
    "Name": "Jensen Beach",
    "Address1": "2450 NW Federal Highway",
    "Address2": "",
    "City": "Stuart",
    "State": "FL",
    "Postal": "34994",
    "Latitude": 27.2009,
    "Longitude": -80.2572
  },
  {
    "Name": "Clearwater",
    "Address1": "23668 US Highway 19N",
    "Address2": "",
    "City": "Clearwater",
    "State": "FL",
    "Postal": "33765",
    "Latitude": 27.9749,
    "Longitude": -82.745
  },
  {
    "Name": "Mishawaka",
    "Address1": "5802 Grape Road",
    "Address2": "Suite B",
    "City": "Mishawaka",
    "State": "IN",
    "Postal": "46545",
    "Latitude": 41.6938,
    "Longitude": -86.1468
  },
  {
    "Name": "Vancouver",
    "Address1": "7809-B Vancouver Plaza Dr",
    "Address2": " Unit 200",
    "City": "Vancouver",
    "State": "WA",
    "Postal": "98662",
    "Latitude": 45.5178366,
    "Longitude": -122.9114522
  },
  {
    "Name": "Fremont",
    "Address1": "39125 Fremont Hub",
    "Address2": "",
    "City": "Fremont",
    "State": "CA",
    "Postal": "94538",
    "Latitude": 37.5013,
    "Longitude": -121.9568
  },
  {
    "Name": "Brentwood",
    "Address1": "53 Brentwood Promenade Court",
    "Address2": "",
    "City": "Brentwood",
    "State": "MO",
    "Postal": "63144",
    "Latitude": 38.619,
    "Longitude": -90.3477
  },
  {
    "Name": "Appleton",
    "Address1": "4721 W. Grande Market Drive",
    "Address2": "",
    "City": "Grand Chute",
    "State": "WI",
    "Postal": "54913",
    "Latitude": 44.336,
    "Longitude": -88.4
  },
  {
    "Name": "San Jose",
    "Address1": "5353 Almaden Expressway",
    "Address2": "Suite A-200",
    "City": "San Jose",
    "State": "CA",
    "Postal": "95118",
    "Latitude": 37.2555,
    "Longitude": -121.89
  },
  {
    "Name": "Brick",
    "Address1": "51 Chambersbridge Road",
    "Address2": "",
    "City": "Brick",
    "State": "NJ",
    "Postal": "8723",
    "Latitude": 40.0386,
    "Longitude": -74.1116
  },
  {
    "Name": "Fresno",
    "Address1": "7497 N. Blackstone Avenue",
    "Address2": "",
    "City": "Fresno",
    "State": "CA",
    "Postal": "93720",
    "Latitude": 36.8622,
    "Longitude": -119.7608
  },
  {
    "Name": "Hurst",
    "Address1": "853 Northeast Mall Drive",
    "Address2": "",
    "City": "Hurst",
    "State": "TX",
    "Postal": "76053",
    "Latitude": 32.8172,
    "Longitude": -97.1806
  },
  {
    "Name": "Jenkintown",
    "Address1": "905 Old York Road",
    "Address2": "",
    "City": "Jenkintown",
    "State": "PA",
    "Postal": "19046",
    "Latitude": 40.1014,
    "Longitude": -75.1055
  },
  {
    "Name": "Little Rock",
    "Address1": "12309 Chenal Parkway",
    "Address2": "Suite A",
    "City": "Little Rock",
    "State": "AR",
    "Postal": "72211",
    "Latitude": 34.7506,
    "Longitude": -92.4175
  },
  {
    "Name": "Manassas",
    "Address1": "11060 Bulloch Drive",
    "Address2": "",
    "City": "Manassas",
    "State": "VA",
    "Postal": "20109",
    "Latitude": 38.7936,
    "Longitude": -77.531
  },
  {
    "Name": "Norman",
    "Address1": "530 Ed Noble Parkway",
    "Address2": "",
    "City": "Norman",
    "State": "OK",
    "Postal": "73072",
    "Latitude": 35.2114,
    "Longitude": -97.5009
  },
  {
    "Name": "Arrowhead",
    "Address1": "7340 West Bell Road",
    "Address2": "",
    "City": "Glendale",
    "State": "AZ",
    "Postal": "85308",
    "Latitude": 33.6604,
    "Longitude": -112.185
  },
  {
    "Name": "Ann Arbor",
    "Address1": "3645 Washtenaw Avenue",
    "Address2": "",
    "City": "Ann Arbor",
    "State": "MI",
    "Postal": "48104",
    "Latitude": 42.2635,
    "Longitude": -83.7151
  },
  {
    "Name": "Sarasota",
    "Address1": "6567 S. Tamiami Trail",
    "Address2": "",
    "City": "Sarasota",
    "State": "FL",
    "Postal": "34231",
    "Latitude": 27.266,
    "Longitude": -82.5167
  },
  {
    "Name": "Daytona Beach",
    "Address1": "2500 W International Speedway Blvd",
    "Address2": "",
    "City": "Daytona Beach",
    "State": "FL",
    "Postal": "32114",
    "Latitude": 29.1924,
    "Longitude": -81.0468
  },
  {
    "Name": "Mt. Pleasant",
    "Address1": "1744 Town Centre Way",
    "Address2": "",
    "City": "Mt. Pleasant",
    "State": "SC",
    "Postal": "29464",
    "Latitude": 32.8167,
    "Longitude": -79.8582
  },
  {
    "Name": "Citrus Park",
    "Address1": "12803 Citrus Plaza Drive",
    "Address2": "",
    "City": "Tampa",
    "State": "FL",
    "Postal": "33625",
    "Latitude": 28.0669,
    "Longitude": -82.5612
  },
  {
    "Name": "Westfarms",
    "Address1": "1603 Southeast Road",
    "Address2": "",
    "City": "Farmington",
    "State": "CT",
    "Postal": "6032",
    "Latitude": 41.7311,
    "Longitude": -72.8571
  },
  {
    "Name": "Toledo",
    "Address1": "1230 S. Holland Sylvania Road",
    "Address2": "",
    "City": "Holland",
    "State": "OH",
    "Postal": "43528",
    "Latitude": 41.6289,
    "Longitude": -83.7496
  },
  {
    "Name": "Davenport",
    "Address1": "4022 E. 53rd Street",
    "Address2": "",
    "City": "Davenport",
    "State": "IA",
    "Postal": "52807",
    "Latitude": 41.6107,
    "Longitude": -90.5169
  },
  {
    "Name": "Olathe Station",
    "Address1": "15335 W. 119th Street",
    "Address2": "",
    "City": "Olathe",
    "State": "KS",
    "Postal": "66062",
    "Latitude": 38.8355,
    "Longitude": -94.7787
  },
  {
    "Name": "Providence",
    "Address1": "24 Providence Place",
    "Address2": "Space. M1",
    "City": "Providence",
    "State": "RI",
    "Postal": "2903",
    "Latitude": 41.8182,
    "Longitude": -71.4091
  },
  {
    "Name": "Gainesville",
    "Address1": "6855 Newberry Road",
    "Address2": "",
    "City": "Gainesville",
    "State": "FL",
    "Postal": "32605",
    "Latitude": 29.6792,
    "Longitude": -82.3728
  },
  {
    "Name": "Elmsford",
    "Address1": "251 East Main Street",
    "Address2": "",
    "City": "Elmsford",
    "State": "NY",
    "Postal": "10523",
    "Latitude": 41.0593,
    "Longitude": -73.8195
  },
  {
    "Name": "Baton Rouge",
    "Address1": "10505 South Mall Drive",
    "Address2": "",
    "City": "Baton Rouge",
    "State": "LA",
    "Postal": "70809",
    "Latitude": 30.394,
    "Longitude": -91.071
  },
  {
    "Name": "Lynnwood",
    "Address1": "3115 196th Street, SW",
    "Address2": "",
    "City": "Lynnwood",
    "State": "WA",
    "Postal": "98036",
    "Latitude": 47.8097,
    "Longitude": -122.2804
  },
  {
    "Name": "Whitehall",
    "Address1": "1223 Whitehall Mall",
    "Address2": "",
    "City": "Whitehall",
    "State": "PA",
    "Postal": "18052",
    "Latitude": 40.6574,
    "Longitude": -75.5043
  },
  {
    "Name": "Bridgewater",
    "Address1": "155 Promenade Boulevard",
    "Address2": "",
    "City": "Bridgewater",
    "State": "NJ",
    "Postal": "8807",
    "Latitude": 40.5924,
    "Longitude": -74.6187
  },
  {
    "Name": "Modesto",
    "Address1": "3900 Sisk Road",
    "Address2": "",
    "City": "Modesto",
    "State": "CA",
    "Postal": "95356",
    "Latitude": 37.718,
    "Longitude": -121.0327
  },
  {
    "Name": "Mill Creek",
    "Address1": "1705 Mall of Georgia Blvd",
    "Address2": "Suite 4",
    "City": "Buford",
    "State": "GA",
    "Postal": "30519",
    "Latitude": 34.0874,
    "Longitude": -83.9449
  },
  {
    "Name": "Elizabeth",
    "Address1": "651 Kapkowski Road",
    "Address2": "",
    "City": "Elizabeth",
    "State": "NJ",
    "Postal": "7201",
    "Latitude": 40.689,
    "Longitude": -74.1654
  },
  {
    "Name": "Westbury",
    "Address1": "950 Merchant Concourse",
    "Address2": "",
    "City": "Westbury",
    "State": "NY",
    "Postal": "11590",
    "Latitude": 40.7552,
    "Longitude": -73.5742
  },
  {
    "Name": "Pleasant Hill",
    "Address1": "15 Crescent Drive",
    "Address2": "",
    "City": "Pleasant Hill",
    "State": "CA",
    "Postal": "94523",
    "Latitude": 37.954,
    "Longitude": -122.0761
  },
  {
    "Name": "Concord Mills",
    "Address1": "8241 Concord Mills Blvd.",
    "Address2": "",
    "City": "Concord",
    "State": "NC",
    "Postal": "28027",
    "Latitude": 35.4069,
    "Longitude": -80.686
  },
  {
    "Name": "Mandeville",
    "Address1": "3414 Highway 190",
    "Address2": "Suite 2",
    "City": "Mandeville",
    "State": "LA",
    "Postal": "70471",
    "Latitude": 30.407,
    "Longitude": -90.0634
  },
  {
    "Name": "Eatontown",
    "Address1": "92 Route 36",
    "Address2": "",
    "City": "Eatontown",
    "State": "NJ",
    "Postal": "7724",
    "Latitude": 40.2986,
    "Longitude": -74.0742
  },
  {
    "Name": "Douglasville",
    "Address1": "6680 Douglas Boulevard",
    "Address2": "",
    "City": "Douglasville",
    "State": "GA",
    "Postal": "30135",
    "Latitude": 33.6704,
    "Longitude": -84.7343
  },
  {
    "Name": "Asheville",
    "Address1": "83G South Tunnel Road",
    "Address2": "",
    "City": "Asheville",
    "State": "NC",
    "Postal": "28805",
    "Latitude": 35.6338,
    "Longitude": -82.4832
  },
  {
    "Name": "Springfield",
    "Address1": "6642 Loisdale Road",
    "Address2": "",
    "City": "Springfield",
    "State": "VA",
    "Postal": "22150",
    "Latitude": 38.7729,
    "Longitude": -77.1865
  },
  {
    "Name": "Taylorsville",
    "Address1": "5670 South Redwood Road",
    "Address2": "",
    "City": "Taylorsville",
    "State": "UT",
    "Postal": "84123",
    "Latitude": 40.6589,
    "Longitude": -111.9216
  },
  {
    "Name": "Harrisburg",
    "Address1": "5125 Jonestown Road",
    "Address2": "Suite. 425",
    "City": "Harrisburg",
    "State": "PA",
    "Postal": "17112",
    "Latitude": 40.3731,
    "Longitude": -76.7765
  },
  {
    "Name": "Katy Mills",
    "Address1": "5000 Katy Mills Circle",
    "Address2": "Suite. 635",
    "City": "Katy",
    "State": "TX",
    "Postal": "77494",
    "Latitude": 29.7407,
    "Longitude": -95.8297
  },
  {
    "Name": "Palm Beach Gardens",
    "Address1": "2410 PGA Boulevard",
    "Address2": "",
    "City": "Palm Beach Gardens",
    "State": "FL",
    "Postal": "33410",
    "Latitude": 26.8457,
    "Longitude": -80.0874
  },
  {
    "Name": "Mission Viejo",
    "Address1": "25732 El Paseo",
    "Address2": "",
    "City": "Mission Viejo",
    "State": "CA",
    "Postal": "92691",
    "Latitude": 33.6119,
    "Longitude": -117.6659
  },
  {
    "Name": "Orland Park",
    "Address1": "400 Orland Park Place",
    "Address2": "Suite. 203",
    "City": "Orland Park",
    "State": "IL",
    "Postal": "60462",
    "Latitude": 41.6253,
    "Longitude": -87.8329
  },
  {
    "Name": "Fayetteville",
    "Address1": "3816 North Mall Avenue",
    "Address2": "",
    "City": "Fayetteville",
    "State": "AR",
    "Postal": "72703",
    "Latitude": 36.1183,
    "Longitude": -94.0432
  },
  {
    "Name": "Southwest Denver",
    "Address1": "7421 West Bowles Avenue",
    "Address2": "",
    "City": "Littleton",
    "State": "CO",
    "Postal": "80123",
    "Latitude": 39.616,
    "Longitude": -105.0694
  },
  {
    "Name": "East Cobb",
    "Address1": "4475 Roswell Road",
    "Address2": "Suite. 100",
    "City": "Marietta",
    "State": "GA",
    "Postal": "30062",
    "Latitude": 34.0056,
    "Longitude": -84.4689
  },
  {
    "Name": "Simi Valley",
    "Address1": "2631 Tapo Canyon Road",
    "Address2": "",
    "City": "Simi Valley",
    "State": "CA",
    "Postal": "93063",
    "Latitude": 34.3087,
    "Longitude": -118.6872
  },
  {
    "Name": "Waterford Lakes",
    "Address1": "397 North Alafaya Trail",
    "Address2": "",
    "City": "Orlando",
    "State": "FL",
    "Postal": "32828",
    "Latitude": 28.529,
    "Longitude": -81.1666
  },
  {
    "Name": "Brunswick",
    "Address1": "197 Golden Isles Plaza",
    "Address2": "",
    "City": "Brunswick",
    "State": "GA",
    "Postal": "31520",
    "Latitude": 31.1809,
    "Longitude": -81.494
  },
  {
    "Name": "Santa Ana",
    "Address1": "3900 South Bristol Street",
    "Address2": "Suite. C",
    "City": "Santa Ana",
    "State": "CA",
    "Postal": "92704",
    "Latitude": 33.7211,
    "Longitude": -117.9051
  },
  {
    "Name": "Ft. Myers",
    "Address1": "13499 South Cleveland Avenue",
    "Address2": "Suite. 200",
    "City": "Ft. Myers",
    "State": "FL",
    "Postal": "33907",
    "Latitude": 26.5639,
    "Longitude": -81.8703
  },
  {
    "Name": "Westland",
    "Address1": "35120 Central City Parkway",
    "Address2": "",
    "City": "Westland",
    "State": "MI",
    "Postal": "48185",
    "Latitude": 42.3339,
    "Longitude": -83.3842
  },
  {
    "Name": "Middletown",
    "Address1": "1515 Route 35 North",
    "Address2": "",
    "City": "Middletown",
    "State": "NJ",
    "Postal": "7748",
    "Latitude": 40.3962,
    "Longitude": -74.1153
  },
  {
    "Name": "Normal",
    "Address1": "1700 East College Avenue",
    "Address2": "Suite. 4",
    "City": "Normal",
    "State": "IL",
    "Postal": "61761",
    "Latitude": 40.529,
    "Longitude": -88.9589
  },
  {
    "Name": "Coral Springs",
    "Address1": "4631 North University Drive",
    "Address2": "",
    "City": "Coral Springs",
    "State": "FL",
    "Postal": "33067",
    "Latitude": 26.3058,
    "Longitude": -80.2234
  },
  {
    "Name": "Orem",
    "Address1": "50 West 1300 South",
    "Address2": "",
    "City": "South Orem",
    "State": "UT",
    "Postal": "84058",
    "Latitude": 40.2877,
    "Longitude": -111.7279
  },
  {
    "Name": "Louisville",
    "Address1": "996 Breckinridge Lane",
    "Address2": "",
    "City": "Louisville",
    "State": "KY",
    "Postal": "40207",
    "Latitude": 38.2665,
    "Longitude": -85.6567
  },
  {
    "Name": "Sugarhouse",
    "Address1": "1169 Wilmington Avenue",
    "Address2": "",
    "City": "Salt Lake City",
    "State": "UT",
    "Postal": "84106",
    "Latitude": 40.7068,
    "Longitude": -111.8557
  },
  {
    "Name": "Beverly Hills",
    "Address1": "31535 Southfield Road",
    "Address2": "",
    "City": "Beverly Hills",
    "State": "MI",
    "Postal": "48025",
    "Latitude": 42.5204,
    "Longitude": -83.2647
  },
  {
    "Name": "Montgomeryville",
    "Address1": "1261 Knapp Road",
    "Address2": "",
    "City": "North Wales",
    "State": "PA",
    "Postal": "19454",
    "Latitude": 40.2233,
    "Longitude": -75.243
  },
  {
    "Name": "Boston",
    "Address1": "401 Park Drive",
    "Address2": "",
    "City": "Boston",
    "State": "MA",
    "Postal": "2215",
    "Latitude": 42.3476,
    "Longitude": -71.1031
  },
  {
    "Name": "Hilton Head",
    "Address1": "1460 Fording Island Road (Highway 278)",
    "Address2": "Suite. 100",
    "City": "Bluffton",
    "State": "SC",
    "Postal": "29910",
    "Latitude": 32.2145,
    "Longitude": -80.8916
  },
  {
    "Name": "Rookwood",
    "Address1": "2719 Edmondson Road",
    "Address2": "",
    "City": "Cincinnati",
    "State": "OH",
    "Postal": "45209",
    "Latitude": 39.153,
    "Longitude": -84.4267
  },
  {
    "Name": "Reading",
    "Address1": "2771 Paper Mill Road",
    "Address2": "Space D",
    "City": "Wyomissing",
    "State": "PA",
    "Postal": "19610",
    "Latitude": 40.3414,
    "Longitude": -75.9748
  },
  {
    "Name": "Watchung",
    "Address1": "1511 US Highway 22",
    "Address2": "Suite. 6",
    "City": "Watchung",
    "State": "NJ",
    "Postal": "7069",
    "Latitude": 40.6428,
    "Longitude": -74.4362
  },
  {
    "Name": "Plymouth Meeting",
    "Address1": "2410 Chemical Road",
    "Address2": "",
    "City": "Plymouth Meeting",
    "State": "PA",
    "Postal": "19462",
    "Latitude": 40.1153,
    "Longitude": -75.282
  },
  {
    "Name": "Round Rock",
    "Address1": "2701-A Parker Road",
    "Address2": "Suite. 400",
    "City": "Round Rock",
    "State": "TX",
    "Postal": "78681",
    "Latitude": 30.5344,
    "Longitude": -97.7257
  },
  {
    "Name": "Pentagon Row",
    "Address1": "900 Army Navy Drive",
    "Address2": "",
    "City": "Arlington",
    "State": "VA",
    "Postal": "22202",
    "Latitude": 38.8569,
    "Longitude": -77.0515
  },
  {
    "Name": "Roseville",
    "Address1": "1120 Galleria Blvd",
    "Address2": "Suite 140",
    "City": "Roseville",
    "State": "CA",
    "Postal": "95678",
    "Latitude": 38.7641,
    "Longitude": -121.2875
  },
  {
    "Name": "Carolina Pavilion",
    "Address1": "9559 South Blvd.",
    "Address2": "",
    "City": "Charlotte",
    "State": "NC",
    "Postal": "28273",
    "Latitude": 35.1274,
    "Longitude": -80.9468
  },
  {
    "Name": "Everett",
    "Address1": "11 Mystic View Road",
    "Address2": "",
    "City": "Everett",
    "State": "MA",
    "Postal": "2149",
    "Latitude": 42.4059,
    "Longitude": -71.0545
  },
  {
    "Name": "Simsbury",
    "Address1": "532 Bushy Hill Road",
    "Address2": "",
    "City": "Simsbury",
    "State": "CT",
    "Postal": "6070",
    "Latitude": 41.8759,
    "Longitude": -72.8094
  },
  {
    "Name": "Visalia",
    "Address1": "3125 South Mooney Blvd.",
    "Address2": "",
    "City": "Visalia",
    "State": "CA",
    "Postal": "93277",
    "Latitude": 36.3013,
    "Longitude": -119.3726
  },
  {
    "Name": "Athens",
    "Address1": "3660 Atlanta Highway",
    "Address2": "",
    "City": "Athens",
    "State": "GA",
    "Postal": "30606",
    "Latitude": 33.9376,
    "Longitude": -83.425
  },
  {
    "Name": "Kennewick",
    "Address1": "1220 N. Columbia Center Blvd.",
    "Address2": "Suite. J",
    "City": "Kennewick",
    "State": "WA",
    "Postal": "99336",
    "Latitude": 46.2141,
    "Longitude": -119.1757
  },
  {
    "Name": "Colma",
    "Address1": "19 Colma Boulevard",
    "Address2": "",
    "City": "Colma",
    "State": "CA",
    "Postal": "94014",
    "Latitude": 37.6909,
    "Longitude": -122.4474
  },
  {
    "Name": "North Brunswick",
    "Address1": "871 Route 1 South",
    "Address2": "",
    "City": "North Brunswick",
    "State": "NJ",
    "Postal": "8902",
    "Latitude": 40.4392,
    "Longitude": -74.4843
  },
  {
    "Name": "Winston-Salem",
    "Address1": "1020 Hanes Mall Blvd",
    "Address2": "",
    "City": "Winston-Salem",
    "State": "NC",
    "Postal": "27103",
    "Latitude": 36.0582,
    "Longitude": -80.3215
  },
  {
    "Name": "Midland",
    "Address1": "3001 West Loop 250 North",
    "Address2": "",
    "City": "Midland",
    "State": "TX",
    "Postal": "79705",
    "Latitude": 32.0512,
    "Longitude": -102.0596
  },
  {
    "Name": "Eugene",
    "Address1": "95 Oakway Center",
    "Address2": "",
    "City": "Eugene",
    "State": "OR",
    "Postal": "97401",
    "Latitude": 44.068,
    "Longitude": -123.0802
  },
  {
    "Name": "Shrewsbury",
    "Address1": "571 Boston Turnpike",
    "Address2": "",
    "City": "Shrewsbury",
    "State": "MA",
    "Postal": "1545",
    "Latitude": 42.2847,
    "Longitude": -71.7142
  },
  {
    "Name": "Lafayette",
    "Address1": "3617 Ambassador Caffery",
    "Address2": "",
    "City": "Lafayette",
    "State": "LA",
    "Postal": "70503",
    "Latitude": 30.1709,
    "Longitude": -92.0548
  },
  {
    "Name": "Champaign",
    "Address1": "63 E. Marketview Dr.",
    "Address2": "",
    "City": "Champaign",
    "State": "IL",
    "Postal": "61820",
    "Latitude": 40.1079,
    "Longitude": -88.2443
  },
  {
    "Name": "Pickerington",
    "Address1": "1750 Hill Road North",
    "Address2": "",
    "City": "Pickerington",
    "State": "OH",
    "Postal": "43147",
    "Latitude": 39.8977,
    "Longitude": -82.744
  },
  {
    "Name": "Hagerstown",
    "Address1": "17716 Garland Groh Blvd.",
    "Address2": "",
    "City": "Hagerstown",
    "State": "MD",
    "Postal": "21740",
    "Latitude": 39.6319,
    "Longitude": -77.7439
  },
  {
    "Name": "Buena Park",
    "Address1": "8390 On the Mall",
    "Address2": "#237",
    "City": "Buena Park",
    "State": "CA",
    "Postal": "90620",
    "Latitude": 33.8452,
    "Longitude": -118.0153
  },
  {
    "Name": "East Wichita",
    "Address1": "1800 North Rock Road",
    "Address2": "Suite. 130",
    "City": "Wichita",
    "State": "KS",
    "Postal": "67206",
    "Latitude": 37.704,
    "Longitude": -97.2255
  },
  {
    "Name": "Johnson City",
    "Address1": "3211 Peoples Street",
    "Address2": "Suite. 25",
    "City": "Johnson City",
    "State": "TN",
    "Postal": "37604",
    "Latitude": 36.2996,
    "Longitude": -82.3832
  },
  {
    "Name": "Fargo",
    "Address1": "4340 13th Avenue SW",
    "Address2": "",
    "City": "Fargo",
    "State": "ND",
    "Postal": "58103",
    "Latitude": 46.8561,
    "Longitude": -96.8221
  },
  {
    "Name": "Grand Forks",
    "Address1": "3841 32nd Avenue South",
    "Address2": "",
    "City": "Grand Forks",
    "State": "ND",
    "Postal": "58201",
    "Latitude": 47.8666,
    "Longitude": -97.1411
  },
  {
    "Name": "Hulen",
    "Address1": "4931 Overton Ridge Blvd",
    "Address2": "",
    "City": "Ft. Worth",
    "State": "TX",
    "Postal": "76132",
    "Latitude": 32.6674,
    "Longitude": -97.4168
  },
  {
    "Name": "San Luis Obispo",
    "Address1": "317 Madonna Road",
    "Address2": "",
    "City": "San Luis Obispo",
    "State": "CA",
    "Postal": "93405",
    "Latitude": 35.2969,
    "Longitude": -120.7331
  },
  {
    "Name": "Arundel Mills",
    "Address1": "7000 Arundel Mills Circle",
    "Address2": "Suite. E3",
    "City": "Hanover",
    "State": "MD",
    "Postal": "21076",
    "Latitude": 39.1685,
    "Longitude": -76.7163
  },
  {
    "Name": "Meridian",
    "Address1": "1350 North Eagle Road",
    "Address2": "",
    "City": "Meridian",
    "State": "ID",
    "Postal": "83642",
    "Latitude": 43.568,
    "Longitude": -116.4044
  },
  {
    "Name": "Chino Hills",
    "Address1": "13021 Peyton Drive",
    "Address2": "",
    "City": "Chino Hills",
    "State": "CA",
    "Postal": "91709",
    "Latitude": 33.9637,
    "Longitude": -117.7386
  },
  {
    "Name": "Peoria",
    "Address1": "4800 North University Street",
    "Address2": "",
    "City": "Peoria",
    "State": "IL",
    "Postal": "61614",
    "Latitude": 40.759,
    "Longitude": -89.6041
  },
  {
    "Name": "Newtown",
    "Address1": "20 West Road",
    "Address2": "",
    "City": "Newtown",
    "State": "PA",
    "Postal": "18940",
    "Latitude": 40.2613,
    "Longitude": -74.9378
  },
  {
    "Name": "Waterfront",
    "Address1": "490 Waterfront Drive East",
    "Address2": "",
    "City": "Homestead",
    "State": "PA",
    "Postal": "15120",
    "Latitude": 40.3959,
    "Longitude": -79.9075
  },
  {
    "Name": "Broadmoor",
    "Address1": "2180 Southgate Road",
    "Address2": "",
    "City": "Colorado Springs",
    "State": "CO",
    "Postal": "80906",
    "Latitude": 38.7526,
    "Longitude": -104.8782
  },
  {
    "Name": "Cool Springs",
    "Address1": "545 Cool Springs Blvd",
    "Address2": "Suite 150",
    "City": "Franklin",
    "State": "TN",
    "Postal": "37067",
    "Latitude": 35.9123,
    "Longitude": -86.7803
  },
  {
    "Name": "Oxnard",
    "Address1": "251 West Esplanade Drive",
    "Address2": "",
    "City": "Oxnard",
    "State": "CA",
    "Postal": "93036",
    "Latitude": 34.2388,
    "Longitude": -119.1865
  },
  {
    "Name": "Southlake",
    "Address1": "2930 East Southlake Blvd.",
    "Address2": "",
    "City": "Southlake",
    "State": "TX",
    "Postal": "76092",
    "Latitude": 32.9599,
    "Longitude": -97.1484
  },
  {
    "Name": "Cedar Rapids",
    "Address1": "4840 1st Avenue NE",
    "Address2": "",
    "City": "Cedar Rapids",
    "State": "IA",
    "Postal": "52402",
    "Latitude": 42.0232,
    "Longitude": -91.6596
  },
  {
    "Name": "Grandville",
    "Address1": "4830 Wilson Avenue SW",
    "Address2": "",
    "City": "Wyoming",
    "State": "MI",
    "Postal": "49418",
    "Latitude": 42.878,
    "Longitude": -85.7679
  },
  {
    "Name": "Trussville",
    "Address1": "1640 Gadsden Highway",
    "Address2": "",
    "City": "Birmingham",
    "State": "AL",
    "Postal": "35235",
    "Latitude": 33.6245,
    "Longitude": -86.6479
  },
  {
    "Name": "Waterworks",
    "Address1": "980 Freeport Road",
    "Address2": "",
    "City": "Pittsburgh",
    "State": "PA",
    "Postal": "15238",
    "Latitude": 40.5372,
    "Longitude": -79.8794
  },
  {
    "Name": "Gresham",
    "Address1": "719 NW 12th Street",
    "Address2": "",
    "City": "Gresham",
    "State": "OR",
    "Postal": "97030",
    "Latitude": 45.5092,
    "Longitude": -122.4335
  },
  {
    "Name": "Royal Palm Beach",
    "Address1": "540 North State Road 7",
    "Address2": "",
    "City": "Royal Palm Beach",
    "State": "FL",
    "Postal": "33411",
    "Latitude": 26.72,
    "Longitude": -80.1932
  },
  {
    "Name": "Marlton",
    "Address1": "740 Route 73 South",
    "Address2": "",
    "City": "Marlton",
    "State": "NJ",
    "Postal": "8053",
    "Latitude": 39.8566,
    "Longitude": -74.9008
  },
  {
    "Name": "Greenville",
    "Address1": "1117 Woodruff Road",
    "Address2": "Suite. D",
    "City": "Greenville",
    "State": "SC",
    "Postal": "29607",
    "Latitude": 34.8128,
    "Longitude": -82.3317
  },
  {
    "Name": "Danvers",
    "Address1": "180 Endicott Street",
    "Address2": "",
    "City": "Danvers",
    "State": "MA",
    "Postal": "1923",
    "Latitude": 42.5742,
    "Longitude": -70.9505
  },
  {
    "Name": "Bloomington",
    "Address1": "280 N. Gates Drive",
    "Address2": "",
    "City": "Bloomington",
    "State": "IN",
    "Postal": "47404",
    "Latitude": 39.2194,
    "Longitude": -86.5912
  },
  {
    "Name": "Amarillo",
    "Address1": "3000 Soncy Road",
    "Address2": "",
    "City": "Amarillo",
    "State": "TX",
    "Postal": "79124",
    "Latitude": 35.2669,
    "Longitude": -101.9584
  },
  {
    "Name": "St. David's",
    "Address1": "550 E. Lancaster Avenue",
    "Address2": "",
    "City": "Radnor",
    "State": "PA",
    "Postal": "19087",
    "Latitude": 40.0619,
    "Longitude": -75.4025
  },
  {
    "Name": "Jackson",
    "Address1": "6370 Ridgewood Court Drive",
    "Address2": "",
    "City": "Jackson",
    "State": "MS",
    "Postal": "39211",
    "Latitude": 32.3721,
    "Longitude": -90.1226
  },
  {
    "Name": "Westminster",
    "Address1": "7225 W. 88th Avenue",
    "Address2": "",
    "City": "Westminster",
    "State": "CO",
    "Postal": "80021",
    "Latitude": 39.8907,
    "Longitude": -105.1137
  },
  {
    "Name": "El Paso",
    "Address1": "1327 George Dieter Drive",
    "Address2": "",
    "City": "El Paso",
    "State": "TX",
    "Postal": "79936",
    "Latitude": 31.7766,
    "Longitude": -106.297
  },
  {
    "Name": "Greensboro",
    "Address1": "3508 High Point Road",
    "Address2": "",
    "City": "Greensboro",
    "State": "NC",
    "Postal": "27407",
    "Latitude": 36.0086,
    "Longitude": -79.8782
  },
  {
    "Name": "Boardman",
    "Address1": "550 Boardman Poland Road",
    "Address2": "",
    "City": "Youngstown",
    "State": "OH",
    "Postal": "44512",
    "Latitude": 41.0257,
    "Longitude": -80.6683
  },
  {
    "Name": "Davie",
    "Address1": "1801 South University Drive",
    "Address2": "",
    "City": "Davie",
    "State": "FL",
    "Postal": "33324",
    "Latitude": 26.1125,
    "Longitude": -80.2749
  },
  {
    "Name": "Stow",
    "Address1": "4290 Kent Road",
    "Address2": "",
    "City": "Stow",
    "State": "OH",
    "Postal": "44224",
    "Latitude": 41.1763,
    "Longitude": -81.4365
  },
  {
    "Name": "61st Street",
    "Address1": "410 E. 61st Street",
    "Address2": "",
    "City": "New York",
    "State": "NY",
    "Postal": "10065",
    "Latitude": 40.7646,
    "Longitude": -73.9631
  },
  {
    "Name": "Spokane",
    "Address1": "5628 N. Division Street",
    "Address2": "",
    "City": "Spokane",
    "State": "WA",
    "Postal": "99208",
    "Latitude": 47.7882,
    "Longitude": -117.4809
  },
  {
    "Name": "Greenwood",
    "Address1": "723 US Highway 31 North",
    "Address2": "Suite. A",
    "City": "Greenwood",
    "State": "IN",
    "Postal": "46142",
    "Latitude": 39.6218,
    "Longitude": -86.1752
  },
  {
    "Name": "Taylor",
    "Address1": "23871 Eureka Road",
    "Address2": "",
    "City": "Taylor",
    "State": "MI",
    "Postal": "48180",
    "Latitude": 42.2253,
    "Longitude": -83.2677
  },
  {
    "Name": "Bangor",
    "Address1": "6 Bangor Mall Blvd.",
    "Address2": "",
    "City": "Bangor",
    "State": "ME",
    "Postal": "4401",
    "Latitude": 44.8485,
    "Longitude": -68.8503
  },
  {
    "Name": "Rochester",
    "Address1": "40 25th Street SE",
    "Address2": "",
    "City": "Rochester",
    "State": "MN",
    "Postal": "55904",
    "Latitude": 43.9599,
    "Longitude": -92.4006
  },
  {
    "Name": "Spartanburg",
    "Address1": "205 West Blackstock Road",
    "Address2": "",
    "City": "Spartanburg",
    "State": "SC",
    "Postal": "29301",
    "Latitude": 34.934,
    "Longitude": -82.0107
  },
  {
    "Name": "Novi",
    "Address1": "43610 West Oaks Drive",
    "Address2": "",
    "City": "Novi",
    "State": "MI",
    "Postal": "48377",
    "Latitude": 42.5054,
    "Longitude": -83.4736
  },
  {
    "Name": "Okemos",
    "Address1": "1982 West Grand River Ave",
    "Address2": "Unit #269",
    "City": "Okemos",
    "State": "MI",
    "Postal": "48864",
    "Latitude": 42.7042,
    "Longitude": -84.3921
  },
  {
    "Name": "Sawmill",
    "Address1": "3708 W. Dublin - Granville Road",
    "Address2": "",
    "City": "Columbus",
    "State": "OH",
    "Postal": "43235",
    "Latitude": 40.1184,
    "Longitude": -83.0276
  },
  {
    "Name": "Tukwila",
    "Address1": "400 Strander Boulevard",
    "Address2": "",
    "City": "Tukwila",
    "State": "WA",
    "Postal": "98188",
    "Latitude": 47.4463,
    "Longitude": -122.2721
  },
  {
    "Name": "Warwick",
    "Address1": "1500 Bald Hill Road",
    "Address2": "Suite B",
    "City": "Warwick",
    "State": "RI",
    "Postal": "2886",
    "Latitude": 41.7038,
    "Longitude": -71.4556
  },
  {
    "Name": "Bellevue",
    "Address1": "15600 NE 8th Street",
    "Address2": "Suite. G8",
    "City": "Bellevue",
    "State": "WA",
    "Postal": "98008",
    "Latitude": 47.6058,
    "Longitude": -122.0991
  },
  {
    "Name": "Evansville",
    "Address1": "280 North Green River Road",
    "Address2": "",
    "City": "Evansville",
    "State": "IN",
    "Postal": "47715",
    "Latitude": 37.9724,
    "Longitude": -87.4796
  },
  {
    "Name": "North Richmond",
    "Address1": "9900 Brook Road",
    "Address2": "",
    "City": "Glen Allen",
    "State": "VA",
    "Postal": "23059",
    "Latitude": 37.7022,
    "Longitude": -77.574
  },
  {
    "Name": "Wilkes-Barre",
    "Address1": "435 Arena Hub Plaza",
    "Address2": "",
    "City": "Wilkes-Barre",
    "State": "PA",
    "Postal": "18702",
    "Latitude": 41.2305,
    "Longitude": -75.7574
  },
  {
    "Name": "Rochester Hills",
    "Address1": "1242 South Rochester Road",
    "Address2": "",
    "City": "Rochester Hills",
    "State": "MI",
    "Postal": "48307",
    "Latitude": 42.6593,
    "Longitude": -83.1227
  },
  {
    "Name": "West Wichita",
    "Address1": "2441 North Maize Road",
    "Address2": "Suite. 601",
    "City": "Wichita",
    "State": "KS",
    "Postal": "67205",
    "Latitude": 37.7495,
    "Longitude": -97.4235
  },
  {
    "Name": "Salem",
    "Address1": "271 South Broadway",
    "Address2": "",
    "City": "Salem",
    "State": "NH",
    "Postal": "3079",
    "Latitude": 42.7883,
    "Longitude": -71.2217
  },
  {
    "Name": "Bayamon",
    "Address1": "725 West Main Avenue",
    "Address2": "",
    "City": "Bayamon",
    "State": "PR",
    "Postal": "961",
    "Latitude": 18.4133,
    "Longitude": -66.1645
  },
  {
    "Name": "Copperwood",
    "Address1": "6575 Highway 6 North",
    "Address2": "",
    "City": "Houston",
    "State": "TX",
    "Postal": "77084",
    "Latitude": 29.8275,
    "Longitude": -95.6598
  },
  {
    "Name": "Hawthorne",
    "Address1": "14351 Hindry Avenue",
    "Address2": "",
    "City": "Hawthorne",
    "State": "CA",
    "Postal": "90250",
    "Latitude": 33.9148,
    "Longitude": -118.3481
  },
  {
    "Name": "Hollywood",
    "Address1": "1557 Vine Street",
    "Address2": "",
    "City": "Hollywood",
    "State": "CA",
    "Postal": "90028",
    "Latitude": 34.0999,
    "Longitude": -118.3269
  },
  {
    "Name": "East Boca Raton",
    "Address1": "1400C Glades Road",
    "Address2": "",
    "City": "Boca Raton",
    "State": "FL",
    "Postal": "33431",
    "Latitude": 26.3748,
    "Longitude": -80.1062
  },
  {
    "Name": "Slidell",
    "Address1": "127 Northshore Blvd.",
    "Address2": "Suite. 1",
    "City": "Slidell",
    "State": "LA",
    "Postal": "70460",
    "Latitude": 30.298,
    "Longitude": -89.8407
  },
  {
    "Name": "Tallahassee",
    "Address1": "1574 Governors Square Blvd.",
    "Address2": "",
    "City": "Tallahassee",
    "State": "FL",
    "Postal": "32301",
    "Latitude": 30.4278,
    "Longitude": -84.2585
  },
  {
    "Name": "Mays Landing",
    "Address1": "190 Hamilton Commons",
    "Address2": "",
    "City": "Mays Landing",
    "State": "NJ",
    "Postal": "8330",
    "Latitude": 39.4816,
    "Longitude": -74.7373
  },
  {
    "Name": "Springdale",
    "Address1": "4350 Summit Plaza Drive",
    "Address2": "",
    "City": "Louisville",
    "State": "KY",
    "Postal": "40241",
    "Latitude": 38.3,
    "Longitude": -85.5757
  },
  {
    "Name": "Tri-County",
    "Address1": "485 East Kemper Road",
    "Address2": "",
    "City": "Springdale",
    "State": "OH",
    "Postal": "45246",
    "Latitude": 39.2896,
    "Longitude": -84.4692
  },
  {
    "Name": "Macon",
    "Address1": "4667 Presidential Parkway",
    "Address2": "",
    "City": "Macon",
    "State": "GA",
    "Postal": "31206",
    "Latitude": 32.8009,
    "Longitude": -83.6937
  },
  {
    "Name": "Dulles",
    "Address1": "45575 Dulles Eastern Plaza",
    "Address2": "Suite. 154",
    "City": "Dulles",
    "State": "VA",
    "Postal": "20166",
    "Latitude": 38.9863,
    "Longitude": -77.4558
  },
  {
    "Name": "Yonkers",
    "Address1": "2141 Central Park Ave",
    "Address2": "",
    "City": "Yonkers",
    "State": "NY",
    "Postal": "10710",
    "Latitude": 40.9672,
    "Longitude": -73.8463
  },
  {
    "Name": "Ft. Wayne",
    "Address1": "4020 West Jefferson Blvd.",
    "Address2": "",
    "City": "Fort Wayne",
    "State": "IN",
    "Postal": "46804",
    "Latitude": 41.0529,
    "Longitude": -85.2416
  },
  {
    "Name": "El Cerrito",
    "Address1": "6000 El Cerrito Plaza",
    "Address2": "",
    "City": "El Cerrito",
    "State": "CA",
    "Postal": "94530",
    "Latitude": 37.9216,
    "Longitude": -122.2983
  },
  {
    "Name": "Shreveport",
    "Address1": "7070 Youree Drive",
    "Address2": "",
    "City": "Shreveport",
    "State": "LA",
    "Postal": "71105",
    "Latitude": 32.4567,
    "Longitude": -93.7099
  },
  {
    "Name": "Holland",
    "Address1": "3050 Beeline Road",
    "Address2": "Suite. 30",
    "City": "Holland",
    "State": "MI",
    "Postal": "49424",
    "Latitude": 42.8438,
    "Longitude": -86.1344
  },
  {
    "Name": "Destin",
    "Address1": "4441 Commons Drive East",
    "Address2": "",
    "City": "Destin",
    "State": "FL",
    "Postal": "32541",
    "Latitude": 30.3928,
    "Longitude": -86.4695
  },
  {
    "Name": "Ramsey",
    "Address1": "225 Interstate Shopping Center",
    "Address2": "",
    "City": "Ramsey",
    "State": "NJ",
    "Postal": "7446",
    "Latitude": 41.0591,
    "Longitude": -74.1459
  },
  {
    "Name": "Greendale",
    "Address1": "5445 South 76th Street",
    "Address2": "",
    "City": "Greendale",
    "State": "WI",
    "Postal": "53129",
    "Latitude": 42.94,
    "Longitude": -88.0009
  },
  {
    "Name": "Memphis",
    "Address1": "870 South White Station Road",
    "Address2": "",
    "City": "Memphis",
    "State": "TN",
    "Postal": "38117",
    "Latitude": 35.1152,
    "Longitude": -89.9053
  },
  {
    "Name": "Frisco",
    "Address1": "2930 Preston Road",
    "Address2": "Suite. 400",
    "City": "Frisco",
    "State": "TX",
    "Postal": "75034",
    "Latitude": 33.1466,
    "Longitude": -96.8558
  },
  {
    "Name": "Bridge Street",
    "Address1": "6888 Governors West",
    "Address2": "",
    "City": "Huntsville",
    "State": "AL",
    "Postal": "35806",
    "Latitude": 34.7608,
    "Longitude": -86.6858
  },
  {
    "Name": "West Plano",
    "Address1": "6400 West Plano Parkway",
    "Address2": "Suite 125",
    "City": "Plano",
    "State": "TX",
    "Postal": "75093",
    "Latitude": 33.0342,
    "Longitude": -96.8116
  },
  {
    "Name": "Bakersfield",
    "Address1": "5000 Stockdale Highway",
    "Address2": "",
    "City": "Bakersfield",
    "State": "CA",
    "Postal": "93309",
    "Latitude": 35.3429,
    "Longitude": -119.0648
  },
  {
    "Name": "Northglenn",
    "Address1": "341 West 104th Avenue",
    "Address2": "Unit B",
    "City": "Northglenn",
    "State": "CO",
    "Postal": "80234",
    "Latitude": 39.9099,
    "Longitude": -105.0026
  },
  {
    "Name": "Elk Grove",
    "Address1": "9145 West Stockton Blvd",
    "Address2": "",
    "City": "Elk Grove",
    "State": "CA",
    "Postal": "95758",
    "Latitude": 38.4278,
    "Longitude": -121.4447
  },
  {
    "Name": "Cortlandt",
    "Address1": "3061 East Main Street",
    "Address2": "",
    "City": "Mohegan Lake",
    "State": "NY",
    "Postal": "10547",
    "Latitude": 41.3133,
    "Longitude": -73.846
  },
  {
    "Name": "Encino",
    "Address1": "17401 Ventura Boulevard",
    "Address2": "Suite. A-11",
    "City": "Encino",
    "State": "CA",
    "Postal": "91316",
    "Latitude": 34.1602,
    "Longitude": -118.5155
  },
  {
    "Name": "Seal Beach",
    "Address1": "12390 Seal Beach Blvd.",
    "Address2": "",
    "City": "Seal Beach",
    "State": "CA",
    "Postal": "90740",
    "Latitude": 33.7584,
    "Longitude": -118.075
  },
  {
    "Name": "Muskegon",
    "Address1": "5540 Harvey Street",
    "Address2": "",
    "City": "Muskegon",
    "State": "MI",
    "Postal": "49444",
    "Latitude": 43.1787,
    "Longitude": -86.1991
  },
  {
    "Name": "Apple Valley",
    "Address1": "14910 Florence Trail",
    "Address2": "",
    "City": "Apple Valley",
    "State": "MN",
    "Postal": "55124",
    "Latitude": 44.7395,
    "Longitude": -93.1938
  },
  {
    "Name": "Kildeer",
    "Address1": "20505 North Rand Road",
    "Address2": "Suite. 100",
    "City": "Kildeer",
    "State": "IL",
    "Postal": "60047",
    "Latitude": 42.2031,
    "Longitude": -88.0442
  },
  {
    "Name": "Boulder",
    "Address1": "1741 28th Street",
    "Address2": "",
    "City": "Boulder",
    "State": "CO",
    "Postal": "80301",
    "Latitude": 40.0495,
    "Longitude": -105.2014
  },
  {
    "Name": "Puyallup",
    "Address1": "4102-D South Meridian Street",
    "Address2": "",
    "City": "Puyallup",
    "State": "WA",
    "Postal": "98373",
    "Latitude": 47.1485,
    "Longitude": -122.3241
  },
  {
    "Name": "Wilmington",
    "Address1": "352 South College Road",
    "Address2": "Unit 10B",
    "City": "Wilmington",
    "State": "NC",
    "Postal": "28403",
    "Latitude": 34.2217,
    "Longitude": -77.8806
  },
  {
    "Name": "Saginaw",
    "Address1": "4420 Bay Road",
    "Address2": "",
    "City": "Saginaw",
    "State": "MI",
    "Postal": "48603",
    "Latitude": 43.4587,
    "Longitude": -84.0295
  },
  {
    "Name": "Coon Rapids",
    "Address1": "12773 Riverdale Boulevard",
    "Address2": "",
    "City": "Coon Rapids",
    "State": "MN",
    "Postal": "55448",
    "Latitude": 45.1936,
    "Longitude": -93.3005
  },
  {
    "Name": "Henderson",
    "Address1": "621 Marks Street",
    "Address2": "",
    "City": "Henderson",
    "State": "NV",
    "Postal": "89014",
    "Latitude": 36.0617,
    "Longitude": -115.0581
  },
  {
    "Name": "Mt. Olive",
    "Address1": "30 International Drive",
    "Address2": "Suite. 1",
    "City": "Flanders",
    "State": "NJ",
    "Postal": "7836",
    "Latitude": 40.8431,
    "Longitude": -74.7107
  },
  {
    "Name": "Port Charlotte",
    "Address1": "18700 Veterans Boulevard",
    "Address2": "Unit 14",
    "City": "Port Charlotte",
    "State": "FL",
    "Postal": "33954",
    "Latitude": 27.0247,
    "Longitude": -82.1224
  },
  {
    "Name": "Avon",
    "Address1": "10350 East US Highway 36",
    "Address2": "",
    "City": "Avon",
    "State": "IN",
    "Postal": "46123",
    "Latitude": 39.7644,
    "Longitude": -86.4034
  },
  {
    "Name": "Jacksonville",
    "Address1": "1305 Western Boulevard",
    "Address2": "",
    "City": "Jacksonville",
    "State": "NC",
    "Postal": "28546",
    "Latitude": 34.7992,
    "Longitude": -77.3562
  },
  {
    "Name": "Gastonia",
    "Address1": "3018 East Franklin Blvd.",
    "Address2": "",
    "City": "Gastonia",
    "State": "NC",
    "Postal": "28056",
    "Latitude": 35.2169,
    "Longitude": -81.125
  },
  {
    "Name": "Clive/Des Moines",
    "Address1": "11101 University Avenue",
    "Address2": "Suite. A",
    "City": "Clive",
    "State": "IA",
    "Postal": "50325",
    "Latitude": 41.6132,
    "Longitude": -93.7979
  },
  {
    "Name": "Temple",
    "Address1": "2112 SW HK Dodgen Loop",
    "Address2": "Suite 151",
    "City": "Temple",
    "State": "TX",
    "Postal": "76504",
    "Latitude": 31.1379,
    "Longitude": -97.3737
  },
  {
    "Name": "Northwoods",
    "Address1": "1730 N FM 1604 East",
    "Address2": "Suite. 107",
    "City": "San Antonio",
    "State": "TX",
    "Postal": "78232",
    "Latitude": 29.5886,
    "Longitude": -98.4746
  },
  {
    "Name": "Tanasbourne",
    "Address1": "18043 NW Evergreen Parkway",
    "Address2": "",
    "City": "Hillsboro",
    "State": "OR",
    "Postal": "97006",
    "Latitude": 45.517,
    "Longitude": -122.8598
  },
  {
    "Name": "Exton",
    "Address1": "108 Bartlett Avenue",
    "Address2": "",
    "City": "Exton",
    "State": "PA",
    "Postal": "19341",
    "Latitude": 40.0399,
    "Longitude": -75.6406
  },
  {
    "Name": "South Portland",
    "Address1": "200 Running Hill Road",
    "Address2": "Suite. 4",
    "City": "South Portland",
    "State": "ME",
    "Postal": "4106",
    "Latitude": 43.6314,
    "Longitude": -70.286
  },
  {
    "Name": "Battle Creek",
    "Address1": "12765 Harper Village Drive",
    "Address2": "Suite 100",
    "City": "Battle Creek",
    "State": "MI",
    "Postal": "49014",
    "Latitude": 42.3146,
    "Longitude": -85.1062
  },
  {
    "Name": "Matthews",
    "Address1": "10530 Northeast Parkway",
    "Address2": "Suite. K",
    "City": "Matthews",
    "State": "NC",
    "Postal": "28105",
    "Latitude": 35.1156,
    "Longitude": -80.7139
  },
  {
    "Name": "Aurora",
    "Address1": "5560 South Parker Road",
    "Address2": "",
    "City": "Aurora",
    "State": "CO",
    "Postal": "80015",
    "Latitude": 39.6273,
    "Longitude": -104.779
  },
  {
    "Name": "Anderson Station",
    "Address1": "146 Station Drive",
    "Address2": "",
    "City": "Anderson",
    "State": "SC",
    "Postal": "29621",
    "Latitude": 34.5067,
    "Longitude": -82.6053
  },
  {
    "Name": "Dillon",
    "Address1": "318 Dillon Ridge Way",
    "Address2": "",
    "City": "Dillon",
    "State": "CO",
    "Postal": "80435",
    "Latitude": 39.5737,
    "Longitude": -105.9346
  },
  {
    "Name": "Bowie",
    "Address1": "2382 Brandermill Boulevard",
    "Address2": "Suite 102",
    "City": "Gambrills",
    "State": "MD",
    "Postal": "21054",
    "Latitude": 39.0403,
    "Longitude": -76.6858
  },
  {
    "Name": "Hickory",
    "Address1": "1835 Catawba Valley Boulevard, SE",
    "Address2": "",
    "City": "Hickory",
    "State": "NC",
    "Postal": "28602",
    "Latitude": 35.6699,
    "Longitude": -81.3892
  },
  {
    "Name": "North Pointe",
    "Address1": "1515 North Pointe Drive",
    "Address2": "Suite. 135",
    "City": "Durham",
    "State": "NC",
    "Postal": "27705",
    "Latitude": 36.0221,
    "Longitude": -78.9757
  },
  {
    "Name": "Houston",
    "Address1": "3102 Kirby Drive",
    "Address2": "",
    "City": "Houston",
    "State": "TX",
    "Postal": "77098",
    "Latitude": 29.7348,
    "Longitude": -95.4161
  },
  {
    "Name": "Pasadena",
    "Address1": "5636 Fairmont Parkway",
    "Address2": "",
    "City": "Pasadena",
    "State": "TX",
    "Postal": "77505",
    "Latitude": 29.6456,
    "Longitude": -95.1403
  },
  {
    "Name": "Lee's Summit",
    "Address1": "1648 N.W. Chipman Road",
    "Address2": "",
    "City": "Lee's Summit",
    "State": "MO",
    "Postal": "64081",
    "Latitude": 38.9069,
    "Longitude": -94.4038
  },
  {
    "Name": "Beaverton",
    "Address1": "2780 SW Cedar Hills Blvd.",
    "Address2": "",
    "City": "Beaverton",
    "State": "OR",
    "Postal": "97005",
    "Latitude": 45.491,
    "Longitude": -122.8036
  },
  {
    "Name": "Flint",
    "Address1": "G-3605 Miller Road",
    "Address2": "",
    "City": "Flint",
    "State": "MI",
    "Postal": "48507",
    "Latitude": 42.967,
    "Longitude": -83.7174
  },
  {
    "Name": "Erie",
    "Address1": "6720 Peach Street",
    "Address2": "Suite. A",
    "City": "Erie",
    "State": "PA",
    "Postal": "16509",
    "Latitude": 42.06,
    "Longitude": -80.0381
  },
  {
    "Name": "Elmira/Big Flats",
    "Address1": "830 Consumer Square Plaza",
    "Address2": "County Route 64",
    "City": "Elmira",
    "State": "NY",
    "Postal": "14903",
    "Latitude": 42.1316,
    "Longitude": -76.8719
  },
  {
    "Name": "Warrington",
    "Address1": "1015 Main Street",
    "Address2": "",
    "City": "Warrington",
    "State": "PA",
    "Postal": "18976",
    "Latitude": 40.2488,
    "Longitude": -75.1435
  },
  {
    "Name": "Auburn",
    "Address1": "366 Southbridge Street",
    "Address2": "",
    "City": "Auburn",
    "State": "MA",
    "Postal": "1501",
    "Latitude": 42.1987,
    "Longitude": -71.846
  },
  {
    "Name": "Eastgate",
    "Address1": "650F Eastgate South Drive",
    "Address2": "",
    "City": "Cincinnati",
    "State": "OH",
    "Postal": "45245",
    "Latitude": 39.0611,
    "Longitude": -84.2761
  },
  {
    "Name": "Manchester",
    "Address1": "169B Hale Road",
    "Address2": "",
    "City": "Manchester",
    "State": "CT",
    "Postal": "6042",
    "Latitude": 41.8028,
    "Longitude": -72.521
  },
  {
    "Name": "Ft. Lauderdale",
    "Address1": "2701 North Federal Highway",
    "Address2": "",
    "City": "Fort Lauderdale",
    "State": "FL",
    "Postal": "33306",
    "Latitude": 26.1654,
    "Longitude": -80.1139
  },
  {
    "Name": "Salinas",
    "Address1": "1690 North Main Street",
    "Address2": "",
    "City": "Salinas",
    "State": "CA",
    "Postal": "93906",
    "Latitude": 36.7227,
    "Longitude": -121.6336
  },
  {
    "Name": "Maple Grove",
    "Address1": "7950 Wedgewood Lane North",
    "Address2": "",
    "City": "Maple Grove",
    "State": "MN",
    "Postal": "55369",
    "Latitude": 45.1274,
    "Longitude": -93.4454
  },
  {
    "Name": "Eagan",
    "Address1": "1295 Promenade Place",
    "Address2": "Suite. 2",
    "City": "Eagan",
    "State": "MN",
    "Postal": "55121",
    "Latitude": 44.8465,
    "Longitude": -93.1549
  },
  {
    "Name": "North Olmsted",
    "Address1": "25975 Great Northern Plaza",
    "Address2": "",
    "City": "North Olmsted",
    "State": "OH",
    "Postal": "44070",
    "Latitude": 41.415,
    "Longitude": -81.9188
  },
  {
    "Name": "Monrovia",
    "Address1": "650 West Huntington Drive",
    "Address2": "",
    "City": "Monrovia",
    "State": "CA",
    "Postal": "91016",
    "Latitude": 34.1528,
    "Longitude": -118.0005
  },
  {
    "Name": "Sunset Hills",
    "Address1": "10770 Sunset Hills Plaza",
    "Address2": "",
    "City": "St. Louis",
    "State": "MO",
    "Postal": "63127",
    "Latitude": 38.5345,
    "Longitude": -90.4174
  },
  {
    "Name": "North Fayette",
    "Address1": "160 Quinn Drive",
    "Address2": "",
    "City": "North Fayette",
    "State": "PA",
    "Postal": "15275",
    "Latitude": 40.43,
    "Longitude": -79.97
  },
  {
    "Name": "Centerville",
    "Address1": "261 East Alex-Bell Road",
    "Address2": "",
    "City": "Centerville",
    "State": "OH",
    "Postal": "45459",
    "Latitude": 39.6474,
    "Longitude": -84.1705
  },
  {
    "Name": "Bellingham",
    "Address1": "4255 Meridian Street",
    "Address2": "",
    "City": "Bellingham",
    "State": "WA",
    "Postal": "98226",
    "Latitude": 48.7986,
    "Longitude": -122.4457
  },
  {
    "Name": "North Raleigh",
    "Address1": "9521 Strickland Road",
    "Address2": "",
    "City": "Raleigh",
    "State": "NC",
    "Postal": "27615",
    "Latitude": 35.8985,
    "Longitude": -78.6354
  },
  {
    "Name": "Lynchburg",
    "Address1": "4026-F Wards Road",
    "Address2": "",
    "City": "Lynchburg",
    "State": "VA",
    "Postal": "24502",
    "Latitude": 37.596959,
    "Longitude": -79.3894194
  },
  {
    "Name": "Brooklyn",
    "Address1": "459 Gateway Drive",
    "Address2": "",
    "City": "Brooklyn",
    "State": "NY",
    "Postal": "11239",
    "Latitude": 40.6477,
    "Longitude": -73.8794
  },
  {
    "Name": "Middletown",
    "Address1": "470 Route 211 East Suite 3",
    "Address2": "Suite 3",
    "City": "Middletown",
    "State": "NY",
    "Postal": "10940",
    "Latitude": 41.4465,
    "Longitude": -74.4787
  },
  {
    "Name": "Mt. Vernon",
    "Address1": "500 East Sandford Blvd",
    "Address2": "",
    "City": "Mt. Vernon",
    "State": "NY",
    "Postal": "10550",
    "Latitude": 40.9054,
    "Longitude": -73.8353
  },
  {
    "Name": "Columbus",
    "Address1": "5555 Whittlesey Boulevard",
    "Address2": "Suite. 1400",
    "City": "Columbus",
    "State": "GA",
    "Postal": "31909",
    "Latitude": 32.5488,
    "Longitude": -84.9241
  },
  {
    "Name": "Grand Junction",
    "Address1": "2464 US Highway 6 & 50",
    "Address2": "Suite. 206",
    "City": "Grand Junction",
    "State": "CO",
    "Postal": "81505",
    "Latitude": 39.2558,
    "Longitude": -108.5342
  },
  {
    "Name": "Lakewood",
    "Address1": "5830 Lakewood Towne Center Blvd, SW",
    "Address2": "",
    "City": "Lakewood",
    "State": "WA",
    "Postal": "98499",
    "Latitude": 47.1687,
    "Longitude": -122.5033
  },
  {
    "Name": "Cumming",
    "Address1": "1545 Marketplace Boulevard",
    "Address2": "",
    "City": "Cumming",
    "State": "GA",
    "Postal": "30041",
    "Latitude": 34.2046,
    "Longitude": -84.1003
  },
  {
    "Name": "Santee",
    "Address1": "9918 Mission Gorge Road",
    "Address2": "",
    "City": "Santee",
    "State": "CA",
    "Postal": "92071",
    "Latitude": 32.8524,
    "Longitude": -116.9878
  },
  {
    "Name": "Torrance",
    "Address1": "2595 Pacific Coast Highway",
    "Address2": "",
    "City": "Torrance",
    "State": "CA",
    "Postal": "90505",
    "Latitude": 33.8078,
    "Longitude": -118.348
  },
  {
    "Name": "West Nashville",
    "Address1": "7657 Highway 70 South",
    "Address2": "Suite. 110",
    "City": "Nashville",
    "State": "TN",
    "Postal": "37221",
    "Latitude": 36.0513,
    "Longitude": -86.9688
  },
  {
    "Name": "Totowa",
    "Address1": "545 Route 46",
    "Address2": "",
    "City": "Totowa",
    "State": "NJ",
    "Postal": "7512",
    "Latitude": 40.9034,
    "Longitude": -74.2198
  },
  {
    "Name": "Corvallis",
    "Address1": "1725 NW 9th Street",
    "Address2": "",
    "City": "Corvallis",
    "State": "OR",
    "Postal": "97330",
    "Latitude": 44.648,
    "Longitude": -123.2596
  },
  {
    "Name": "Rancho Santa Margarita",
    "Address1": "22235 El Paseo",
    "Address2": "",
    "City": "Rancho Santa Margarita",
    "State": "CA",
    "Postal": "92688",
    "Latitude": 33.6197,
    "Longitude": -117.6121
  },
  {
    "Name": "Melbourne",
    "Address1": "1555 West New Haven Avenue",
    "Address2": "",
    "City": "West Melbourne",
    "State": "FL",
    "Postal": "32904",
    "Latitude": 28.0665,
    "Longitude": -80.6784
  },
  {
    "Name": "Lewisville",
    "Address1": "420 East FM 3040",
    "Address2": "Suite. 300",
    "City": "Lewisville",
    "State": "TX",
    "Postal": "75067",
    "Latitude": 33.0135,
    "Longitude": -97.0002
  },
  {
    "Name": "Woodbury",
    "Address1": "8250 Tamarack Village",
    "Address2": "",
    "City": "Woodbury",
    "State": "MN",
    "Postal": "55125",
    "Latitude": 44.918,
    "Longitude": -92.9383
  },
  {
    "Name": "Greenville",
    "Address1": "3160 Evans Street",
    "Address2": "Suite. B",
    "City": "Greenville",
    "State": "NC",
    "Postal": "27834",
    "Latitude": 35.6573,
    "Longitude": -77.3792
  },
  {
    "Name": "Orange Park",
    "Address1": "6001-24 Argyle Forest Blvd.",
    "Address2": "",
    "City": "Jacksonville",
    "State": "FL",
    "Postal": "32244",
    "Latitude": 30.1608236,
    "Longitude": -81.8408252
  },
  {
    "Name": "Las Vegas",
    "Address1": "2100 North Rainbow Boulevard",
    "Address2": "Suite. 110",
    "City": "Las Vegas",
    "State": "NV",
    "Postal": "89108",
    "Latitude": 36.2053,
    "Longitude": -115.2236
  },
  {
    "Name": "Skokie",
    "Address1": "5545 W. Touhy Avenue",
    "Address2": "",
    "City": "Skokie",
    "State": "IL",
    "Postal": "60077",
    "Latitude": 42.0347,
    "Longitude": -87.7572
  },
  {
    "Name": "Hyannis",
    "Address1": "621 Iyannough Road",
    "Address2": "",
    "City": "Hyannis",
    "State": "MA",
    "Postal": "2601",
    "Latitude": 41.658,
    "Longitude": -70.2981
  },
  {
    "Name": "Vacaville",
    "Address1": "128 Browns Valley Parkway",
    "Address2": "",
    "City": "Vacaville",
    "State": "CA",
    "Postal": "95688",
    "Latitude": 38.4086,
    "Longitude": -122.0228
  },
  {
    "Name": "Redding",
    "Address1": "1140 Hilltop Drive",
    "Address2": "",
    "City": "Redding",
    "State": "CA",
    "Postal": "96003",
    "Latitude": 40.7519,
    "Longitude": -122.2307
  },
  {
    "Name": "Springfield",
    "Address1": "3308 South Glenstone Avenue",
    "Address2": "",
    "City": "Springfield",
    "State": "MO",
    "Postal": "65804",
    "Latitude": 37.1505,
    "Longitude": -93.2519
  },
  {
    "Name": "East Mesa",
    "Address1": "2039 North Power Road",
    "Address2": "",
    "City": "Mesa",
    "State": "AZ",
    "Postal": "85215",
    "Latitude": 33.5119,
    "Longitude": -111.5794
  },
  {
    "Name": "Metairie",
    "Address1": "4410 Veterans Boulevard",
    "Address2": "",
    "City": "Metairie",
    "State": "LA",
    "Postal": "70006",
    "Latitude": 30.014,
    "Longitude": -90.1913
  },
  {
    "Name": "La Habra",
    "Address1": "1320 South Beach Boulevard",
    "Address2": "",
    "City": "La Habra",
    "State": "CA",
    "Postal": "90631",
    "Latitude": 33.9427,
    "Longitude": -117.9525
  },
  {
    "Name": "Chicago - State & Grand",
    "Address1": "530 North State Street",
    "Address2": "",
    "City": "Chicago",
    "State": "IL",
    "Postal": "60654",
    "Latitude": 41.8923,
    "Longitude": -87.6373
  },
  {
    "Name": "Jackson",
    "Address1": "1132 Jackson Crossing",
    "Address2": "",
    "City": "Jackson",
    "State": "MI",
    "Postal": "49202",
    "Latitude": 42.2672,
    "Longitude": -84.4108
  },
  {
    "Name": "McDonough",
    "Address1": "1898 Jonesboro Road",
    "Address2": "",
    "City": "McDonough",
    "State": "GA",
    "Postal": "30253",
    "Latitude": 33.4489,
    "Longitude": -84.1836
  },
  {
    "Name": "Layton",
    "Address1": "2159 Harris Blvd",
    "Address2": "",
    "City": "Layton",
    "State": "UT",
    "Postal": "84041",
    "Latitude": 41.0698,
    "Longitude": -111.9813
  },
  {
    "Name": "Mequon",
    "Address1": "11110 North Port Washington Road",
    "Address2": "",
    "City": "Mequon",
    "State": "WI",
    "Postal": "53092",
    "Latitude": 43.215,
    "Longitude": -87.9512
  },
  {
    "Name": "Florence",
    "Address1": "2853-C David McLeod Boulevard",
    "Address2": "",
    "City": "Florence",
    "State": "SC",
    "Postal": "29501",
    "Latitude": 34.2059,
    "Longitude": -79.8263
  },
  {
    "Name": "Beavercreek",
    "Address1": "2720 Towne Drive",
    "Address2": "Suite 300",
    "City": "Beavercreek",
    "State": "OH",
    "Postal": "45431",
    "Latitude": 39.7638,
    "Longitude": -84.0842
  },
  {
    "Name": "Corpus Christi",
    "Address1": "4717 South Padre Island Drive",
    "Address2": "Suite. F",
    "City": "Corpus Christi",
    "State": "TX",
    "Postal": "78411",
    "Latitude": 27.7299,
    "Longitude": -97.3852
  },
  {
    "Name": "Summerlin",
    "Address1": "10950 West Charleston Blvd.",
    "Address2": "Suite 170",
    "City": "Summerlin",
    "State": "NV",
    "Postal": "89135",
    "Latitude": 36.101,
    "Longitude": -115.3759
  },
  {
    "Name": "Woodlands",
    "Address1": "1560 Lake Woodlands Drive",
    "Address2": "",
    "City": "The Woodlands",
    "State": "TX",
    "Postal": "77380",
    "Latitude": 30.137,
    "Longitude": -95.4684
  },
  {
    "Name": "Carlsbad",
    "Address1": "1905 Calle Barcelona",
    "Address2": "Suite 100",
    "City": "Carlsbad",
    "State": "CA",
    "Postal": "92009",
    "Latitude": 33.0955,
    "Longitude": -117.2439
  },
  {
    "Name": "Lakeview",
    "Address1": "2838 North Broadway",
    "Address2": "Suite. 1",
    "City": "Chicago",
    "State": "IL",
    "Postal": "60657",
    "Latitude": 41.9403,
    "Longitude": -87.6469
  },
  {
    "Name": "Oceanside",
    "Address1": "3640 Long Beach Road",
    "Address2": "",
    "City": "Oceanside",
    "State": "NY",
    "Postal": "11572",
    "Latitude": 40.6318,
    "Longitude": -73.6366
  },