[
 {
   "Name": "Rockville",
   "Address1": "1683 Rockville Pike",
   "Address2": "",
   "City": "Rockville",
   "State": "MD",
   "Zip Code": 20852,
   "Latitude": null,
   "Longitude": null
 },
 {
   "Name": "Scarsdale",
   "Address1": "1019 Central Park Ave",
   "Address2": "",
   "City": "Scarsdale",
   "State": "NY",
   "Zip Code": 10583,
   "Latitude": null,
   "Longitude": null
 },
 {
   "Name": "Paramus",
   "Address1": "Route 17 North, 34 East Ridgewood Ave",
   "Address2": "",
   "City": "Paramus",
   "State": "NJ",
   "Zip Code": 7652,
   "Latitude": null,
   "Longitude": null
 },
 {
   "Name": "Huntington",
   "Address1": "350 Route 110",
   "Address2": "",
   "City": "Huntington",
   "State": "NY",
   "Zip Code": 11746,
   "Latitude": null,
   "Longitude": null
 },
 {
   "Name": "Westbury",
   "Address1": "895 East Gate Boulevard",
   "Address2": "",
   "City": "Garden City",
   "State": "NY",
   "Zip Code": 11530,
   "Latitude": null,
   "Longitude": null
 },
 {
   "Name": "Totowa",
   "Address1": "545 Route 46 West",
   "Address2": "",
   "City": "Totowa",
   "State": "NJ",
   "Zip Code": 7512,
   "Latitude": null,
   "Longitude": null
 },
 {
   "Name": "Manhattan",
   "Address1": "270 Seventh Ave",
   "Address2": "",
   "City": "New York",
   "State": "NY",
   "Zip Code": 10001,
   "Latitude": null,
   "Longitude": null
 },
 {
   "Name": "Springfield",
   "Address1": "6398 Springfield Plaza",
   "Address2": "",
   "City": "Springfield",
   "State": "VA",
   "Zip Code": 22150,
   "Latitude": null,
   "Longitude": null
 },
 {
   "Name": "Downers Grove",
   "Address1": "1556 Butterfield Road",
   "Address2": "",
   "City": "Downers Grove",
   "State": "IL",
   "Zip Code": 60515,
   "Latitude": null,
   "Longitude": null
 },
 {
   "Name": "Cherry Hill",
   "Address1": "1590 Kings Highway North",
   "Address2": "",
   "City": "Cherry Hill",
   "State": "NJ",
   "Zip Code": 8034,
   "Latitude": null,
   "Longitude": null
 },
 {
   "Name": "Utica",
   "Address1": "13361 Hall Road Suite 102",
   "Address2": "",
   "City": "Utica",
   "State": "MI",
   "Zip Code": 48315,
   "Latitude": null,
   "Longitude": null
 },
 {
   "Name": "Canton",
   "Address1": "42595 Ford Road",
   "Address2": "",
   "City": "Canton",
   "State": "MI",
   "Zip Code": 48187,
   "Latitude": null,
   "Longitude": null
 },
 {
   "Name": "Columbus",
   "Address1": "3749 Easton Market",
   "Address2": "",
   "City": "Columbus",
   "State": "OH",
   "Zip Code": 43219,
   "Latitude": null,
   "Longitude": null
 },
 {
   "Name": "Henrietta",
   "Address1": "790 Jefferson Rd Suite 300",
   "Address2": "",
   "City": "Henrietta",
   "State": "NY",
   "Zip Code": 14623,
   "Latitude": null,
   "Longitude": null
 },
 {
   "Name": "Coral Springs",
   "Address1": "2035 N. University Drive",
   "Address2": "",
   "City": "Coral Springs",
   "State": "FL",
   "Zip Code": 33071,
   "Latitude": null,
   "Longitude": null
 },
 {
   "Name": "Greenwood",
   "Address1": "1230 N. US 31 Suite A",
   "Address2": "",
   "City": "Greenwood",
   "State": "IN",
   "Zip Code": 46142,
   "Latitude": null,
   "Longitude": null
 },
 {
   "Name": "Schaumburg",
   "Address1": "580 E. Golf Road",
   "Address2": "",
   "City": "Schaumburg",
   "State": "IL",
   "Zip Code": 60173,
   "Latitude": null,
   "Longitude": null
 },
 {
   "Name": "Austin",
   "Address1": "5400 Brodie Lane Suite 400",
   "Address2": "",
   "City": "Austin",
   "State": "TX",
   "Zip Code": 78745,
   "Latitude": null,
   "Longitude": null
 },
 {
   "Name": "Augusta Exchange",
   "Address1": "242 Robert C. Daniels Jr. Parkway",
   "Address2": "",
   "City": "Augusta",
   "State": "GA",
   "Zip Code": 30909,
   "Latitude": null,
   "Longitude": null
 },
 {
   "Name": "Batavia",
   "Address1": "301 North Randall Road",
   "Address2": "",
   "City": "Batavia",
   "State": "IL",
   "Zip Code": 60510,
   "Latitude": null,
   "Longitude": null
 },
 {
   "Name": "Plano",
   "Address1": "2712 N. Central Expressway",
   "Address2": "",
   "City": "Plano",
   "State": "TX",
   "Zip Code": 75074,
   "Latitude": null,
   "Longitude": null
 },
 {
   "Name": "Chandler",
   "Address1": "2640 W. Chandler Blvd.",
   "Address2": "",
   "City": "Chandler",
   "State": "AZ",
   "Zip Code": 85224,
   "Latitude": null,
   "Longitude": null
 },
 {
   "Name": "Scottsdale",
   "Address1": "10080 N. 90th Street",
   "Address2": "",
   "City": "Scottsdale",
   "State": "AZ",
   "Zip Code": 85258,
   "Latitude": null,
   "Longitude": null
 },
 {
   "Name": "Carolina Pavilion",
   "Address1": "9555 South Blvd.",
   "Address2": "",
   "City": "Charlotte",
   "State": "NC",
   "Zip Code": 28273,
   "Latitude": null,
   "Longitude": null
 },
 {
   "Name": "Flagler Park Plaza",
   "Address1": "8241 West Flagler St Suite 100",
   "Address2": "",
   "City": "Miami",
   "State": "FL",
   "Zip Code": 33144,
   "Latitude": null,
   "Longitude": null
 },
 {
   "Name": "Whitehall",
   "Address1": "1915 Whitehall Mall",
   "Address2": "",
   "City": "Whitehall",
   "State": "PA",
   "Zip Code": 18052,
   "Latitude": null,
   "Longitude": null
 },
 {
   "Name": "Addison",
   "Address1": "13900 Dallas Parkway",
   "Address2": "",
   "City": "Dallas",
   "State": "TX",
   "Zip Code": 75240,
   "Latitude": null,
   "Longitude": null
 },
 {
   "Name": "Nashua",
   "Address1": "213 Daniel Webster Highway",
   "Address2": "",
   "City": "Nashua",
   "State": "NH",
   "Zip Code": 3060,
   "Latitude": null,
   "Longitude": null
 },
 {
   "Name": "Brandon",
   "Address1": "11345 Causeway Blvd",
   "Address2": "",
   "City": "Brandon",
   "State": "FL",
   "Zip Code": 33511,
   "Latitude": null,
   "Longitude": null
 },
 {
   "Name": "Durham",
   "Address1": "5430 New Hope Commons Drive",
   "Address2": "",
   "City": "Durham",
   "State": "NC",
   "Zip Code": 27707,
   "Latitude": null,
   "Longitude": null
 },
 {
   "Name": "Hoover",
   "Address1": "4351 Creekside Ave",
   "Address2": "",
   "City": "Hoover",
   "State": "AL",
   "Zip Code": 35244,
   "Latitude": null,
   "Longitude": null
 },
 {
   "Name": "Greenville",
   "Address1": "1125 Woodruff Road Suite 600",
   "Address2": "",
   "City": "Greenville",
   "State": "SC",
   "Zip Code": 29607,
   "Latitude": null,
   "Longitude": null
 },
 {
   "Name": "Alpharetta",
   "Address1": "7121 North Point Parkway",
   "Address2": "",
   "City": "Alpharetta",
   "State": "GA",
   "Zip Code": 30022,
   "Latitude": null,
   "Longitude": null
 },
 {
   "Name": "Almaden Plaza",
   "Address1": "5353 Almaden Expressway Suite A 100",
   "Address2": "",
   "City": "San Jose",
   "State": "CA",
   "Zip Code": 95118,
   "Latitude": null,
   "Longitude": null
 },
 {
   "Name": "Columbia",
   "Address1": "238 Harbison Blvd",
   "Address2": "",
   "City": "Columbia",
   "State": "SC",
   "Zip Code": 29212,
   "Latitude": null,
   "Longitude": null
 },
 {
   "Name": "Colonie",
   "Address1": "1440 Central Avenue",
   "Address2": "",
   "City": "Colonie",
   "State": "NY",
   "Zip Code": 12205,
   "Latitude": null,
   "Longitude": null
 },
 {
   "Name": "Bridgewater",
   "Address1": "711 Route 28",
   "Address2": "",
   "City": "Bridgewater",
   "State": "NJ",
   "Zip Code": 8807,
   "Latitude": null,
   "Longitude": null
 },
 {
   "Name": "Brookfield",
   "Address1": "665 Main Street",
   "Address2": "",
   "City": "Brookfield",
   "State": "WI",
   "Zip Code": 53005,
   "Latitude": null,
   "Longitude": null
 },
 {
   "Name": "Frisco",
   "Address1": "2930 Preston Road Suite 600",
   "Address2": "",
   "City": "Frisco",
   "State": "TX",
   "Zip Code": 75034,
   "Latitude": null,
   "Longitude": null
 },
 {
   "Name": "Crystal Lake",
   "Address1": "5540 Northwest Highway",
   "Address2": "",
   "City": "Crystal Lake",
   "State": "IL",
   "Zip Code": 60014,
   "Latitude": null,
   "Longitude": null
 },
 {
   "Name": "Orland Park",
   "Address1": "290 Orland Park Place",
   "Address2": "",
   "City": "Orland Park",
   "State": "IL",
   "Zip Code": 60462,
   "Latitude": null,
   "Longitude": null
 },
 {
   "Name": "Lexington",
   "Address1": "2321 Sir Barton Way Suite 110",
   "Address2": "",
   "City": "Lexington",
   "State": "KY",
   "Zip Code": 40509,
   "Latitude": null,
   "Longitude": null
 },
 {
   "Name": "Temecula",
   "Address1": "40438 Winchester Road",
   "Address2": "",
   "City": "Temecula",
   "State": "CA",
   "Zip Code": 92591,
   "Latitude": null,
   "Longitude": null
 },
 {
   "Name": "Deerfield Towne Center",
   "Address1": "5255 Deerfield Blvd",
   "Address2": "",
   "City": "Mason",
   "State": "OH",
   "Zip Code": 45040,
   "Latitude": null,
   "Longitude": null
 },
 {
   "Name": "Valencia",
   "Address1": "24267 Magic Mountain Parkway",
   "Address2": "",
   "City": "Santa Clarita",
   "State": "CA",
   "Zip Code": 91355,
   "Latitude": null,
   "Longitude": null
 },
 {
   "Name": "Christiana",
   "Address1": "501 West Main Street",
   "Address2": "",
   "City": "Newark",
   "State": "DE",
   "Zip Code": 19702,
   "Latitude": null,
   "Longitude": null
 },
 {
   "Name": "Grand Rapids",
   "Address1": "4100 28th Street SE",
   "Address2": "",
   "City": "Kentwood",
   "State": "MI",
   "Zip Code": 49512,
   "Latitude": null,
   "Longitude": null
 },
 {
   "Name": "Riverpark",
   "Address1": "7458 North Blackstone Avenue",
   "Address2": "",
   "City": "Fresno",
   "State": "CA",
   "Zip Code": 93720,
   "Latitude": null,
   "Longitude": null
 },
 {
   "Name": "Pembroke Pines",
   "Address1": "11350-11360 Pines Blvd",
   "Address2": "",
   "City": "Pembroke Pines",
   "State": "FL",
   "Zip Code": 33026,
   "Latitude": null,
   "Longitude": null
 },
 {
   "Name": "Morrisville",
   "Address1": "3121 Market Center Drive",
   "Address2": "",
   "City": "Morrisville",
   "State": "NC",
   "Zip Code": 27560,
   "Latitude": null,
   "Longitude": null
 },
 {
   "Name": "Rivers Edge",
   "Address1": "4030 East 82nd Street",
   "Address2": "",
   "City": "Indianapolis",
   "State": "IN",
   "Zip Code": 46250,
   "Latitude": null,
   "Longitude": null
 },
 {
   "Name": "Hurst",
   "Address1": "1451 West Pipeline Road",
   "Address2": "",
   "City": "Hurst",
   "State": "TX",
   "Zip Code": 76053,
   "Latitude": null,
   "Longitude": null
 },
 {
   "Name": "Tulsa",
   "Address1": "10017 East 71st Street",
   "Address2": "",
   "City": "Tulsa",
   "State": "OK",
   "Zip Code": 74133,
   "Latitude": null,
   "Longitude": null
 },
 {
   "Name": "Hulen",
   "Address1": "4648 SW Loop 820",
   "Address2": "",
   "City": "Fort Worth",
   "State": "TX",
   "Zip Code": 76109,
   "Latitude": null,
   "Longitude": null
 },
 {
   "Name": "Pleasant Hill",
   "Address1": "3250 Buskirk Avenue Suite 300-A",
   "Address2": "",
   "City": "Pleasant Hill",
   "State": "CA",
   "Zip Code": 94523,
   "Latitude": null,
   "Longitude": null
 },
 {
   "Name": "Snellville",
   "Address1": "1670 Scenic Hwy N Suite 124",
   "Address2": "",
   "City": "Snellville",
   "State": "GA",
   "Zip Code": 30078,
   "Latitude": null,
   "Longitude": null
 },
 {
   "Name": "Overland Park",
   "Address1": "12055 Metcalf Avenue",
   "Address2": "",
   "City": "Overland Park",
   "State": "KS",
   "Zip Code": 66213,
   "Latitude": null,
   "Longitude": null
 },
 {
   "Name": "Elk Grove",
   "Address1": "7621 Laguna Blvd",
   "Address2": "",
   "City": "Elk Grove",
   "State": "CA",
   "Zip Code": 95758,
   "Latitude": null,
   "Longitude": null
 },
 {
   "Name": "Port Chester",
   "Address1": "441 Boston Post Road",
   "Address2": "",
   "City": "Port Chester",
   "State": "NY",
   "Zip Code": 10573,
   "Latitude": null,
   "Longitude": null
 },
 {
   "Name": "Braintree",
   "Address1": "160 Granite Street",
   "Address2": "",
   "City": "Braintree",
   "State": "MA",
   "Zip Code": 2184,
   "Latitude": null,
   "Longitude": null
 },
 {
   "Name": "Farmington Hills",
   "Address1": "30995 Orchard Lake Road",
   "Address2": "",
   "City": "Farmington Hills",
   "State": "MI",
   "Zip Code": 48334,
   "Latitude": null,
   "Longitude": null
 },
 {
   "Name": "Independence",
   "Address1": "20000 East Jackson Drive",
   "Address2": "",
   "City": "Independence",
   "State": "MO",
   "Zip Code": 64057,
   "Latitude": null,
   "Longitude": null
 },
 {
   "Name": "Encinitas",
   "Address1": "1014 N. El Camino Real",
   "Address2": "",
   "City": "Encinitas",
   "State": "CA",
   "Zip Code": 92024,
   "Latitude": null,
   "Longitude": null
 },
 {
   "Name": "Naperville",
   "Address1": "324 S. Route 59",
   "Address2": "",
   "City": "Naperville",
   "State": "IL",
   "Zip Code": 60540,
   "Latitude": null,
   "Longitude": null
 },
 {
   "Name": "Woodbury",
   "Address1": "9160 Hudson Road",
   "Address2": "",
   "City": "Woodbury",
   "State": "MN",
   "Zip Code": 55125,
   "Latitude": null,
   "Longitude": null
 },
 {
   "Name": "Sandy",
   "Address1": "10230 South State Street",
   "Address2": "",
   "City": "Sandy",
   "State": "UT",
   "Zip Code": 84070,
   "Latitude": null,
   "Longitude": null
 },
 {
   "Name": "Webster",
   "Address1": "19801 Gulf Freeway Ste 800",
   "Address2": "",
   "City": "Webster",
   "State": "TX",
   "Zip Code": 77598,
   "Latitude": null,
   "Longitude": null
 },
 {
   "Name": "Princeton",
   "Address1": "601 Nassau Park Blvd.",
   "Address2": "",
   "City": "Princeton",
   "State": "NJ",
   "Zip Code": 8540,
   "Latitude": null,
   "Longitude": null
 },
 {
   "Name": "Lincoln Park",
   "Address1": "1419 N. Kingsbury Street",
   "Address2": "",
   "City": "Chicago",
   "State": "IL",
   "Zip Code": 60642,
   "Latitude": null,
   "Longitude": null
 },
 {
   "Name": "Ballwin",
   "Address1": "15355A Manchester Road",
   "Address2": "",
   "City": "Ballwin",
   "State": "MO",
   "Zip Code": 63011,
   "Latitude": null,
   "Longitude": null
 },
 {
   "Name": "Jacksonville",
   "Address1": "8801 Southside Blvd Unit 10",
   "Address2": "",
   "City": "Jacksonville",
   "State": "FL",
   "Zip Code": 32256,
   "Latitude": null,
   "Longitude": null
 },
 {
   "Name": "Altamonte Springs",
   "Address1": " 130 E Altamonte Drive Suite 1000",
   "Address2": "",
   "City": "Altamonte Springs",
   "State": "FL",
   "Zip Code": 32701,
   "Latitude": null,
   "Longitude": null
 },
 {
   "Name": "West Des Moines",
   "Address1": "4100 University Ave Suite 115",
   "Address2": "",
   "City": "West Des Moines",
   "State": "IA",
   "Zip Code": 50266,
   "Latitude": null,
   "Longitude": null
 },
 {
   "Name": "Royal Palm Beach",
   "Address1": "550 North State Road 7",
   "Address2": "",
   "City": "Royal Palm Beach",
   "State": "FL",
   "Zip Code": 33411,
   "Latitude": null,
   "Longitude": null
 },
 {
   "Name": "Torrance",
   "Address1": "3700 West Torrance Blvd.",
   "Address2": "",
   "City": "Torrance",
   "State": "CA",
   "Zip Code": 90503,
   "Latitude": null,
   "Longitude": null
 },
 {
   "Name": "Tucson",
   "Address1": "7475 North La Cholla Blvd.",
   "Address2": "",
   "City": "Tucson",
   "State": "AZ",
   "Zip Code": 85741,
   "Latitude": null,
   "Longitude": null
 },
 {
   "Name": "West Long Branch",
   "Address1": "310 Rt. 36",
   "Address2": "",
   "City": "West Long Branch",
   "State": "NJ",
   "Zip Code": 7764,
   "Latitude": null,
   "Longitude": null
 },
 {
   "Name": "Rockaway",
   "Address1": "327 Mount Hope Ave Suite 1003",
   "Address2": "",
   "City": "Rockaway",
   "State": "NJ",
   "Zip Code": 7866,
   "Latitude": null,
   "Longitude": null
 },
 {
   "Name": "Amherst",
   "Address1": "1261 Niagara Falls Boulevard, #1",
   "Address2": "",
   "City": "Amherst",
   "State": "NY",
   "Zip Code": 14226,
   "Latitude": null,
   "Longitude": null
 },
 {
   "Name": "Mission Viejo",
   "Address1": "25322 El Paseo",
   "Address2": "",
   "City": "Mission Viejo",
   "State": "CA",
   "Zip Code": 92691,
   "Latitude": null,
   "Longitude": null
 },
 {
   "Name": "Fredericksburg",
   "Address1": "1320 Carl D Silver Parkway Suite 100",
   "Address2": "",
   "City": "Fredericksburg",
   "State": "VA",
   "Zip Code": 22401,
   "Latitude": null,
   "Longitude": null
 },
 {
   "Name": "Knoxville",
   "Address1": "202 Morell Road",
   "Address2": "",
   "City": "Knoxville",
   "State": "TN",
   "Zip Code": 37919,
   "Latitude": null,
   "Longitude": null
 },
 {
   "Name": "Roseville",
   "Address1": "1120 Galleria Blvd Suite 160",
   "Address2": "",
   "City": "Roseville",
   "State": "CA",
   "Zip Code": 95678,
   "Latitude": null,
   "Longitude": null
 },
 {
   "Name": "Maplewood",
   "Address1": "3200 Laclede Station, Suite D",
   "Address2": "",
   "City": "St. Louis",
   "State": "MO",
   "Zip Code": 63143,
   "Latitude": null,
   "Longitude": null
 },
 {
   "Name": "Lancaster",
   "Address1": "2350 Lincoln Highway East Suite 100",
   "Address2": "",
   "City": "Lancaster",
   "State": "PA",
   "Zip Code": 17602,
   "Latitude": null,
   "Longitude": null
 },
 {
   "Name": "Westminster",
   "Address1": "7225 W. 88th Avenue",
   "Address2": "",
   "City": "Westminster",
   "State": "CO",
   "Zip Code": 80021,
   "Latitude": null,
   "Longitude": null
 },
 {
   "Name": "Gurnee Mills",
   "Address1": "6132 Grand Ave.",
   "Address2": "",
   "City": "Gurnee",
   "State": "IL",
   "Zip Code": 60031,
   "Latitude": null,
   "Longitude": null
 },
 {
   "Name": "",
   "Address1": "",
   "Address2": "",
   "City": "",
   "State": "",
   "Zip Code": null,
   "Latitude": null,
   "Longitude": null
 },
 {
   "Name": "",
   "Address1": "",
   "Address2": "",
   "City": "",
   "State": "",
   "Zip Code": null,
   "Latitude": null,
   "Longitude": null
 },
 {
   "Name": "",
   "Address1": "",
   "Address2": "",
   "City": "",
   "State": "",
   "Zip Code": null,
   "Latitude": null,
   "Longitude": null
 },
 {
   "Name": "",
   "Address1": "",
   "Address2": "",
   "City": "",
   "State": "",
   "Zip Code": null,
   "Latitude": null,
   "Longitude": null
 },
 {
   "Name": "",
   "Address1": "",
   "Address2": "",
   "City": "",
   "State": "",
   "Zip Code": null,
   "Latitude": null,
   "Longitude": null
 },
 {
   "Name": "",
   "Address1": "",
   "Address2": "",
   "City": "",
   "State": "",
   "Zip Code": null,
   "Latitude": null,
   "Longitude": null
 },
 {
   "Name": "",
   "Address1": "",
   "Address2": "",
   "City": "",
   "State": "",
   "Zip Code": null,
   "Latitude": null,
   "Longitude": null
 },
 {
   "Name": "",
   "Address1": "",
   "Address2": "",
   "City": "",
   "State": "",
   "Zip Code": null,
   "Latitude": null,
   "Longitude": null
 },
 {
   "Name": "",
   "Address1": "",
   "Address2": "",
   "City": "",
   "State": "",
   "Zip Code": null,
   "Latitude": null,
   "Longitude": null
 },
 {
   "Name": "",
   "Address1": "",
   "Address2": "",
   "City": "",
   "State": "",
   "Zip Code": null,
   "Latitude": null,
   "Longitude": null
 },
 {
   "Name": "",
   "Address1": "",
   "Address2": "",
   "City": "",
   "State": "",
   "Zip Code": null,
   "Latitude": null,
   "Longitude": null
 },
 {
   "Name": "",
   "Address1": "",
   "Address2": "",
   "City": "",
   "State": "",
   "Zip Code": null,
   "Latitude": null,
   "Longitude": null
 },
 {
   "Name": "",
   "Address1": "",
   "Address2": "",
   "City": "",
   "State": "",
   "Zip Code": null,
   "Latitude": null,
   "Longitude": null
 }
]