[
  {
    "Name": "ALBERTVILLE",
    "Address1": "6500 Labeaux Avenue, N.E.",
    "Address2": "Suite #G090",
    "City": "Albertville",
    "State": "MN",
    "Postal": "55301",
    "Latitude": 45.2486,
    "Longitude": -93.6598
  },
  {
    "Name": "CAMARILLO",
    "Address1": "950 Camarillo Center Drive",
    "Address2": "Suite #958",
    "City": "Camarillo",
    "State": "CA",
    "Postal": "93010",
    "Latitude": 34.2279,
    "Longitude": -119.0796
  },
  {
    "Name": "FLEMINGTON",
    "Address1": "85 Church Street",
    "Address2": null,
    "City": "Flemington",
    "State": "NJ",
    "Postal": "08822",
    "Latitude": 40.5251,
    "Longitude": -74.8653
  },
  {
    "Name": "GILROY ",
    "Address1": "8300 Arroyo Circle",
    "Address2": "Space #B-250",
    "City": "Gilroy",
    "State": "CA",
    "Postal": "95020",
    "Latitude": 37.0184,
    "Longitude": -121.5542
  },
  {
    "Name": "JACKSON",
    "Address1": "537 Monmouth Road",
    "Address2": "Suite #130",
    "City": "Jackson",
    "State": "NJ",
    "Postal": "08527",
    "Latitude": 40.1087,
    "Longitude": -74.3586
  },
  {
    "Name": "LAS VEGAS",
    "Address1": "805 Grand Central Parkway",
    "Address2": "Suite #1909",
    "City": "Las Vegas",
    "State": "NV",
    "Postal": "89106",
    "Latitude": 36.1817,
    "Longitude": -115.1632
  },
  {
    "Name": "WRENTHAM",
    "Address1": "1 Premium Outlets Boulevard",
    "Address2": "Suite #570",
    "City": "Wrentham",
    "State": "MA",
    "Postal": "02093",
    "Latitude": 42.0527,
    "Longitude": -71.3569
  },
  {
    "Name": "CABAZON",
    "Address1": "48659 Seminole Drive",
    "Address2": "Suite #182",
    "City": "Cabazon",
    "State": "CA",
    "Postal": "92230",
    "Latitude": 33.9104,
    "Longitude": -116.7657
  },
  {
    "Name": "CLINTON",
    "Address1": "20-A Killingworth Turnpike",
    "Address2": "Suite #320",
    "City": "Clinton",
    "State": "CT",
    "Postal": "06413",
    "Latitude": 41.2956,
    "Longitude": -72.5291
  },
  {
    "Name": "SECAUCUS",
    "Address1": "30 Enterprise Avenue",
    "Address2": null,
    "City": "Secaucus",
    "State": "NJ",
    "Postal": "07094",
    "Latitude": 40.7819,
    "Longitude": -74.0676
  },
  {
    "Name": "SUNRISE",
    "Address1": "12801 W. Sunrise Boulevard",
    "Address2": "Suite #4070",
    "City": "Sunrise",
    "State": "FL",
    "Postal": "33323",
    "Latitude": 26.1517,
    "Longitude": -80.321
  },
  {
    "Name": "CHICAGO",
    "Address1": "1650 Premium Outlet Boulevard",
    "Address2": "Suite #1175",
    "City": "Aurora",
    "State": "IL",
    "Postal": "60502",
    "Latitude": 41.7907,
    "Longitude": -88.2597
  },
  {
    "Name": "MICHIGAN CITY",
    "Address1": "1003 Lighthouse Place",
    "Address2": null,
    "City": "Michigan City",
    "State": "IN",
    "Postal": "46360",
    "Latitude": 41.6893,
    "Longitude": -86.8693
  },
  {
    "Name": "NAPLES",
    "Address1": "10801 Corkscrew Road",
    "Address2": "Suite #401",
    "City": "Estero",
    "State": "FL",
    "Postal": "33928",
    "Latitude": 26.399,
    "Longitude": -81.7047
  },
  {
    "Name": "DESTIN",
    "Address1": "10562 Emeralds Coast Parkway W.",
    "Address2": "Suite #88",
    "City": "Destin",
    "State": "FL",
    "Postal": "32550",
    "Latitude": 30.3849,
    "Longitude": -86.3455
  },
  {
    "Name": "AURORA",
    "Address1": "549 South Chillicothe Road",
    "Address2": "Suite #105",
    "City": "Aurora",
    "State": "OH",
    "Postal": "44202",
    "Latitude": 41.3151,
    "Longitude": -81.3383
  },
  {
    "Name": "HARRIMAN ",
    "Address1": "650A Race Track Lane",
    "Address2": null,
    "City": "Central Valley",
    "State": "NY",
    "Postal": "10917",
    "Latitude": 41.3196,
    "Longitude": -74.1176
  },
  {
    "Name": "LEESBURG",
    "Address1": "241 Fort Evans Road, N.E.",
    "Address2": "Suite #345",
    "City": "Leesburg",
    "State": "VA",
    "Postal": "20176",
    "Latitude": 39.1847,
    "Longitude": -77.5441
  },
  {
    "Name": "TANNERSVILLE",
    "Address1": "1000 Premium Outlets Drive",
    "Address2": "Suite #B09",
    "City": "Tannersville",
    "State": "PA",
    "Postal": "18372",
    "Latitude": 41.0439,
    "Longitude": -75.3363
  },
  {
    "Name": "RIVERHEAD",
    "Address1": "607 Tanger Mall Drive",
    "Address2": "Suite #607",
    "City": "Riverhead",
    "State": "NY",
    "Postal": "11901",
    "Latitude": 40.9269,
    "Longitude": -72.6435
  },
  {
    "Name": "RIVERHEAD",
    "Address1": "17780 West Main Street",
    "Address2": "Suite #607",
    "City": "Riverhead",
    "State": "NY",
    "Postal": "11901",
    "Latitude": 40.9269,
    "Longitude": -72.6435
  },
  {
    "Name": "OSAGE BEACH",
    "Address1": "4540 Osage Beach Parkway",
    "Address2": "Suite #R-1",
    "City": "Osage Beach",
    "State": "MO",
    "Postal": "65065",
    "Latitude": 38.1349,
    "Longitude": -92.6628
  },
  {
    "Name": "ORLANDO",
    "Address1": "5265 International Drive",
    "Address2": "Suite D&E",
    "City": "Orlando",
    "State": "FL",
    "Postal": "32819",
    "Latitude": 28.4534,
    "Longitude": -81.4723
  },
  {
    "Name": "WAIPAHU",
    "Address1": "94-798 Lumiaina Street",
    "Address2": "Suite #401",
    "City": "Waipahu",
    "State": "HI",
    "Postal": "96797",
    "Latitude": 21.4364163,
    "Longitude": -158.1856859
  },
  {
    "Name": " N. MYRTLE BEACH",
    "Address1": "10843 Kings Road",
    "Address2": "Suite #200",
    "City": "Myrtle Beach",
    "State": "SC",
    "Postal": "29572",
    "Latitude": 33.7725,
    "Longitude": -78.7857
  },
  {
    "Name": "ORLANDO",
    "Address1": "8200 Vineland Avenue",
    "Address2": "Suite #1025",
    "City": "Orlando",
    "State": "FL",
    "Postal": "32821",
    "Latitude": 28.382,
    "Longitude": -81.4796
  },
  {
    "Name": "ELLENTON",
    "Address1": "5579 Factory Shops Boulevard",
    "Address2": "Space #300",
    "City": "Ellenton",
    "State": "FL",
    "Postal": "34222",
    "Latitude": 27.539,
    "Longitude": -82.507
  },
  {
    "Name": "REHOBOTH",
    "Address1": "36454 Seaside Outlet Drive",
    "Address2": "Suite #1700",
    "City": "Rehoboth Beach",
    "State": "DE",
    "Postal": "19971",
    "Latitude": 38.686,
    "Longitude": -75.0866
  },
  {
    "Name": "VERO BEACH",
    "Address1": "1852-94th Drive",
    "Address2": "Suite #B-170",
    "City": "Vero Beach",
    "State": "FL",
    "Postal": "32966",
    "Latitude": 27.6835,
    "Longitude": -80.7077
  },
  {
    "Name": "GENEVA",
    "Address1": "655 Route 318",
    "Address2": "Space #B057",
    "City": "Waterloo",
    "State": "NY",
    "Postal": "13165",
    "Latitude": 42.9166,
    "Longitude": -76.8833
  },
  {
    "Name": "CARLSBAD",
    "Address1": "5620 Paseo Del Norte",
    "Address2": "Space #104C",
    "City": "Carlsbad",
    "State": "CA",
    "Postal": "92008",
    "Latitude": 33.1473,
    "Longitude": -117.3222
  },
  {
    "Name": "VACAVILLE",
    "Address1": "374 Nut Tree Road",
    "Address2": null,
    "City": "Vacaville",
    "State": "CA",
    "Postal": "95687",
    "Latitude": 38.3331,
    "Longitude": -121.9202
  },
  {
    "Name": "ONTARIO",
    "Address1": "1 Mills Circle",
    "Address2": "Space #820",
    "City": "Ontario",
    "State": "CA",
    "Postal": "91764",
    "Latitude": 34.0741,
    "Longitude": -117.6056
  },
  {
    "Name": "LANCASTER",
    "Address1": "311 Stanley K. Tanger Boulevard",
    "Address2": "Space #611",
    "City": "Lancaster",
    "State": "PA",
    "Postal": "17602",
    "Latitude": 40.0146,
    "Longitude": -76.2464
  },
  {
    "Name": "NIAGARA FALLS",
    "Address1": "1814 Military Road",
    "Address2": "Space #30",
    "City": "Niagara Falls",
    "State": "NY",
    "Postal": "14304",
    "Latitude": 43.0994,
    "Longitude": -78.952
  },
  {
    "Name": "BIRCH RUN",
    "Address1": "12150 South Beyer Road",
    "Address2": "Space #F240",
    "City": "Birch Run",
    "State": "MI",
    "Postal": "48415",
    "Latitude": 43.2719,
    "Longitude": -83.8081
  },
  {
    "Name": "KITTERY",
    "Address1": "294 US Route #1",
    "Address2": "Space #K150",
    "City": "Kittery ",
    "State": "ME",
    "Postal": "03904",
    "Latitude": 0,
    "Longitude": 0
  },
  {
    "Name": "HAGERSTOWN",
    "Address1": "600 Premium Outlets Boulevard",
    "Address2": null,
    "City": "Hagerstown",
    "State": "MD",
    "Postal": "21740",
    "Latitude": 39.6319,
    "Longitude": -77.7439
  },
  {
    "Name": "ALLEN",
    "Address1": "820 W. Stacy Road",
    "Address2": "Suite #131",
    "City": "Allen ",
    "State": "TX",
    "Postal": "75013",
    "Latitude": 33.1143,
    "Longitude": -96.694
  },
  {
    "Name": "DAWSONVILLE",
    "Address1": "800 Highway 400 S.",
    "Address2": "Space #1030",
    "City": "Dawsonville",
    "State": "GA",
    "Postal": "30534",
    "Latitude": 34.4311,
    "Longitude": -84.1443
  },
  {
    "Name": "NAPA",
    "Address1": "705 Factory Stores Drive",
    "Address2": null,
    "City": "Napa",
    "State": "CA",
    "Postal": "94558",
    "Latitude": 38.442,
    "Longitude": -122.2383
  },
  {
    "Name": "PARK CITY",
    "Address1": "6699 North Landmark Drive",
    "Address2": "Space C#-100",
    "City": "Park City",
    "State": "UT",
    "Postal": "84098",
    "Latitude": 40.7337,
    "Longitude": -111.5333
  },
  {
    "Name": "ST. AUGUSTINE",
    "Address1": "2700 State Road 16",
    "Address2": "Suite #314",
    "City": "St. Augustine",
    "State": "FL",
    "Postal": "32092",
    "Latitude": 29.9394,
    "Longitude": -81.5082
  },
  {
    "Name": "MARYSVILLE",
    "Address1": "10600 Quil Ceda Boulevard",
    "Address2": "Suite #430",
    "City": "Tulalip",
    "State": "WA",
    "Postal": "98271",
    "Latitude": 48.09,
    "Longitude": -122.2377
  },
  {
    "Name": "HERSHEY",
    "Address1": "135 Outlet Square",
    "Address2": null,
    "City": "Hershey",
    "State": "PA",
    "Postal": "17033",
    "Latitude": 40.2718,
    "Longitude": -76.6376
  },
  {
    "Name": "JOHNSON CREEK",
    "Address1": "622 W. Linmar Lane",
    "Address2": "Space #D-130",
    "City": "Johnson Creek",
    "State": "WI",
    "Postal": "53038",
    "Latitude": 43.0843,
    "Longitude": -88.7877
  },
  {
    "Name": "WOODBURN",
    "Address1": "1001 Arney Road",
    "Address2": "Suite #202",
    "City": "Woodburn",
    "State": "OR",
    "Postal": "97071",
    "Latitude": 45.1342,
    "Longitude": -122.8265
  },
  {
    "Name": "LAS VEGAS",
    "Address1": "7400 S Las Vegas Boulevard",
    "Address2": "Suite #16",
    "City": "Las Vegas",
    "State": "NV",
    "Postal": "89123",
    "Latitude": 36.0352,
    "Longitude": -115.1488
  },
  {
    "Name": "WILLIAMSBURG",
    "Address1": "5715-70 Richmond Road",
    "Address2": null,
    "City": "Williamsburg",
    "State": "VA",
    "Postal": "23188",
    "Latitude": 37.3557953,
    "Longitude": -76.9100173
  },
  {
    "Name": "SAN MARCOS",
    "Address1": "3939 IH-35 South",
    "Address2": "Space #1390",
    "City": "San Marcos",
    "State": "TX",
    "Postal": "78666",
    "Latitude": 29.8802,
    "Longitude": -97.9662
  },
  {
    "Name": "TULARE",
    "Address1": "1709 Retherford Street",
    "Address2": "Suite #E020",
    "City": "Tulare",
    "State": "CA",
    "Postal": "93274",
    "Latitude": 36.1781,
    "Longitude": -119.3708
  },
  {
    "Name": "ATLANTIC CITY",
    "Address1": "2008 Atlantic Avenue",
    "Address2": "Space #805",
    "City": "Atlantic City",
    "State": "NJ",
    "Postal": "08401",
    "Latitude": 39.3773,
    "Longitude": -74.4511
  },
  {
    "Name": "CANOVANAS",
    "Address1": "18400 State Road # 3",
    "Address2": "Building 3, Suite #310",
    "City": "Canovanas",
    "State": "PR",
    "Postal": "00729",
    "Latitude": 0,
    "Longitude": 0
  },
  {
    "Name": "SAN YSIDRO",
    "Address1": "4125 Camino De La Plaza",
    "Address2": "Space #116",
    "City": "San Diego",
    "State": "CA",
    "Postal": "92173",
    "Latitude": 32.553,
    "Longitude": -117.0425
  },
  {
    "Name": "FOLSOM",
    "Address1": "13000 Folsom Boulevard",
    "Address2": "Space #502",
    "City": "Folsom",
    "State": "CA",
    "Postal": "95630",
    "Latitude": 38.6666,
    "Longitude": -121.1416
  },
  {
    "Name": "EDINBURGH",
    "Address1": "11955 North East Executive Drive",
    "Address2": "Space #H010",
    "City": "Edinburgh",
    "State": "IN",
    "Postal": "46124",
    "Latitude": 39.37,
    "Longitude": -85.9278
  },
  {
    "Name": "CITY OF COMMERCE",
    "Address1": "100 Citadel Drive",
    "Address2": "Space #602",
    "City": "City of Commerce",
    "State": "CA",
    "Postal": "90040",
    "Latitude": 33.9945,
    "Longitude": -118.15
  },
  {
    "Name": "SILVERTHORNE",
    "Address1": "167-A Wilderness Road",
    "Address2": null,
    "City": "Silverthorne",
    "State": "CO",
    "Postal": "80498",
    "Latitude": 39.8049138,
    "Longitude": -106.0769355
  },
  {
    "Name": "FT. MYERS",
    "Address1": "20350 Summerlin Road",
    "Address2": "Suite #32120",
    "City": "Ft. Myers",
    "State": "FL",
    "Postal": "33908",
    "Latitude": 26.5158,
    "Longitude": -81.9795
  },
  {
    "Name": "BALTIMORE",
    "Address1": "7000 Arundel Mills Circle",
    "Address2": "Space #248",
    "City": "Hanover",
    "State": "MD",
    "Postal": "21076",
    "Latitude": 39.1685,
    "Longitude": -76.7163
  },
  {
    "Name": "KENOSHA",
    "Address1": "11601 108th Street",
    "Address2": "Suite #597",
    "City": "Pleasant Prairie",
    "State": "WI",
    "Postal": "53158",
    "Latitude": 42.5244,
    "Longitude": -87.8854
  },
  {
    "Name": "MILPITAS",
    "Address1": "540 Great Mall Drive",
    "Address2": null,
    "City": "Milpitas",
    "State": "CA",
    "Postal": "95035",
    "Latitude": 37.4443,
    "Longitude": -121.8689
  },
  {
    "Name": "ROUND ROCK",
    "Address1": "4401 N. IH-35",
    "Address2": "Suite #499",
    "City": "Round Rock",
    "State": "TX",
    "Postal": "78664",
    "Latitude": 30.5019,
    "Longitude": -97.6473
  },
  {
    "Name": "QUEENSTOWN",
    "Address1": "121 Outlet Center Drive",
    "Address2": null,
    "City": "Queenstown",
    "State": "MD",
    "Postal": "21658",
    "Latitude": 38.9455,
    "Longitude": -76.1431
  },
  {
    "Name": "LEE",
    "Address1": "300 Premium Outlets Boulevard",
    "Address2": null,
    "City": "Lee",
    "State": "MA",
    "Postal": "01238",
    "Latitude": 42.2975,
    "Longitude": -73.23
  },
  {
    "Name": "SAN MARCOS",
    "Address1": "4015 Interstate 35 South",
    "Address2": "Suite #507",
    "City": "San Marcos",
    "State": "TX",
    "Postal": "78666",
    "Latitude": 29.8802,
    "Longitude": -97.9662
  },
  {
    "Name": "BARCELONETA",
    "Address1": "1 Premium Outlet Boulevard",
    "Address2": "Space #445",
    "City": "Barceloneta",
    "State": "PR",
    "Postal": "00617",
    "Latitude": 18.4451,
    "Longitude": -66.5597
  },
  {
    "Name": "MERCEDES",
    "Address1": "5001 East Expressway 83",
    "Address2": "Suite #441",
    "City": "Mercedes",
    "State": "TX",
    "Postal": "78570",
    "Latitude": 26.1746,
    "Longitude": -97.9127
  },
  {
    "Name": "GROVE CITY",
    "Address1": "Intersection of I-78 & Route 208",
    "Address2": "Suite #245",
    "City": "Grove City",
    "State": "PA",
    "Postal": "16127",
    "Latitude": 41.173,
    "Longitude": -80.0729
  },
  {
    "Name": "NEW RIVER",
    "Address1": "4250 West Anthem Way",
    "Address2": "Suite #100",
    "City": "Phoenix",
    "State": "AZ",
    "Postal": "85086",
    "Latitude": 33.8161,
    "Longitude": -112.12
  },
  {
    "Name": "ORLANDO",
    "Address1": "4693 International Drive",
    "Address2": "Suite 2B-15",
    "City": "Orlando",
    "State": "FL",
    "Postal": "32819",
    "Latitude": 28.4534,
    "Longitude": -81.4723
  },
  {
    "Name": "PISMO BEACH",
    "Address1": "333 Five Cities Drive",
    "Address2": "Suite #105",
    "City": "Pismo Beach",
    "State": "CA",
    "Postal": "93449",
    "Latitude": 35.1657,
    "Longitude": -120.6558
  },
  {
    "Name": "BARSTOW",
    "Address1": "2796 Tanger Way",
    "Address2": null,
    "City": "Barstow",
    "State": "CA",
    "Postal": "92311",
    "Latitude": 34.9803,
    "Longitude": -116.9644
  },
  {
    "Name": "PHILADELPHIA",
    "Address1": "18 Lightcap Road",
    "Address2": "Suite #1199",
    "City": "Pottstown",
    "State": "PA",
    "Postal": "19464",
    "Latitude": 40.2588,
    "Longitude": -75.6159
  },
  {
    "Name": "CASTLEROCK",
    "Address1": "505 Factory Shops Boulevard",
    "Address2": "Suite #940",
    "City": "Castle Rock",
    "State": "CO",
    "Postal": "80108",
    "Latitude": 39.4455,
    "Longitude": -104.853
  },
  {
    "Name": "CYPRESS",
    "Address1": "29300 Hempstead Road",
    "Address2": "Suite #601",
    "City": "Cypress",
    "State": "TX",
    "Postal": "77433",
    "Latitude": 29.9344,
    "Longitude": -95.7476
  },
  {
    "Name": "DEER PARK",
    "Address1": "1358 The Arches Circle",
    "Address2": null,
    "City": "Deer Park ",
    "State": "NY",
    "Postal": "11729",
    "Latitude": 40.7611,
    "Longitude": -73.3253
  },
  {
    "Name": "TINTON FALLS",
    "Address1": "1 Premium Outlet Boulevard",
    "Address2": "Suite #501",
    "City": "Tinton Falls",
    "State": "NJ",
    "Postal": "07753",
    "Latitude": 40.2149,
    "Longitude": -74.0789
  },
  {
    "Name": "MIAMI",
    "Address1": "14401 N.W. 12th Street",
    "Address2": "Suite #170",
    "City": "Miami",
    "State": "FL",
    "Postal": "33172",
    "Latitude": 25.7869,
    "Longitude": -80.3613
  },
  {
    "Name": "FREEPORT",
    "Address1": "One Freeport Village Station",
    "Address2": "Suite #360N",
    "City": "Freeport",
    "State": "ME",
    "Postal": "04032",
    "Latitude": 43.8448,
    "Longitude": -70.09
  },
  {
    "Name": "CAMARILLO",
    "Address1": "740 Ventura Boulevard",
    "Address2": "Suite #410",
    "City": "Camarillo",
    "State": "CA",
    "Postal": "93010",
    "Latitude": 34.2279,
    "Longitude": -119.0796
  },
  {
    "Name": "MONROE",
    "Address1": "207 Premium Outlet Drive",
    "Address2": null,
    "City": "Monroe",
    "State": "OH",
    "Postal": "45050",
    "Latitude": 39.4454,
    "Longitude": -84.3592
  },
  {
    "Name": "PRINCE WILLIAM",
    "Address1": "2700 Potomac Mills Circle",
    "Address2": "Suite #969",
    "City": "Woodbridge",
    "State": "VA",
    "Postal": "22192",
    "Latitude": 38.6837,
    "Longitude": -77.3147
  },
  {
    "Name": "KATY",
    "Address1": "5000 Katy Mills Circle",
    "Address2": "Suite #358",
    "City": "Katy Mills",
    "State": "TX",
    "Postal": "77494",
    "Latitude": 29.7407,
    "Longitude": -95.8297
  },
  {
    "Name": "GILROY ",
    "Address1": "8375 Arroyo Circle",
    "Address2": "Suite #45",
    "City": "Gilroy",
    "State": "CA",
    "Postal": "95020",
    "Latitude": 37.0184,
    "Longitude": -121.5542
  },
  {
    "Name": "GENEVA",
    "Address1": "655 Route 318",
    "Address2": "Suite #210",
    "City": "Waterloo",
    "State": "NY",
    "Postal": "13165",
    "Latitude": 42.9166,
    "Longitude": -76.8833
  },
  {
    "Name": "VACAVILLE",
    "Address1": "311 Nut Tree Road",
    "Address2": "Suite G",
    "City": "Vacaville",
    "State": "CA",
    "Postal": "95687",
    "Latitude": 38.3331,
    "Longitude": -121.9202
  },
  {
    "Name": "MERCEDES",
    "Address1": "5001 East Expressway 83",
    "Address2": "Suite #208",
    "City": "Mercedes",
    "State": "TX",
    "Postal": "78570",
    "Latitude": 26.1746,
    "Longitude": -97.9127
  },
  {
    "Name": "LAS VEGAS",
    "Address1": "7400 Las Vegas Boulevard S.",
    "Address2": "Suite #26A",
    "City": "Las Vegas",
    "State": "NV",
    "Postal": "89123",
    "Latitude": 36.0352,
    "Longitude": -115.1488
  },
  {
    "Name": "AUBURN HILLS",
    "Address1": "4172 Baldwin Road",
    "Address2": "Suite #408",
    "City": "Auburn Hills",
    "State": "MI",
    "Postal": "48326",
    "Latitude": 42.6882,
    "Longitude": -83.2441
  },
  {
    "Name": "ORANGE",
    "Address1": "20 City Boulevard West",
    "Address2": "Suite #511",
    "City": "Orange",
    "State": "CA",
    "Postal": "92868",
    "Latitude": 33.7881,
    "Longitude": -117.8766
  },
  {
    "Name": "NASHVILLE",
    "Address1": "248 Opry Mills Drive",
    "Address2": "Space #652",
    "City": "Nashville",
    "State": "TN",
    "Postal": "37214",
    "Latitude": 36.1622,
    "Longitude": -86.6709
  },
  {
    "Name": "MERRIMACK",
    "Address1": "80 Premium Outlets Boulevard",
    "Address2": "Suite #491",
    "City": "Merrimack",
    "State": "NH",
    "Postal": "03054",
    "Latitude": 42.8519,
    "Longitude": -71.5199
  },
  {
    "Name": "LEHI",
    "Address1": "3700 N. Cabelas Boulevard",
    "Address2": "Suite #270",
    "City": "Lehi",
    "State": "UT",
    "Postal": "84043",
    "Latitude": 40.4108,
    "Longitude": -111.8768
  },
  {
    "Name": "LIVERMORE",
    "Address1": "2650 Livermore Outlets Drive",
    "Address2": null,
    "City": "Livermore",
    "State": "CA",
    "Postal": "94551",
    "Latitude": 37.7505,
    "Longitude": -121.7491
  },
  {
    "Name": "TEXAS CITY",
    "Address1": "5885 Gulf Freeway",
    "Address2": "Suite #245",
    "City": "Texas City",
    "State": "TX",
    "Postal": "77591",
    "Latitude": 29.3995,
    "Longitude": -94.9969
  },
  {
    "Name": "LAKE BUENA VISTA",
    "Address1": "15733 South Apopka Vineland Road",
    "Address2": null,
    "City": "Orlando",
    "State": "FL",
    "Postal": "32821",
    "Latitude": 28.382,
    "Longitude": -81.4796
  },
  {
    "Name": "BARRIGADA",
    "Address1": "199 Chalan San Antonio",
    "Address2": "Suite #105",
    "City": "Barrigada",
    "State": "GU",
    "Postal": "96913",
    "Latitude": 13.4778,
    "Longitude": 144.8145
  },
  {
    "Name": "GLENDALE",
    "Address1": "6800 N. 95 Avenue",
    "Address2": "Suite #895",
    "City": "Glendale",
    "State": "AZ",
    "Postal": "85305",
    "Latitude": 33.5317,
    "Longitude": -112.2561
  },
  {
    "Name": "CHANDLER",
    "Address1": "4976 Premium Outlets Way",
    "Address2": "Suite #602",
    "City": "Chandler",
    "State": "AZ",
    "Postal": "85226",
    "Latitude": 33.2522,
    "Longitude": -112.0103
  },
  {
    "Name": "ROSEMONT",
    "Address1": "5220 Fashion Outlet Way",
    "Address2": "Suite #2235",
    "City": "Rosemont",
    "State": "IL",
    "Postal": "60018",
    "Latitude": 41.9794,
    "Longitude": -87.8944
  },
  {
    "Name": "LAHAINA",
    "Address1": "900 Front Street",
    "Address2": "Suite #C-2",
    "City": "Lahaina",
    "State": "HI",
    "Postal": "96761",
    "Latitude": 20.8973,
    "Longitude": -156.6134
  },
  {
    "Name": "NATIONAL HARBOR",
    "Address1": "6800 Oxon Hill Road",
    "Address2": "Suite #480",
    "City": "National Harbor",
    "State": "MD",
    "Postal": "20745",
    "Latitude": 38.8069,
    "Longitude": -76.9957
  },
  {
    "Name": "ELIZABETH ",
    "Address1": "651 Kapkowski Road",
    "Address2": "Suite #1448",
    "City": "Elizabeth",
    "State": "NJ",
    "Postal": "07201",
    "Latitude": 40.689,
    "Longitude": -74.1654
  },
  {
    "Name": "FLORIDA CITY",
    "Address1": "250 East Palm Drive",
    "Address2": "Suite #430",
    "City": "Florida City",
    "State": "FL",
    "Postal": "33034",
    "Latitude": 25.2743,
    "Longitude": -80.6326
  },
  {
    "Name": "WEST PALM BEACH",
    "Address1": "1771 Palm Beach Lakes Boulevard",
    "Address2": "Suite #W301",
    "City": "West Palm Beach",
    "State": "FL",
    "Postal": "33401",
    "Latitude": 26.7158,
    "Longitude": -80.0702
  },
  {
    "Name": "PRIMM",
    "Address1": "32100 S. Las Vegas Boulevard",
    "Address2": "Suite #222",
    "City": "Primm",
    "State": "NV",
    "Postal": "89019",
    "Latitude": 35.7664,
    "Longitude": -115.7353
  },
  {
    "Name": "CHESTERFIELD",
    "Address1": "18533 Outlet Boulevard",
    "Address2": "Suite #130",
    "City": "Chesterfield",
    "State": "MO",
    "Postal": "63005",
    "Latitude": 38.6442,
    "Longitude": -90.6514
  },
  {
    "Name": "GRAND PRAIRIE",
    "Address1": "2950 West Interstate 20",
    "Address2": "Suite #615",
    "City": "Grand Prairie",
    "State": "TX",
    "Postal": "75052",
    "Latitude": 32.665,
    "Longitude": -97.0247
  },
  {
    "Name": "LEBEC",
    "Address1": "5701 Outlets at Tejon Parkway",
    "Address2": "Suite #950",
    "City": "Arvin",
    "State": "CA",
    "Postal": "93203",
    "Latitude": 35.1126,
    "Longitude": -118.8323
  },
  {
    "Name": "EAGAN",
    "Address1": "3905 Eagan Outlets  Parkway",
    "Address2": "Suite #615",
    "City": "Eagan",
    "State": "MN",
    "Postal": "55122",
    "Latitude": 44.8068,
    "Longitude": -93.2015
  },
  {
    "Name": "GOLDEN",
    "Address1": "14500 W Colfax Avenue",
    "Address2": "Space #180",
    "City": "Lakewood",
    "State": "CO",
    "Postal": "80401",
    "Latitude": 39.7187,
    "Longitude": -105.236
  },
  {
    "Name": "FOXWOODS",
    "Address1": "455 Trolley Line Boulevard",
    "Address2": "Suite #880",
    "City": "Mashantucket",
    "State": "CT",
    "Postal": "06338",
    "Latitude": 41.35,
    "Longitude": -72.09
  },
  {
    "Name": "GRAND RAPIDS",
    "Address1": "350 84th Street SW",
    "Address2": "Suite #950",
    "City": "Byron Center",
    "State": "MI",
    "Postal": "49315",
    "Latitude": 42.8037,
    "Longitude": -85.7422
  },
  {
    "Name": "SAN CLEMENTE",
    "Address1": "101 West Avenida Vista Hermosa",
    "Address2": "Suite #400",
    "City": "San Clemente",
    "State": "CA",
    "Postal": "92672",
    "Latitude": 33.4241,
    "Longitude": -117.6068
  },
  {
    "Name": "GLOUCESTER",
    "Address1": "100 Premium Outlets Drive",
    "Address2": "Suite #880",
    "City": "Blackwood",
    "State": "NJ",
    "Postal": "08012",
    "Latitude": 39.7838,
    "Longitude": -75.0561
  },
  {
    "Name": "TUCSON",
    "Address1": "6401 West Marana Center Boulevard",
    "Address2": "Suite #101",
    "City": "Tucson",
    "State": "AZ",
    "Postal": "85742",
    "Latitude": 32.3937,
    "Longitude": -111.0654
  },
  {
    "Name": "TAMPA",
    "Address1": "2350 Grand Cypress Drive",
    "Address2": "Suite #501",
    "City": "Lutz",
    "State": "FL",
    "Postal": "33559",
    "Latitude": 28.161,
    "Longitude": -82.4147
  },
  {
    "Name": "COLUMBUS",
    "Address1": "400 South Wilson Road",
    "Address2": "Suite #960",
    "City": "Sunbury",
    "State": "OH",
    "Postal": "43074",
    "Latitude": 40.2695,
    "Longitude": -82.8507
  },
  {
    "Name": "CLARKSBURG",
    "Address1": "22705 Clarksburg Road",
    "Address2": "Suite #130",
    "City": "Clarksburg",
    "State": "MD",
    "Postal": "20871",
    "Latitude": 39.2613,
    "Longitude": -77.2825
  },
  {
    "Name": "PHILADELPHIA",
    "Address1": "1889 Franklin Mills Circle",
    "Address2": null,
    "City": "Philadelphia",
    "State": "PA",
    "Postal": "19154",
    "Latitude": 40.0965,
    "Longitude": -74.9832
  },
  {
    "Name": "CHICAGO ",
    "Address1": "1650 Premium Outlets Boulevard",
    "Address2": "Suite #1129",
    "City": "Aurora",
    "State": "IL",
    "Postal": "60502",
    "Latitude": 41.7907,
    "Longitude": -88.2597
  },
  {
    "Name": "DAWSONVILLE",
    "Address1": "800 Highway 400 S.",
    "Address2": "Suite #425",
    "City": "Dawsonville",
    "State": "GA",
    "Postal": "30534",
    "Latitude": 34.4311,
    "Longitude": -84.1443
  },
  {
    "Name": "NORFOLK",
    "Address1": "1600 Premium Outlets Boulevard",
    "Address2": "Suite #865",
    "City": "Norfolk",
    "State": "VA",
    "Postal": "23502",
    "Latitude": 36.8609,
    "Longitude": -76.2049
  },
  {
    "Name": "ELIZABETH",
    "Address1": "651 Kapkowski Road",
    "Address2": "Suite #120",
    "City": "Elizabeth",
    "State": "NJ",
    "Postal": "07201",
    "Latitude": 40.689,
    "Longitude": -74.1654
  },
  {
    "Name": "CITY OF COMMERCE ",
    "Address1": "100 Citadel Drive",
    "Address2": "Suite #452",
    "City": "City of Commerce",
    "State": "CA",
    "Postal": "90040",
    "Latitude": 33.9945,
    "Longitude": -118.15
  },
  {
    "Name": "BETHLEHEM",
    "Address1": "77 Sands Boulevard",
    "Address2": "Suite #203",
    "City": "Bethlehem",
    "State": "PA",
    "Postal": "18015",
    "Latitude": 40.5859,
    "Longitude": -75.3672
  },
  {
    "Name": "CARLSBAD ",
    "Address1": "5630 Paseo Del Norte",
    "Address2": "Suite #114D",
    "City": "Carlsbad",
    "State": "CA",
    "Postal": "92008",
    "Latitude": 33.1473,
    "Longitude": -117.3222
  },
  {
    "Name": "SUNRISE ",
    "Address1": "12801 West Sunrise Boulevard",
    "Address2": "Space #725",
    "City": "Sunrise",
    "State": "FL",
    "Postal": "33323",
    "Latitude": 26.1517,
    "Longitude": -80.321
  },
  {
    "Name": "NIAGARA FALLS",
    "Address1": "1940 Military Road",
    "Address2": "Suite #104",
    "City": "Niagara Falls",
    "State": "NY",
    "Postal": "14304",
    "Latitude": 43.0994,
    "Longitude": -78.952
  },
  {
    "Name": "MERCEDES ",
    "Address1": "5001 East Expressway 83",
    "Address2": "Suite #431",
    "City": "Mercedes",
    "State": "TX",
    "Postal": "78570",
    "Latitude": 26.1746,
    "Longitude": -97.9127
  },
  {
    "Name": "LEESBURG",
    "Address1": "241 Fort Evans Road",
    "Address2": "Suite #1325",
    "City": "Leesburg",
    "State": "VA",
    "Postal": "20176",
    "Latitude": 39.1847,
    "Longitude": -77.5441
  },
  {
    "Name": "ELLENTON ",
    "Address1": "5387 Factory Shops Boulevard",
    "Address2": "Space #570",
    "City": "Ellenton",
    "State": "FL",
    "Postal": "34222",
    "Latitude": 27.539,
    "Longitude": -82.507
  },
  {
    "Name": "NAPLES ",
    "Address1": "10801 Corkscrew Road",
    "Address2": "Suite #411",
    "City": "Estero",
    "State": "FL",
    "Postal": "33928",
    "Latitude": 26.399,
    "Longitude": -81.7047
  },
  {
    "Name": "ORLANDO ",
    "Address1": "4953 International Drive",
    "Address2": "Space #2A03",
    "City": "Orlando",
    "State": "FL",
    "Postal": "32819",
    "Latitude": 28.4534,
    "Longitude": -81.4723
  },
  {
    "Name": "ORANGE",
    "Address1": "20 City Boulevard West",
    "Address2": "Suite #610",
    "City": "Orange",
    "State": "CA",
    "Postal": "92868",
    "Latitude": 33.7881,
    "Longitude": -117.8766
  },
  {
    "Name": "MIAMI",
    "Address1": "11401 NW 12th Street",
    "Address2": "Suite #346",
    "City": "Miami",
    "State": "FL",
    "Postal": "33172",
    "Latitude": 25.7869,
    "Longitude": -80.3613
  },
  {
    "Name": "ONTARIO",
    "Address1": "4410 E Mills Boulevard",
    "Address2": "Suite #1070",
    "City": "Ontario",
    "State": "CA",
    "Postal": "91764",
    "Latitude": 34.0741,
    "Longitude": -117.6056
  },
  {
    "Name": "WOODBURN",
    "Address1": "1001 Arney Road",
    "Address2": "Suite #912",
    "City": "Woodburn",
    "State": "OR",
    "Postal": "97071",
    "Latitude": 45.1342,
    "Longitude": -122.8265
  },
  {
    "Name": "ROSEMONT",
    "Address1": "5220 Fashion Outlet Way",
    "Address2": "Space #2177",
    "City": "Rosemont",
    "State": "IL",
    "Postal": "60018",
    "Latitude": 41.9794,
    "Longitude": -87.8944
  },
  {
    "Name": "LIVERMORE",
    "Address1": "2740 Livermore Outlets Dr",
    "Address2": "Suite #726",
    "City": "Livermore",
    "State": "CA",
    "Postal": "94551",
    "Latitude": 37.7505,
    "Longitude": -121.7491
  },
  {
    "Name": "EL PASO",
    "Address1": "7051 South Desert Boulevard",
    "Address2": "Suite #E581",
    "City": "Canutillo",
    "State": "TX",
    "Postal": "79835",
    "Latitude": 31.9364,
    "Longitude": -106.5897
  },
  {
    "Name": "DAWSONVILLE",
    "Address1": "800 Highway 400 S.",
    "Address2": "Suite #925",
    "City": "Dawsonville",
    "State": "GA",
    "Postal": "30534",
    "Latitude": 34.4311,
    "Longitude": -84.1443
  },
  {
    "Name": "MONTRï¿½AL",
    "Address1": "999 Rue Marchï¿½ Cï¿½ntral",
    "Address2": "Suite #C5",
    "City": "Montrï¿½al",
    "State": "QC",
    "Postal": "H4N 1J8",
    "Latitude": 0,
    "Longitude": 0
  },
  {
    "Name": "MISSISSAUGA",
    "Address1": "775 Britannia Road",
    "Address2": "Suite #3B",
    "City": "Mississauga",
    "State": "ON",
    "Postal": "L5V 2Y1",
    "Latitude": 0,
    "Longitude": 0
  },
  {
    "Name": "TORONTO",
    "Address1": "1800 Sheppard Avenue East, P.O. Box 62",
    "Address2": null,
    "City": "Toronto",
    "State": "ON",
    "Postal": "M2J 5A7",
    "Latitude": 39.7139,
    "Longitude": -89.6297
  },
  {
    "Name": "MORGAN CROSSING",
    "Address1": "15765 Croydon Drive",
    "Address2": "Suite #D102",
    "City": "Surrey",
    "State": "BC",
    "Postal": "V3Z 2L6",
    "Latitude": 40.9117,
    "Longitude": -90.4681
  },
  {
    "Name": "ROCKY VIEW",
    "Address1": "261055 Cross Iron Boulevard",
    "Address2": "Suite #664",
    "City": "Rocky View",
    "State": "AB",
    "Postal": "T4A 0G3",
    "Latitude": 0,
    "Longitude": 0
  },
  {
    "Name": "VAUGHAN MILLS",
    "Address1": "1 Bass Pro Mills Drive",
    "Address2": "CRU A3",
    "City": "Vaughan",
    "State": "ON",
    "Postal": "L4K 5W4",
    "Latitude": 37.9014,
    "Longitude": -87.6303
  },
  {
    "Name": "SOUTH EDMONTON",
    "Address1": "9769-19 Avenue",
    "Address2": null,
    "City": "Edmonton",
    "State": "AB",
    "Postal": "T6N 1N5",
    "Latitude": 36.98,
    "Longitude": -85.6122
  },
  {
    "Name": "Mï¿½GA CENTRE",
    "Address1": "2452 Autoroute Chomedey (A-13 O)",
    "Address2": "Unit #26E",
    "City": "Laval",
    "State": "QC",
    "Postal": "H7X 4G8",
    "Latitude": 0,
    "Longitude": 0
  },
  {
    "Name": "BROSSARD",
    "Address1": "9160 Leduc",
    "Address2": "Suite #1402",
    "City": "Brossard",
    "State": "QC",
    "Postal": "J4Y 0L2",
    "Latitude": 0,
    "Longitude": 0
  },
  {
    "Name": "QUEENSBOROUGH LANDING",
    "Address1": "805 Boyd Street",
    "Address2": "Unite #E150",
    "City": "New Westminster",
    "State": "BC",
    "Postal": "V3M 5X2",
    "Latitude": 0,
    "Longitude": 0
  },
  {
    "Name": "HALTON HILLS",
    "Address1": "13850 Steeles Avenue, West",
    "Address2": "Suite #424",
    "City": "Halton Hills",
    "State": "ON",
    "Postal": "L7G 0J1",
    "Latitude": 0,
    "Longitude": 0
  },
  {
    "Name": "LE BOURGNEUF",
    "Address1": "200D-5700 Des Gradins Boulevard",
    "Address2": null,
    "City": "Quï¿½bec City",
    "State": "QC",
    "Postal": "G2J 1R7",
    "Latitude": 0,
    "Longitude": 0
  },
  {
    "Name": "NIAGARA-ON-THE-LAKE",
    "Address1": "300 Taylor Road",
    "Address2": "CRU #611",
    "City": "Niagara-on-the-lake",
    "State": "ON",
    "Postal": "L0S1J0",
    "Latitude": 0,
    "Longitude": 0
  },
  {
    "Name": "COOKSTOWN",
    "Address1": "3311 Simcoe Road 89",
    "Address2": "Unit #F90",
    "City": "Cookstown",
    "State": "ON",
    "Postal": "L0L1L0",
    "Latitude": 40.0489,
    "Longitude": -74.5628
  },
  {
    "Name": "KANATA",
    "Address1": "8555 Campeau Drive",
    "Address2": "Suite #600",
    "City": "Ottawa",
    "State": "ON",
    "Postal": "K2T0K5",
    "Latitude": 41.7672,
    "Longitude": -83.5214
  },
  {
    "Name": "LAC MIRABEL",
    "Address1": "19001 Chemin Notre-Dame",
    "Address2": "Suite #421",
    "City": "Mirabel",
    "State": "QC",
    "Postal": "J7J0R6",
    "Latitude": 0,
    "Longitude": 0
  },
  {
    "Name": "SCARBOROUGH",
    "Address1": "300 Borough Drive",
    "Address2": "Suite #18",
    "City": "Scarbourough",
    "State": "ON",
    "Postal": "M1P4P5",
    "Latitude": 0,
    "Longitude": 0
  },
  {
    "Name": "RICHMOND",
    "Address1": "7899 Templeton Road",
    "Address2": "Space #5-6",
    "City": "Richmond",
    "State": "BC",
    "Postal": "V7B 0B7",
    "Latitude": 37.4635,
    "Longitude": -77.4752
  },
  {
    "Name": "NIAGARA-ON-THE-LAKE",
    "Address1": "300 Taylor Road",
    "Address2": "CRU #409",
    "City": "Niagara-on-the-lake",
    "State": "ON",
    "Postal": "L0S 1J0",
    "Latitude": 0,
    "Longitude": 0
  },
  {
    "Name": "TSAWWASSEN",
    "Address1": "5000 Canoe Passway",
    "Address2": "CRU #517",
    "City": "Tsawwassen",
    "State": "BC",
    "Postal": "V4M 0B3",
    "Latitude": 0,
    "Longitude": 0
  },
  {
    "Name": "HALTON HILLS",
    "Address1": "13850 Steeles Ave., West",
    "Address2": "Suite #307",
    "City": "Halton Hills",
    "State": "ON",
    "Postal": "L7G 0J1",
    "Latitude": 0,
    "Longitude": 0
  },
  {
    "Name": "WINNIPEG",
    "Address1": "555 Sterling Lyon Parkway",
    "Address2": "CRU #238",
    "City": "Winnipeg",
    "State": "MB",
    "Postal": "R3P1E9",
    "Latitude": 37.6044,
    "Longitude": -92.3019
  },
  {
    "Name": "MISSISSAUGA",
    "Address1": "1250 South Service Road",
    "Address2": "CRU #21",
    "City": "Mississauga",
    "State": "ON",
    "Postal": "L5E1V4",
    "Latitude": 0,
    "Longitude": 0
  },
  {
    "Name": "PARAMUS",
    "Address1": "One Garden State Plaza Way",
    "Address2": "Space #2338",
    "City": "Paramus",
    "State": "NJ",
    "Postal": "07652",
    "Latitude": 40.9473,
    "Longitude": -74.0702
  },
  {
    "Name": "DADELAND",
    "Address1": "7535 N. Kendall Drive",
    "Address2": "Space 1840",
    "City": "Kendall",
    "State": "FL",
    "Postal": "33156",
    "Latitude": 25.6682,
    "Longitude": -80.297
  },
  {
    "Name": "GEORGETOWN ",
    "Address1": "3207 M. Street Northwest",
    "Address2": null,
    "City": "Washington",
    "State": "DC",
    "Postal": "20007",
    "Latitude": 38.9144,
    "Longitude": -77.0793
  },
  {
    "Name": "LOUISVILLE",
    "Address1": "7601 Trade Port Drive",
    "Address2": null,
    "City": "Louisville",
    "State": "KY",
    "Postal": "40258",
    "Latitude": 38.1462,
    "Longitude": -85.8779
  },
  {
    "Name": "COSTA MESA",
    "Address1": "3333 Bristol Street",
    "Address2": "Suite #302",
    "City": "Costa Mesa",
    "State": "CA",
    "Postal": "92626",
    "Latitude": 33.6796,
    "Longitude": -117.9085
  },
  {
    "Name": "AVENTURA",
    "Address1": "19501 Biscayne Boulevard",
    "Address2": "Suite #3037",
    "City": "Aventura",
    "State": "FL",
    "Postal": "33180",
    "Latitude": 25.9604,
    "Longitude": -80.1431
  },
  {
    "Name": "GLENDALE",
    "Address1": "250 Americana Way",
    "Address2": "Suite #B-2",
    "City": "Glendale",
    "State": "CA",
    "Postal": "91210",
    "Latitude": 34.1445,
    "Longitude": -118.2565
  },
  {
    "Name": "MIAMI",
    "Address1": "11401 NW 12th Street",
    "Address2": "Suite #164",
    "City": "Miami",
    "State": "FL",
    "Postal": "33172",
    "Latitude": 25.7869,
    "Longitude": -80.3613
  },
  {
    "Name": "CAMARILLO ",
    "Address1": "910 Camarillo Center Drive",
    "Address2": "Suite #824",
    "City": "Camarillo",
    "State": "CA",
    "Postal": "93010",
    "Latitude": 34.2279,
    "Longitude": -119.0796
  },
  {
    "Name": "ELIZABETH",
    "Address1": "651 Kapkowski Road",
    "Address2": "Suite #1402",
    "City": "Elizabeth",
    "State": "NJ",
    "Postal": "07201",
    "Latitude": 40.689,
    "Longitude": -74.1654
  },
  {
    "Name": "CHICAGO ",
    "Address1": "1650 Premium Outlets Boulevard",
    "Address2": "Suite #225",
    "City": "Aurora",
    "State": "IL",
    "Postal": "60502",
    "Latitude": 41.7907,
    "Longitude": -88.2597
  },
  {
    "Name": "MILPITAS ",
    "Address1": "447 Great Mall Drive",
    "Address2": "Suite #534",
    "City": "Milpitas",
    "State": "CA",
    "Postal": "95035",
    "Latitude": 37.4443,
    "Longitude": -121.8689
  },
  {
    "Name": "BARRIGADA",
    "Address1": "199 Chalan San Antonio",
    "Address2": "Suite #120",
    "City": "Barrigada",
    "State": "GU",
    "Postal": "96913",
    "Latitude": 13.4778,
    "Longitude": 144.8145
  },
  {
    "Name": "ORLANDO ",
    "Address1": "4973 International Drive",
    "Address2": "Suite #3F-57",
    "City": "Orlando",
    "State": "FL",
    "Postal": "32819",
    "Latitude": 28.4534,
    "Longitude": -81.4723
  },
  {
    "Name": "SAN YSIDRO",
    "Address1": "4245 Camino de la Plaza",
    "Address2": "Suite #300",
    "City": "San Diego",
    "State": "CA",
    "Postal": "92173",
    "Latitude": 32.553,
    "Longitude": -117.0425
  },
  {
    "Name": "HOUSTON ",
    "Address1": "29300 Hempstead Road",
    "Address2": "Suite #807",
    "City": "Cypress",
    "State": "TX",
    "Postal": "77433",
    "Latitude": 29.9344,
    "Longitude": -95.7476
  },
  {
    "Name": "LIVERMORE",
    "Address1": "3020 Livermore Outlets Drive",
    "Address2": null,
    "City": "Livermore",
    "State": "CA",
    "Postal": "94551",
    "Latitude": 37.7505,
    "Longitude": -121.7491
  },
  {
    "Name": "ORLANDO",
    "Address1": "8200 Vineland Avenue",
    "Address2": "Suite #160",
    "City": "Orlando",
    "State": "FL",
    "Postal": "32821",
    "Latitude": 28.382,
    "Longitude": -81.4796
  },
  {
    "Name": "WAIPAHU ",
    "Address1": "94-796 Lumiana Street",
    "Address2": "Suite #310",
    "City": "Waipahu",
    "State": "HI",
    "Postal": "96797",
    "Latitude": 21.4364163,
    "Longitude": -158.1856859
  },
  {
    "Name": "BLOOR ST",
    "Address1": "110 Bloor Street West",
    "Address2": null,
    "City": "Toronto",
    "State": "ON",
    "Postal": "M5S 2W7",
    "Latitude": 39.7139,
    "Longitude": -89.6297
  },
  {
    "Name": "PROMENADE ",
    "Address1": "1 Promenade Circle",
    "Address2": "Unit 224B",
    "City": "Thornhill",
    "State": "ON",
    "Postal": "L4J 2J1",
    "Latitude": 32.6881,
    "Longitude": -87.9322
  },
  {
    "Name": "RBC PLAZA ",
    "Address1": "200 Bay Street",
    "Address2": "Unit UC 131",
    "City": "Toronto",
    "State": "ON",
    "Postal": "M5J 2J1",
    "Latitude": 39.7139,
    "Longitude": -89.6297
  },
  {
    "Name": "DON MILLS ",
    "Address1": "15 Marie Labatte Road",
    "Address2": "Units F001/F001A",
    "City": "Toronto",
    "State": "ON",
    "Postal": "M3C 0J1",
    "Latitude": 39.7139,
    "Longitude": -89.6297
  },
  {
    "Name": "RIDEAU CENTRE ",
    "Address1": "50 Rideau Street",
    "Address2": "Unit 350",
    "City": "Ottawa",
    "State": "ON",
    "Postal": "K1N 9J7",
    "Latitude": 41.7672,
    "Longitude": -83.5214
  },
  {
    "Name": "*WAREHOUSE FOR:CK #027, 080, 324, 708, 711",
    "Address1": "7505 Exchange Drive",
    "Address2": null,
    "City": "Orlando",
    "State": "FL",
    "Postal": "32809",
    "Latitude": 28.4621,
    "Longitude": -81.386
  },
  {
    "Name": "*WAREHOUSE FOR: CK#019",
    "Address1": "1073 State Route 94",
    "Address2": null,
    "City": "New Windsor",
    "State": "NY",
    "Postal": "12553",
    "Latitude": 41.4557,
    "Longitude": -74.0749
  },
  {
    "Name": "*WAREHOUSE FOR: CK # 007, 055, 124",
    "Address1": "950 Pilot Road",
    "Address2": "Space F",
    "City": "Las Vegas",
    "State": "NV",
    "Postal": "89119",
    "Latitude": 36.0847,
    "Longitude": -115.1461
  },
  {
    "Name": "*WAREHOUSE  FOR:CK #012, 089, 318, 326,  613, 700",
    "Address1": "10165 USA Today Way",
    "Address2": null,
    "City": "Miramar",
    "State": "FL",
    "Postal": "33025",
    "Latitude": 25.9882,
    "Longitude": -80.2814
  }
]
