[
  {
    "Name": "Macomb",
    "Address1": "32100 Beaconsfield St",
    "Address2": null,
    "City": "Roseville",
    "State": "MI",
    "Postal": 48066,
    "Latitude": 42.5075,
    "Longitude": -82.9366
  },
  {
    "Name": "Oakland Square",
    "Address1": "500 John R Rd",
    "Address2": null,
    "City": "Troy",
    "State": "MI",
    "Postal": 48083,
    "Latitude": 42.557,
    "Longitude": -83.1169
  },
  {
    "Name": "Novi",
    "Address1": "43550 W Oaks Dr",
    "Address2": null,
    "City": "Novi",
    "State": "MI",
    "Postal": 48377,
    "Latitude": 42.5054,
    "Longitude": -83.4736
  },
  {
    "Name": "Lakeside",
    "Address1": "44200 Schoenherr Rd",
    "Address2": null,
    "City": "Sterling Heights",
    "State": "MI",
    "Postal": 48313,
    "Latitude": 42.6007,
    "Longitude": -83.0029
  },
  {
    "Name": "Westland",
    "Address1": "35000 W Warren Rd",
    "Address2": null,
    "City": "Westland",
    "State": "MI",
    "Postal": 48185,
    "Latitude": 42.3339,
    "Longitude": -83.3842
  },
  {
    "Name": "Woodland",
    "Address1": "3131 Woodland Dr",
    "Address2": null,
    "City": "Kentwood",
    "State": "MI",
    "Postal": 49512,
    "Latitude": 42.8831,
    "Longitude": -85.5276
  },
  {
    "Name": "Southland",
    "Address1": "14500 Racho Blvd",
    "Address2": null,
    "City": "Taylor",
    "State": "MI",
    "Postal": 48180,
    "Latitude": 42.2253,
    "Longitude": -83.2677
  },
  {
    "Name": "Grand Rapids North",
    "Address1": "745 Center Dr NW",
    "Address2": null,
    "City": "Walker",
    "State": "MI",
    "Postal": 49544,
    "Latitude": 43.0389,
    "Longitude": -85.7466
  },
  {
    "Name": "Bolingbrook",
    "Address1": "1138 W Boughton Rd",
    "Address2": null,
    "City": "Bolingbrook",
    "State": "IL",
    "Postal": 60440,
    "Latitude": 41.7006,
    "Longitude": -88.075
  },
  {
    "Name": "Grand Junction",
    "Address1": "636 Market St",
    "Address2": null,
    "City": "Grand Junction ",
    "State": "CO",
    "Postal": 81505,
    "Latitude": 39.2558,
    "Longitude": -108.5342
  },
  {
    "Name": "Clarksburg",
    "Address1": "330 Emily Dr",
    "Address2": null,
    "City": "Clarksburg",
    "State": "WV",
    "Postal": 26301,
    "Latitude": 39.3015,
    "Longitude": -80.394
  },
  {
    "Name": "Lake Worth",
    "Address1": "6054 Azle Ave",
    "Address2": null,
    "City": "Lake Worth",
    "State": "TX",
    "Postal": 76135,
    "Latitude": 32.8363,
    "Longitude": -97.4699
  },
  {
    "Name": "Wilkes Barre",
    "Address1": "445 Wilkes Barre Township Blvd",
    "Address2": null,
    "City": "Wilkes-Barre",
    "State": "PA",
    "Postal": 18702,
    "Latitude": 41.2305,
    "Longitude": -75.7574
  },
  {
    "Name": "Yuma",
    "Address1": "1350 S Castle Dome Ave",
    "Address2": null,
    "City": "Yuma",
    "State": "AZ",
    "Postal": 85365,
    "Latitude": 33.0964,
    "Longitude": -114.1253
  },
  {
    "Name": "Horseheads",
    "Address1": "1200 County Rd 64",
    "Address2": null,
    "City": "Horseheads",
    "State": "NY",
    "Postal": 14845,
    "Latitude": 42.2158,
    "Longitude": -76.8341
  },
  {
    "Name": "Port Huron",
    "Address1": "4475 24th St",
    "Address2": null,
    "City": "Ft. Gratiot",
    "State": "MI",
    "Postal": 48059,
    "Latitude": 43.0873,
    "Longitude": -82.4945
  },
  {
    "Name": "Brookfield",
    "Address1": "2325 N 124th St",
    "Address2": null,
    "City": "Brookfield",
    "State": "WI",
    "Postal": 53005,
    "Latitude": 43.0623,
    "Longitude": -88.0988
  },
  {
    "Name": "West Allis",
    "Address1": "2601 S 108th St",
    "Address2": null,
    "City": "West Allis",
    "State": "WI",
    "Postal": 53227,
    "Latitude": 42.9958,
    "Longitude": -88.042
  },
  {
    "Name": "Point Loomis",
    "Address1": "3737 S 27th St",
    "Address2": null,
    "City": "Milwaukee",
    "State": "WI",
    "Postal": 53221,
    "Latitude": 42.9539,
    "Longitude": -87.9432
  },
  {
    "Name": "La Crosse",
    "Address1": "9404 State Road 16",
    "Address2": null,
    "City": "Onalaska",
    "State": "WI",
    "Postal": 54650,
    "Latitude": 43.9103,
    "Longitude": -91.227
  },
  {
    "Name": "Burnsville",
    "Address1": "13900 Aldrich Ave",
    "Address2": null,
    "City": "Burnsville",
    "State": "MN",
    "Postal": 55337,
    "Latitude": 44.7785,
    "Longitude": -93.2723
  },
  {
    "Name": "Maplewood",
    "Address1": "3001 White Bear Ave N, Ste 3",
    "Address2": null,
    "City": "Maplewood",
    "State": "MN",
    "Postal": 55109,
    "Latitude": 45.0146,
    "Longitude": -93.0254
  },
  {
    "Name": "Rosedale",
    "Address1": "1651 County Rd B2",
    "Address2": null,
    "City": "Roseville",
    "State": "MN",
    "Postal": 55113,
    "Latitude": 45.0122,
    "Longitude": -93.1512
  },
  {
    "Name": "Woodbury",
    "Address1": "7100 Valley Creek Plaza",
    "Address2": null,
    "City": "Woodbury",
    "State": "MN",
    "Postal": 55125,
    "Latitude": 44.918,
    "Longitude": -92.9383
  },
  {
    "Name": "Harlem-Irving",
    "Address1": "4220 N Harlem Ave",
    "Address2": null,
    "City": "Norridge",
    "State": "IL",
    "Postal": 60706,
    "Latitude": 41.9643,
    "Longitude": -87.8162
  },
  {
    "Name": "Spring Hill",
    "Address1": "3000 Spring Hill Mall",
    "Address2": null,
    "City": "West Dundee",
    "State": "IL",
    "Postal": 60118,
    "Latitude": 42.1063,
    "Longitude": -88.3044
  },
  {
    "Name": "Arlington Heights",
    "Address1": "800 W Dundee",
    "Address2": null,
    "City": "Arlington Heights",
    "State": "IL",
    "Postal": 60004,
    "Latitude": 42.1128,
    "Longitude": -87.9795
  },
  {
    "Name": "Chicago Ridge",
    "Address1": "9700 S Ridgeland Ave",
    "Address2": null,
    "City": "Chicago Ridge",
    "State": "IL",
    "Postal": 60415,
    "Latitude": 41.703,
    "Longitude": -87.7788
  },
  {
    "Name": "Burbank",
    "Address1": "7608 S La Crosse",
    "Address2": null,
    "City": "Burbank",
    "State": "IL",
    "Postal": 60459,
    "Latitude": 41.7444,
    "Longitude": -87.7686
  },
  {
    "Name": "Woodridge",
    "Address1": "1001 75th St",
    "Address2": null,
    "City": "Woodridge",
    "State": "IL",
    "Postal": 60517,
    "Latitude": 41.7403,
    "Longitude": -88.0421
  },
  {
    "Name": "Stratford Square",
    "Address1": "6 Stratford Square Mall",
    "Address2": null,
    "City": "Bloomingdale",
    "State": "IL",
    "Postal": 60108,
    "Latitude": 41.95,
    "Longitude": -88.0919
  },
  {
    "Name": "Downers Grove",
    "Address1": "2920 S Finley Rd",
    "Address2": null,
    "City": "Downers Grove",
    "State": "IL",
    "Postal": 60515,
    "Latitude": 41.8106,
    "Longitude": -88.0228
  },
  {
    "Name": "Fox Valley",
    "Address1": "4340 Fox Valley Center Dr",
    "Address2": null,
    "City": "Aurora",
    "State": "IL",
    "Postal": 60504,
    "Latitude": 41.7475,
    "Longitude": -88.2386
  },
  {
    "Name": "Orland Park",
    "Address1": "3 Orland Park Place",
    "Address2": null,
    "City": "Orland Park",
    "State": "IL",
    "Postal": 60462,
    "Latitude": 41.6253,
    "Longitude": -87.8329
  },
  {
    "Name": "Golf Mill",
    "Address1": "590 Golf Mill Shopping Center",
    "Address2": null,
    "City": "Niles",
    "State": "IL",
    "Postal": 60714,
    "Latitude": 42.0281,
    "Longitude": -87.811
  },
  {
    "Name": "Southridge",
    "Address1": "5300 S 76th St",
    "Address2": null,
    "City": "Greendale",
    "State": "WI",
    "Postal": 53129,
    "Latitude": 42.94,
    "Longitude": -88.0009
  },
  {
    "Name": "Peoria",
    "Address1": "4100 W Willow Knolls Dr",
    "Address2": null,
    "City": "Peoria",
    "State": "IL",
    "Postal": 61615,
    "Latitude": 40.7379,
    "Longitude": -89.6868
  },
  {
    "Name": "Hodgkins",
    "Address1": "9350 Joliet Rd",
    "Address2": null,
    "City": "Hodgkins",
    "State": "IL",
    "Postal": 60525,
    "Latitude": 41.7838,
    "Longitude": -87.8717
  },
  {
    "Name": "Schaumburg",
    "Address1": "410 E Golf Rd",
    "Address2": null,
    "City": "Schaumburg",
    "State": "IL",
    "Postal": 60173,
    "Latitude": 42.0516,
    "Longitude": -88.0555
  },
  {
    "Name": "Wheaton",
    "Address1": "401 S County Farm Rd",
    "Address2": null,
    "City": "Wheaton",
    "State": "IL",
    "Postal": 60187,
    "Latitude": 41.8727,
    "Longitude": -88.1123
  },
  {
    "Name": "Eagan",
    "Address1": "1350 Town Centre Dr",
    "Address2": null,
    "City": "Eagan",
    "State": "MN",
    "Postal": 55121,
    "Latitude": 44.8465,
    "Longitude": -93.1549
  },
  {
    "Name": "West Bend",
    "Address1": "1400 S Main St",
    "Address2": null,
    "City": "West Bend",
    "State": "WI",
    "Postal": 53095,
    "Latitude": 43.3896,
    "Longitude": -88.158
  },
  {
    "Name": "Merrillville",
    "Address1": "1601 Southlake Mall",
    "Address2": null,
    "City": "Merrillville",
    "State": "IN",
    "Postal": 46410,
    "Latitude": 41.4802,
    "Longitude": -87.3331
  },
  {
    "Name": "Westfield",
    "Address1": "2005 E Greyhound Pass",
    "Address2": null,
    "City": "Carmel",
    "State": "IN",
    "Postal": 46033,
    "Latitude": 39.9793,
    "Longitude": -86.0856
  },
  {
    "Name": "St. Cloud",
    "Address1": "145 2nd St S",
    "Address2": null,
    "City": "Waite Park",
    "State": "MN",
    "Postal": 56387,
    "Latitude": 45.5329,
    "Longitude": -94.2397
  },
  {
    "Name": "Bayshore-WI",
    "Address1": "5650 N Bayshore Dr",
    "Address2": null,
    "City": "Glendale",
    "State": "WI",
    "Postal": 53217,
    "Latitude": 43.1582,
    "Longitude": -87.9132
  },
  {
    "Name": "Waukesha",
    "Address1": "2130 E Moreland Blvd",
    "Address2": null,
    "City": "Waukesha",
    "State": "WI",
    "Postal": 53186,
    "Latitude": 43.0222,
    "Longitude": -88.2047
  },
  {
    "Name": "Olentangy",
    "Address1": "3360 Olentangy River Rd",
    "Address2": null,
    "City": "Columbus",
    "State": "OH",
    "Postal": 43202,
    "Latitude": 40.0197,
    "Longitude": -83.0151
  },
  {
    "Name": "Westerville",
    "Address1": "133 Huber Village Blvd",
    "Address2": null,
    "City": "Westerville",
    "State": "OH",
    "Postal": 43081,
    "Latitude": 40.1104,
    "Longitude": -82.8906
  },
  {
    "Name": "Dublin",
    "Address1": "6063 Sawmill Rd",
    "Address2": null,
    "City": "Dublin",
    "State": "OH",
    "Postal": 43017,
    "Latitude": 40.1107,
    "Longitude": -83.129
  },
  {
    "Name": "Green Bay West",
    "Address1": "500 Bay Park Square",
    "Address2": null,
    "City": "Ashwaubenon",
    "State": "WI",
    "Postal": 54304,
    "Latitude": 44.4928,
    "Longitude": -88.0673
  },
  {
    "Name": "Menomonee Falls",
    "Address1": "N95 W18000 Appleton Ave",
    "Address2": null,
    "City": "Menomonee Falls",
    "State": "WI",
    "Postal": 53051,
    "Latitude": 43.1594,
    "Longitude": -88.1215
  },
  {
    "Name": "Springfield",
    "Address1": "2901 Veterans Pkwy",
    "Address2": null,
    "City": "Springfield",
    "State": "IL",
    "Postal": 62704,
    "Latitude": 39.7735,
    "Longitude": -89.6838
  },
  {
    "Name": "Clive",
    "Address1": "10201 University Ave",
    "Address2": null,
    "City": "Clive",
    "State": "IA",
    "Postal": 50325,
    "Latitude": 41.6132,
    "Longitude": -93.7979
  },
  {
    "Name": "Merle Hay",
    "Address1": "3800 Merle Hay Rd",
    "Address2": null,
    "City": "Des Moines",
    "State": "IA",
    "Postal": 50310,
    "Latitude": 41.6276,
    "Longitude": -93.6727
  },
  {
    "Name": "Sioux Falls",
    "Address1": "3800 S Louise Ave",
    "Address2": null,
    "City": "Sioux Falls",
    "State": "SD",
    "Postal": 57106,
    "Latitude": 43.5075,
    "Longitude": -96.8407
  },
  {
    "Name": "Geist",
    "Address1": "8141 E 96th St",
    "Address2": null,
    "City": "Indianapolis",
    "State": "IN",
    "Postal": 46256,
    "Latitude": 39.9084,
    "Longitude": -86.0131
  },
  {
    "Name": "Fashion Mall Commons",
    "Address1": "8487 Union Chapel Rd",
    "Address2": null,
    "City": "Indianapolis",
    "State": "IN",
    "Postal": 46240,
    "Latitude": 39.906,
    "Longitude": -86.1246
  },
  {
    "Name": "Anderson",
    "Address1": "4544 S Scatterfield Rd",
    "Address2": null,
    "City": "Anderson",
    "State": "IN",
    "Postal": 46013,
    "Latitude": 40.0479,
    "Longitude": -85.6818
  },
  {
    "Name": "Oak Creek",
    "Address1": "9035 S Howell Ave",
    "Address2": null,
    "City": "Oak Creek",
    "State": "WI",
    "Postal": 53154,
    "Latitude": 42.8787,
    "Longitude": -87.8987
  },
  {
    "Name": "Ft. Wayne West",
    "Address1": "1410 Apple Glen Blvd",
    "Address2": null,
    "City": "Fort Wayne",
    "State": "IN",
    "Postal": 46804,
    "Latitude": 41.0529,
    "Longitude": -85.2416
  },
  {
    "Name": "Green Bay East",
    "Address1": "2300 E Mason St",
    "Address2": null,
    "City": "Green Bay",
    "State": "WI",
    "Postal": 54302,
    "Latitude": 44.5077,
    "Longitude": -87.9768
  },
  {
    "Name": "Vernon Hills",
    "Address1": "235 Milwaukee Ave",
    "Address2": null,
    "City": "Vernon Hills",
    "State": "IL",
    "Postal": 60061,
    "Latitude": 42.2349,
    "Longitude": -87.9591
  },
  {
    "Name": "Darboy",
    "Address1": "W3226 Highway KK",
    "Address2": null,
    "City": "Appleton",
    "State": "WI",
    "Postal": 54915,
    "Latitude": 44.2434,
    "Longitude": -88.3559
  },
  {
    "Name": "Midwest City",
    "Address1": "7401 SE 29th St",
    "Address2": null,
    "City": "Midwest City",
    "State": "OK",
    "Postal": 73110,
    "Latitude": 35.4612,
    "Longitude": -97.3976
  },
  {
    "Name": "Wichita Falls",
    "Address1": "3712 Call Field Rd Lot 3 Block 1",
    "Address2": null,
    "City": "Wichita Falls",
    "State": "TX",
    "Postal": 76308,
    "Latitude": 33.8529,
    "Longitude": -98.5407
  },
  {
    "Name": "Papillion",
    "Address1": "8909 S 71st Plz",
    "Address2": null,
    "City": "Papillion",
    "State": "NE",
    "Postal": 68133,
    "Latitude": 41.1126,
    "Longitude": -95.9955
  },
  {
    "Name": "Terre Haute",
    "Address1": "5679 S US Hwy 41",
    "Address2": null,
    "City": "Terre Haute",
    "State": "IN",
    "Postal": 47802,
    "Latitude": 39.351,
    "Longitude": -87.4119
  },
  {
    "Name": "Wentzville",
    "Address1": "1239 W Pearce Blvd",
    "Address2": null,
    "City": "Wentzville",
    "State": "MO",
    "Postal": 63385,
    "Latitude": 38.7969,
    "Longitude": -90.8572
  },
  {
    "Name": "Appleton North",
    "Address1": "800 W Northland Ave",
    "Address2": null,
    "City": "Appleton",
    "State": "WI",
    "Postal": 54911,
    "Latitude": 44.2815,
    "Longitude": -88.381
  },
  {
    "Name": "Sheboygan",
    "Address1": "3347 Kohler Memorial Dr",
    "Address2": null,
    "City": "Sheboygan",
    "State": "WI",
    "Postal": 53081,
    "Latitude": 43.7102,
    "Longitude": -87.733
  },
  {
    "Name": "Madison South",
    "Address1": "2501 W Broadway",
    "Address2": null,
    "City": "Madison",
    "State": "WI",
    "Postal": 53713,
    "Latitude": 43.0361,
    "Longitude": -89.3869
  },
  {
    "Name": "Champaign",
    "Address1": "109 Convenience Center Rd",
    "Address2": null,
    "City": "Champaign",
    "State": "IL",
    "Postal": 61820,
    "Latitude": 40.1079,
    "Longitude": -88.2443
  },
  {
    "Name": "Decatur",
    "Address1": "Route 51 N",
    "Address2": null,
    "City": "Forsyth",
    "State": "IL",
    "Postal": 62535,
    "Latitude": 39.9249,
    "Longitude": -88.9689
  },
  {
    "Name": "Bloomington",
    "Address1": "1615 E Empire St",
    "Address2": null,
    "City": "Bloomington",
    "State": "IL",
    "Postal": 61701,
    "Latitude": 40.4768,
    "Longitude": -88.993
  },
  {
    "Name": "Fort Wayne North",
    "Address1": "835 E Coliseum Blvd",
    "Address2": null,
    "City": "Fort Wayne",
    "State": "IN",
    "Postal": 46805,
    "Latitude": 41.1001,
    "Longitude": -85.1177
  },
  {
    "Name": "Fond du Lac",
    "Address1": "913 W Johnson St",
    "Address2": null,
    "City": "Fond du Lac",
    "State": "WI",
    "Postal": 54935,
    "Latitude": 43.7737,
    "Longitude": -88.4368
  },
  {
    "Name": "Greenwood",
    "Address1": "550 W Fry Rd",
    "Address2": null,
    "City": "Greenwood",
    "State": "IN",
    "Postal": 46142,
    "Latitude": 39.6218,
    "Longitude": -86.1752
  },
  {
    "Name": "Speedway",
    "Address1": "5660 Crawfordville Rd",
    "Address2": null,
    "City": "Indianapolis",
    "State": "IN",
    "Postal": 46224,
    "Latitude": 39.7954,
    "Longitude": -86.2569
  },
  {
    "Name": "Lafayette",
    "Address1": "2415 S Sagamore Pkwy",
    "Address2": null,
    "City": "Lafayette",
    "State": "IN",
    "Postal": 47905,
    "Latitude": 40.42,
    "Longitude": -86.766
  },
  {
    "Name": "Athens",
    "Address1": "1991 Epps Bridge Pkwy",
    "Address2": null,
    "City": "Athens",
    "State": "GA",
    "Postal": 30606,
    "Latitude": 33.9376,
    "Longitude": -83.425
  },
  {
    "Name": "Rockford South",
    "Address1": "6125 E State St",
    "Address2": null,
    "City": "Rockford",
    "State": "IL",
    "Postal": 61108,
    "Latitude": 42.2573,
    "Longitude": -89.0021
  },
  {
    "Name": "Watertown",
    "Address1": "21850 Towne Center Dr",
    "Address2": null,
    "City": "Watertown",
    "State": "NY",
    "Postal": 13601,
    "Latitude": 43.9689,
    "Longitude": -75.9064
  },
  {
    "Name": "Janesville",
    "Address1": "2500 Milton Ave",
    "Address2": null,
    "City": "Janesville",
    "State": "WI",
    "Postal": 53545,
    "Latitude": 42.7387,
    "Longitude": -89.0402
  },
  {
    "Name": "Sherman",
    "Address1": "4111 Highway 75 N",
    "Address2": null,
    "City": "Sherman",
    "State": "TX",
    "Postal": 75090,
    "Latitude": 33.6041,
    "Longitude": -96.5504
  },
  {
    "Name": "Bowling Green",
    "Address1": "2321 Gary Farms Blvd",
    "Address2": null,
    "City": "Bowling Green",
    "State": "KY",
    "Postal": 42104,
    "Latitude": 36.8769,
    "Longitude": -86.4512
  },
  {
    "Name": "Grand Blanc",
    "Address1": "6300 Saginaw St",
    "Address2": null,
    "City": "Grand Blanc",
    "State": "MI",
    "Postal": 48439,
    "Latitude": 42.9164,
    "Longitude": -83.6294
  },
  {
    "Name": "Millville",
    "Address1": "2102 N 2nd St",
    "Address2": null,
    "City": "Millville",
    "State": "NJ",
    "Postal": 8332,
    "Latitude": 39.377,
    "Longitude": -75.0234
  },
  {
    "Name": "Paducah",
    "Address1": "5191 Hinkleville Rd",
    "Address2": null,
    "City": "Paducah",
    "State": "KY",
    "Postal": 42001,
    "Latitude": 37.0306,
    "Longitude": -88.7094
  },
  {
    "Name": "Cape Girardeau",
    "Address1": "315 Shirley Dr",
    "Address2": null,
    "City": "Cape Girardearu",
    "State": "MO",
    "Postal": 63701,
    "Latitude": 37.3359,
    "Longitude": -89.5758
  },
  {
    "Name": "New Hartford",
    "Address1": "8625 Clinton St",
    "Address2": null,
    "City": "New Hartford",
    "State": "NY",
    "Postal": 13413,
    "Latitude": 43.0604,
    "Longitude": -75.2794
  },
  {
    "Name": "Newport News",
    "Address1": "551 Bland Blvd",
    "Address2": null,
    "City": "Newport News",
    "State": "VA",
    "Postal": 23602,
    "Latitude": 37.1134,
    "Longitude": -76.5179
  },
  {
    "Name": "Sandusky",
    "Address1": "815 Crossings Rd",
    "Address2": null,
    "City": "Sandusky",
    "State": "OH",
    "Postal": 44870,
    "Latitude": 41.4283,
    "Longitude": -82.7448
  },
  {
    "Name": "Wadsworth",
    "Address1": "1119 Williams Reserve Blvd",
    "Address2": null,
    "City": "Wadsworth",
    "State": "OH",
    "Postal": 44281,
    "Latitude": 41.0598,
    "Longitude": -81.7411
  },
  {
    "Name": "Wooster",
    "Address1": "3792 Burbank Rd",
    "Address2": null,
    "City": "Wooster",
    "State": "OH",
    "Postal": 44691,
    "Latitude": 40.8057,
    "Longitude": -81.9825
  },
  {
    "Name": "Dover",
    "Address1": "299 N Dupont Hwy",
    "Address2": null,
    "City": "Dover",
    "State": "DE",
    "Postal": 19901,
    "Latitude": 39.1815,
    "Longitude": -75.4735
  },
  {
    "Name": "Pottstown",
    "Address1": "724 & 100",
    "Address2": null,
    "City": "Pottstown",
    "State": "PA",
    "Postal": 19465,
    "Latitude": 40.1903,
    "Longitude": -75.6846
  },
  {
    "Name": "Salinas",
    "Address1": "1950 N Davis Rd",
    "Address2": null,
    "City": "Salinas",
    "State": "CA",
    "Postal": 93907,
    "Latitude": 36.7694,
    "Longitude": -121.6675
  },
  {
    "Name": "Willimantic",
    "Address1": "95 Storrs Rd",
    "Address2": null,
    "City": "Willimantic",
    "State": "CT",
    "Postal": 6226,
    "Latitude": 41.7082,
    "Longitude": -72.2085
  },
  {
    "Name": "Evans",
    "Address1": "4227 Washington Rd",
    "Address2": null,
    "City": "Evans",
    "State": "GA",
    "Postal": 30809,
    "Latitude": 33.556,
    "Longitude": -82.1704
  },
  {
    "Name": "Sioux City",
    "Address1": "5001 Sergeant Rd",
    "Address2": null,
    "City": "Sioux City",
    "State": "IA",
    "Postal": 51106,
    "Latitude": 42.463,
    "Longitude": -96.3215
  },
  {
    "Name": "Peru",
    "Address1": "5253 State Route 251",
    "Address2": null,
    "City": "Peru",
    "State": "IL",
    "Postal": 61354,
    "Latitude": 41.3279,
    "Longitude": -89.1431
  },
  {
    "Name": "Evansville West",
    "Address1": "4200 Hogue Rd",
    "Address2": null,
    "City": "Evansville",
    "State": "IN",
    "Postal": 47712,
    "Latitude": 37.9265,
    "Longitude": -87.6655
  },
  {
    "Name": "Georgetown",
    "Address1": "112 Magnolia Dr",
    "Address2": null,
    "City": "Georgetown",
    "State": "KY",
    "Postal": 40324,
    "Latitude": 38.2453,
    "Longitude": -84.5502
  },
  {
    "Name": "Glen Burnie",
    "Address1": "418 George Clauss Blvd",
    "Address2": null,
    "City": "Severn",
    "State": "MD",
    "Postal": 21144,
    "Latitude": 39.1209,
    "Longitude": -76.6773
  },
  {
    "Name": "Salisbury",
    "Address1": "128 West Dagsboro Rd",
    "Address2": null,
    "City": "Salisbury",
    "State": "MD",
    "Postal": 21801,
    "Latitude": 38.3823,
    "Longitude": -75.6396
  },
  {
    "Name": "Augusta",
    "Address1": "80 Stephen King Dr Ste 1",
    "Address2": null,
    "City": "Augusta",
    "State": "ME",
    "Postal": 4330,
    "Latitude": 44.3519,
    "Longitude": -69.7476
  },
  {
    "Name": "Machesney Park",
    "Address1": "10153 N Second St",
    "Address2": null,
    "City": "Machesney Park",
    "State": "IL",
    "Postal": 61115,
    "Latitude": 42.3643,
    "Longitude": -89.0275
  },
  {
    "Name": "Racine",
    "Address1": "5500 Washington Ave",
    "Address2": null,
    "City": "Racine",
    "State": "WI",
    "Postal": 53406,
    "Latitude": 42.7344,
    "Longitude": -87.8649
  },
  {
    "Name": "Gurnee",
    "Address1": "6120 Grand Ave",
    "Address2": null,
    "City": "Gurnee",
    "State": "IL",
    "Postal": 60031,
    "Latitude": 42.3736,
    "Longitude": -87.9394
  },
  {
    "Name": "Mt. Prospect",
    "Address1": "1500 S Elmhurst Rd",
    "Address2": null,
    "City": "Mt. Prospect",
    "State": "IL",
    "Postal": 60056,
    "Latitude": 42.0672,
    "Longitude": -87.9347
  },
  {
    "Name": "Schaumburg West",
    "Address1": "171 North Barrington Rd",
    "Address2": null,
    "City": "Schaumburg",
    "State": "IL",
    "Postal": 60194,
    "Latitude": 42.0347,
    "Longitude": -88.1103
  },
  {
    "Name": "Blaine",
    "Address1": "10311 Baltimore St",
    "Address2": null,
    "City": "Blaine",
    "State": "MN",
    "Postal": 55449,
    "Latitude": 45.1766,
    "Longitude": -93.1819
  },
  {
    "Name": "Homewood",
    "Address1": "17620 Halsted St",
    "Address2": null,
    "City": "Homewood",
    "State": "IL",
    "Postal": 60430,
    "Latitude": 41.5589,
    "Longitude": -87.6644
  },
  {
    "Name": "Joplin",
    "Address1": "301 S Geneva Ave",
    "Address2": null,
    "City": "Joplin",
    "State": "MO",
    "Postal": 64801,
    "Latitude": 37.1069,
    "Longitude": -94.4976
  },
  {
    "Name": "Fayetteville",
    "Address1": "255 Glensford Rd",
    "Address2": null,
    "City": "Fayetteville",
    "State": "NC",
    "Postal": 28303,
    "Latitude": 35.0856,
    "Longitude": -78.9594
  },
  {
    "Name": "Bismarck",
    "Address1": "1129 W Century Ave",
    "Address2": null,
    "City": "Bismarck",
    "State": "ND",
    "Postal": 58504,
    "Latitude": 46.7376,
    "Longitude": -100.6784
  },
  {
    "Name": "Grand Island",
    "Address1": "221 Wilmar Ave",
    "Address2": null,
    "City": "Grand Island",
    "State": "NE",
    "Postal": 68803,
    "Latitude": 40.9561,
    "Longitude": -98.4145
  },
  {
    "Name": "Frenchtown Township",
    "Address1": "2323 Telegraph Rd",
    "Address2": null,
    "City": "Monroe",
    "State": "MI",
    "Postal": 48162,
    "Latitude": 41.9604,
    "Longitude": -83.4293
  },
  {
    "Name": "Zanesville",
    "Address1": "3825 Gorsky Dr",
    "Address2": null,
    "City": "Zanesville",
    "State": "OH",
    "Postal": 43701,
    "Latitude": 39.9692,
    "Longitude": -81.991
  },
  {
    "Name": "Carlisle",
    "Address1": "226 Westminster Dr",
    "Address2": null,
    "City": "Carlisle",
    "State": "PA",
    "Postal": 17013,
    "Latitude": 40.2427,
    "Longitude": -77.1973
  },
  {
    "Name": "Dickson City",
    "Address1": "3907 Commerce Blvd",
    "Address2": null,
    "City": "Dickson City",
    "State": "PA",
    "Postal": 18519,
    "Latitude": 41.4619,
    "Longitude": -75.6307
  },
  {
    "Name": "Stroudsburg",
    "Address1": "5045 Windsor Dr. ",
    "Address2": null,
    "City": "Bartonsville",
    "State": "PA",
    "Postal": 18321,
    "Latitude": 41.0257,
    "Longitude": -75.2833
  },
  {
    "Name": "Johnson City",
    "Address1": "190 Marketplace Dr",
    "Address2": null,
    "City": "Johnson City",
    "State": "TN",
    "Postal": 37604,
    "Latitude": 36.2996,
    "Longitude": -82.3832
  },
  {
    "Name": "Georgetown",
    "Address1": "1019 W University Ave",
    "Address2": null,
    "City": "Georgetown",
    "State": "TX",
    "Postal": 78628,
    "Latitude": 30.6642,
    "Longitude": -97.7769
  },
  {
    "Name": "Lynchburg",
    "Address1": "225-A Simons Run",
    "Address2": null,
    "City": "Lynchburg",
    "State": "VA",
    "Postal": 24502,
    "Latitude": 37.596959,
    "Longitude": -79.3894194
  },
  {
    "Name": "North Logan",
    "Address1": "1660 N Main St",
    "Address2": null,
    "City": "North Logan",
    "State": "UT",
    "Postal": 84341,
    "Latitude": 41.7755,
    "Longitude": -111.8067
  },
  {
    "Name": "St. Joseph",
    "Address1": "5505 N Belt Hwy",
    "Address2": null,
    "City": "Saint Joseph",
    "State": "MO",
    "Postal": 64506,
    "Latitude": 39.7899,
    "Longitude": -94.8032
  },
  {
    "Name": "City of Industry",
    "Address1": "21818 Valley Blvd",
    "Address2": null,
    "City": "City of Industry",
    "State": "CA",
    "Postal": 91789,
    "Latitude": 34.0182,
    "Longitude": -117.8548
  },
  {
    "Name": "Bangor",
    "Address1": "520 Stillwater Ave",
    "Address2": null,
    "City": "Bangor",
    "State": "ME",
    "Postal": 4401,
    "Latitude": 44.8485,
    "Longitude": -68.8503
  },
  {
    "Name": "Beaumont-TX",
    "Address1": "4075 Dowlen Rd",
    "Address2": null,
    "City": "Beaumont",
    "State": "TX",
    "Postal": 77706,
    "Latitude": 30.1022,
    "Longitude": -94.1734
  },
  {
    "Name": "Davenport",
    "Address1": "3910 Elmore Ave",
    "Address2": null,
    "City": "Davenport",
    "State": "IA",
    "Postal": 52807,
    "Latitude": 41.6107,
    "Longitude": -90.5169
  },
  {
    "Name": "Fargo",
    "Address1": "4444 13th Ave SW",
    "Address2": null,
    "City": "Fargo",
    "State": "ND",
    "Postal": 58103,
    "Latitude": 46.8561,
    "Longitude": -96.8221
  },
  {
    "Name": "Beavercreek",
    "Address1": "2850 Centre Dr",
    "Address2": null,
    "City": "Fairborn",
    "State": "OH",
    "Postal": 45324,
    "Latitude": 39.819,
    "Longitude": -83.9907
  },
  {
    "Name": "Centerville",
    "Address1": "6400 Wilmington Pike",
    "Address2": null,
    "City": "Dayton",
    "State": "OH",
    "Postal": 45459,
    "Latitude": 39.6474,
    "Longitude": -84.1705
  },
  {
    "Name": "Huber Heights",
    "Address1": "8301 Old Troy Pike",
    "Address2": null,
    "City": "Huber Heights",
    "State": "OH",
    "Postal": 45424,
    "Latitude": 39.8431,
    "Longitude": -84.1096
  },
  {
    "Name": "Delafield",
    "Address1": "3105 Golf Rd",
    "Address2": null,
    "City": "Delafield",
    "State": "WI",
    "Postal": 53018,
    "Latitude": 43.0482,
    "Longitude": -88.3905
  },
  {
    "Name": "Eastgate",
    "Address1": "4607 Eastgate Mall",
    "Address2": null,
    "City": "Cincinnati",
    "State": "OH",
    "Postal": 45245,
    "Latitude": 39.0611,
    "Longitude": -84.2761
  },
  {
    "Name": "Florence-KY",
    "Address1": "61 Spiral Dr",
    "Address2": null,
    "City": "Florence",
    "State": "KY",
    "Postal": 41042,
    "Latitude": 39.001,
    "Longitude": -84.651
  },
  {
    "Name": "Forest Park",
    "Address1": "100 Cincinnati Mills Dr",
    "Address2": null,
    "City": "Cincinnati",
    "State": "OH",
    "Postal": 45240,
    "Latitude": 39.2845,
    "Longitude": -84.5293
  },
  {
    "Name": "Holland",
    "Address1": "12288 Felch St",
    "Address2": null,
    "City": "Holland",
    "State": "MI",
    "Postal": 49424,
    "Latitude": 42.8438,
    "Longitude": -86.1344
  },
  {
    "Name": "Kenosha",
    "Address1": "7200 Green Bay Rd",
    "Address2": null,
    "City": "Kenosha",
    "State": "WI",
    "Postal": 53142,
    "Latitude": 42.5184,
    "Longitude": -87.9826
  },
  {
    "Name": "Madison East",
    "Address1": "2602 E Springs Dr",
    "Address2": null,
    "City": "Madison",
    "State": "WI",
    "Postal": 53704,
    "Latitude": 43.1363,
    "Longitude": -89.3473
  },
  {
    "Name": "Saginaw",
    "Address1": "3090 Tittabawassee Rd",
    "Address2": null,
    "City": "Saginaw",
    "State": "MI",
    "Postal": 48604,
    "Latitude": 43.4998,
    "Longitude": -83.9691
  },
  {
    "Name": "Eden Prairie",
    "Address1": "450 Prairie Center Dr",
    "Address2": null,
    "City": "Eden Prairie",
    "State": "MN",
    "Postal": 55344,
    "Latitude": 44.8638,
    "Longitude": -93.43
  },
  {
    "Name": "Governor's Plaza",
    "Address1": "9201 Fields Ertel Rd",
    "Address2": null,
    "City": "Cincinnati",
    "State": "OH",
    "Postal": 45249,
    "Latitude": 39.2752,
    "Longitude": -84.3284
  },
  {
    "Name": "Cedar Rapids",
    "Address1": "361 Collins Rd NE",
    "Address2": null,
    "City": "Cedar Rapids",
    "State": "IA",
    "Postal": 52402,
    "Latitude": 42.0232,
    "Longitude": -91.6596
  },
  {
    "Name": "Kalamazoo",
    "Address1": "6100 S Westnedge Ave",
    "Address2": null,
    "City": "Portage",
    "State": "MI",
    "Postal": 49002,
    "Latitude": 42.1953,
    "Longitude": -85.563
  },
  {
    "Name": "Duluth",
    "Address1": "2115 Miller Trunk Hwy",
    "Address2": null,
    "City": "Duluth",
    "State": "MN",
    "Postal": 55811,
    "Latitude": 46.8425,
    "Longitude": -92.2219
  },
  {
    "Name": "Oakview",
    "Address1": "3351 Oakview Dr",
    "Address2": null,
    "City": "Omaha",
    "State": "NE",
    "Postal": 68144,
    "Latitude": 41.235,
    "Longitude": -96.1185
  },
  {
    "Name": "Erie",
    "Address1": "1906 Keystone Dr",
    "Address2": null,
    "City": "Erie",
    "State": "PA",
    "Postal": 16509,
    "Latitude": 42.06,
    "Longitude": -80.0381
  },
  {
    "Name": "Findlay",
    "Address1": "2310 Tiffin Ave",
    "Address2": null,
    "City": "Findlay",
    "State": "OH",
    "Postal": 45840,
    "Latitude": 41.0254,
    "Longitude": -83.652
  },
  {
    "Name": "Madison West",
    "Address1": "7401 W Towne Way",
    "Address2": null,
    "City": "Madison",
    "State": "WI",
    "Postal": 53719,
    "Latitude": 43.0453,
    "Longitude": -89.5154
  },
  {
    "Name": "Crestwood",
    "Address1": "13130 Rivercrest Dr",
    "Address2": null,
    "City": "Crestwood ",
    "State": "IL",
    "Postal": 60445,
    "Latitude": 41.6344,
    "Longitude": -87.7364
  },
  {
    "Name": "Tylersville",
    "Address1": "7935 Tylersville Rd",
    "Address2": null,
    "City": "West Chester",
    "State": "OH",
    "Postal": 45069,
    "Latitude": 39.3467,
    "Longitude": -84.4135
  },
  {
    "Name": "Middletown",
    "Address1": "6825 Roosevelt Pkwy",
    "Address2": null,
    "City": "Middletown",
    "State": "OH",
    "Postal": 45044,
    "Latitude": 39.4824,
    "Longitude": -84.4102
  },
  {
    "Name": "Mansfield-OH",
    "Address1": "524 Lexington Springmill Rd N",
    "Address2": null,
    "City": "Mansfield",
    "State": "OH",
    "Postal": 44906,
    "Latitude": 40.7673,
    "Longitude": -82.5726
  },
  {
    "Name": "Knollwood",
    "Address1": "8440 Hwy 7",
    "Address2": null,
    "City": "St. Louis Park",
    "State": "MN",
    "Postal": 55426,
    "Latitude": 44.9583,
    "Longitude": -93.3741
  },
  {
    "Name": "Highland",
    "Address1": "10353 Indianapolis Blvd",
    "Address2": null,
    "City": "Highland",
    "State": "IN",
    "Postal": 46322,
    "Latitude": 41.5466,
    "Longitude": -87.4576
  },
  {
    "Name": "Independence",
    "Address1": "18800 39th St",
    "Address2": null,
    "City": "Independence",
    "State": "MO",
    "Postal": 64057,
    "Latitude": 39.072,
    "Longitude": -94.3193
  },
  {
    "Name": "Olathe",
    "Address1": "16250 W 135th St",
    "Address2": null,
    "City": "Olathe",
    "State": "KS",
    "Postal": 66062,
    "Latitude": 38.8355,
    "Longitude": -94.7787
  },
  {
    "Name": "Overland Park",
    "Address1": "11585 Metcalf Ave",
    "Address2": null,
    "City": "Overland Park",
    "State": "KS",
    "Postal": 66210,
    "Latitude": 38.9221,
    "Longitude": -94.7048
  },
  {
    "Name": "Metro North",
    "Address1": "8500 N Madison Ave",
    "Address2": null,
    "City": "Kansas City",
    "State": "MO",
    "Postal": 64155,
    "Latitude": 39.2723,
    "Longitude": -94.5801
  },
  {
    "Name": "Topeka",
    "Address1": "6130 SW 17th St",
    "Address2": null,
    "City": "Topeka",
    "State": "KS",
    "Postal": 66614,
    "Latitude": 39.0103,
    "Longitude": -95.8525
  },
  {
    "Name": "Macedonia",
    "Address1": "8100 Macedonia Commons Blvd",
    "Address2": null,
    "City": "Macedonia",
    "State": "OH",
    "Postal": 44056,
    "Latitude": 41.3149,
    "Longitude": -81.5016
  },
  {
    "Name": "Medina",
    "Address1": "4095 Pearl Rd",
    "Address2": null,
    "City": "Medina",
    "State": "OH",
    "Postal": 44256,
    "Latitude": 41.1399,
    "Longitude": -81.8606
  },
  {
    "Name": "Mentor",
    "Address1": "9581 Mentor Ave",
    "Address2": null,
    "City": "Mentor",
    "State": "OH",
    "Postal": 44060,
    "Latitude": 41.6765,
    "Longitude": -81.3282
  },
  {
    "Name": "Westgate",
    "Address1": "3221 Westgate Mall",
    "Address2": null,
    "City": "Fairview Park",
    "State": "OH",
    "Postal": 44126,
    "Latitude": 41.4418,
    "Longitude": -81.853
  },
  {
    "Name": "Canton",
    "Address1": "5478 Dressler Rd NW",
    "Address2": null,
    "City": "North Canton",
    "State": "OH",
    "Postal": 44720,
    "Latitude": 40.9035,
    "Longitude": -81.4333
  },
  {
    "Name": "Boardman",
    "Address1": "383 Boardman Poland Rd",
    "Address2": null,
    "City": "Youngstown",
    "State": "OH",
    "Postal": 44512,
    "Latitude": 41.0257,
    "Longitude": -80.6683
  },
  {
    "Name": "Maple Grove",
    "Address1": "8080 Wedgewood Ln",
    "Address2": null,
    "City": "Maple Grove",
    "State": "MN",
    "Postal": 55369,
    "Latitude": 45.1274,
    "Longitude": -93.4454
  },
  {
    "Name": "Parma",
    "Address1": "6860 Ridge Rd",
    "Address2": null,
    "City": "Parma",
    "State": "OH",
    "Postal": 44129,
    "Latitude": 41.3905,
    "Longitude": -81.7353
  },
  {
    "Name": "Jackson-MI",
    "Address1": "1222 Jackson Crossing",
    "Address2": null,
    "City": "Jackson ",
    "State": "MI",
    "Postal": 49202,
    "Latitude": 42.2672,
    "Longitude": -84.4108
  },
  {
    "Name": "Niles",
    "Address1": "2350 Niles Cortland Rd SE",
    "Address2": null,
    "City": "Warren",
    "State": "OH",
    "Postal": 44484,
    "Latitude": 41.2359,
    "Longitude": -80.7502
  },
  {
    "Name": "Eau Claire",
    "Address1": "3711 Gateway Dr",
    "Address2": null,
    "City": "Eau Claire",
    "State": "WI",
    "Postal": 54701,
    "Latitude": 44.752,
    "Longitude": -91.515
  },
  {
    "Name": "Springfield",
    "Address1": "1909 E Independence",
    "Address2": null,
    "City": "Springfield",
    "State": "MO",
    "Postal": 65804,
    "Latitude": 37.1505,
    "Longitude": -93.2519
  },
  {
    "Name": "Wichita East",
    "Address1": "3561 N Rock Rd",
    "Address2": null,
    "City": "Wichita",
    "State": "KS",
    "Postal": 67226,
    "Latitude": 37.7732,
    "Longitude": -97.2129
  },
  {
    "Name": "Wichita West",
    "Address1": "6900 W Kellogg",
    "Address2": null,
    "City": "Wichita",
    "State": "KS",
    "Postal": 67209,
    "Latitude": 37.6512,
    "Longitude": -97.4285
  },
  {
    "Name": "Matthews",
    "Address1": "9617 E Independence Blvd",
    "Address2": null,
    "City": "Matthews",
    "State": "NC",
    "Postal": 28105,
    "Latitude": 35.1156,
    "Longitude": -80.7139
  },
  {
    "Name": "Oxmoor",
    "Address1": "110 Oxmoor Ln",
    "Address2": null,
    "City": "Louisville",
    "State": "KY",
    "Postal": 40222,
    "Latitude": 38.2718,
    "Longitude": -85.6194
  },
  {
    "Name": "Highland Heights",
    "Address1": "6245 Wilson Mills Rd",
    "Address2": null,
    "City": "Highland Heights",
    "State": "OH",
    "Postal": 44143,
    "Latitude": 41.5535,
    "Longitude": -81.477
  },
  {
    "Name": "Franklin Park",
    "Address1": "4865 Monroe St",
    "Address2": null,
    "City": "Toledo",
    "State": "OH",
    "Postal": 43623,
    "Latitude": 41.703,
    "Longitude": -83.6501
  },
  {
    "Name": "Strongsville",
    "Address1": "17555 Southpark Center",
    "Address2": null,
    "City": "Strongsville",
    "State": "OH",
    "Postal": 44136,
    "Latitude": 41.3115,
    "Longitude": -81.8113
  },
  {
    "Name": "Lancaster",
    "Address1": "1135 Park City Center",
    "Address2": null,
    "City": "Lancaster",
    "State": "PA",
    "Postal": 17601,
    "Latitude": 40.0742,
    "Longitude": -76.3149
  },
  {
    "Name": "Moline",
    "Address1": "800 42nd Ave",
    "Address2": null,
    "City": "Moline",
    "State": "IL",
    "Postal": 61265,
    "Latitude": 41.4823,
    "Longitude": -90.4933
  },
  {
    "Name": "Bloomington",
    "Address1": "7931 Southtown Center",
    "Address2": null,
    "City": "Bloomington",
    "State": "MN",
    "Postal": 55431,
    "Latitude": 44.8245,
    "Longitude": -93.3126
  },
  {
    "Name": "Lincoln",
    "Address1": "401 N 84th St",
    "Address2": null,
    "City": "Lincoln ",
    "State": "NE",
    "Postal": 68505,
    "Latitude": 40.8248,
    "Longitude": -96.6193
  },
  {
    "Name": "Mishawaka",
    "Address1": "4410 N Grape Rd",
    "Address2": null,
    "City": "Mishawaka",
    "State": "IN",
    "Postal": 46545,
    "Latitude": 41.6938,
    "Longitude": -86.1468
  },
  {
    "Name": "North Riverside",
    "Address1": "2200 Harlem Ave",
    "Address2": null,
    "City": "North Riverside",
    "State": "IL",
    "Postal": 60546,
    "Latitude": 41.8379,
    "Longitude": -87.8219
  },
  {
    "Name": "University (closing 3/18/17)",
    "Address1": "9315 N Tryon St",
    "Address2": null,
    "City": "Charlotte",
    "State": "NC",
    "Postal": 28262,
    "Latitude": 35.3221,
    "Longitude": -80.74
  },
  {
    "Name": "Huntington",
    "Address1": "300 Mall Rd",
    "Address2": null,
    "City": "Barboursville",
    "State": "WV",
    "Postal": 25504,
    "Latitude": 38.3763,
    "Longitude": -82.27
  },
  {
    "Name": "Bowie",
    "Address1": "4200 Mitchellville Rd",
    "Address2": null,
    "City": "Bowie",
    "State": "MD",
    "Postal": 20716,
    "Latitude": 38.9264,
    "Longitude": -76.715
  },
  {
    "Name": "Ellicott City",
    "Address1": "4320 Montgomery Rd",
    "Address2": null,
    "City": "Ellicott City",
    "State": "MD",
    "Postal": 21043,
    "Latitude": 39.2558,
    "Longitude": -76.8015
  },
  {
    "Name": "Germantown",
    "Address1": "20918 Frederick Rd",
    "Address2": null,
    "City": "Germantown",
    "State": "MD",
    "Postal": 20876,
    "Latitude": 39.2084,
    "Longitude": -77.2372
  },
  {
    "Name": "Laurel",
    "Address1": "3323 Corridor Marketplace",
    "Address2": null,
    "City": "Laurel",
    "State": "MD",
    "Postal": 20724,
    "Latitude": 39.1011,
    "Longitude": -76.804
  },
  {
    "Name": "Waldorf",
    "Address1": "11120 Mall Cir",
    "Address2": null,
    "City": "Waldorf",
    "State": "MD",
    "Postal": 20603,
    "Latitude": 38.6304,
    "Longitude": -76.9766
  },
  {
    "Name": "Woodbridge",
    "Address1": "13725 Foulger Square",
    "Address2": null,
    "City": "Woodbridge",
    "State": "VA",
    "Postal": 22192,
    "Latitude": 38.6837,
    "Longitude": -77.3147
  },
  {
    "Name": "Fredericksburg",
    "Address1": "1571 Carl D Silver Parkway",
    "Address2": null,
    "City": "Fredericksburg",
    "State": "VA",
    "Postal": 22401,
    "Latitude": 38.2993,
    "Longitude": -77.4867
  },
  {
    "Name": "Springfield",
    "Address1": "5701 Kingstowne Blvd",
    "Address2": null,
    "City": "Kingstowne",
    "State": "VA",
    "Postal": 22315,
    "Latitude": 38.7583,
    "Longitude": -77.1512
  },
  {
    "Name": "Brandywine",
    "Address1": "401 Rocky Run Pkwy",
    "Address2": null,
    "City": "Wilmington",
    "State": "DE",
    "Postal": 19803,
    "Latitude": 39.8007,
    "Longitude": -75.5424
  },
  {
    "Name": "Kirkwood",
    "Address1": "4437 Kirkwood Hwy",
    "Address2": null,
    "City": "Wilmington",
    "State": "DE",
    "Postal": 19808,
    "Latitude": 39.7376,
    "Longitude": -75.6671
  },
  {
    "Name": "Allentown",
    "Address1": "2010 Whitehall Mall",
    "Address2": null,
    "City": "Whitehall",
    "State": "PA",
    "Postal": 18052,
    "Latitude": 40.6574,
    "Longitude": -75.5043
  },
  {
    "Name": "Andorra",
    "Address1": "8500 Henry Ave",
    "Address2": null,
    "City": "Philadelphia",
    "State": "PA",
    "Postal": 19128,
    "Latitude": 40.0485,
    "Longitude": -75.2279
  },
  {
    "Name": "Springfield",
    "Address1": "405 Baltimore Pike",
    "Address2": null,
    "City": "Morton",
    "State": "PA",
    "Postal": 19070,
    "Latitude": 39.9062,
    "Longitude": -75.3247
  },
  {
    "Name": "Center Square",
    "Address1": "1301 Skippack Pike",
    "Address2": null,
    "City": "Blue Bell",
    "State": "PA",
    "Postal": 19422,
    "Latitude": 40.1567,
    "Longitude": -75.2794
  },
  {
    "Name": "Exton",
    "Address1": "229 W Lincoln Hwy",
    "Address2": null,
    "City": "Exton",
    "State": "PA",
    "Postal": 19341,
    "Latitude": 40.0399,
    "Longitude": -75.6406
  },
  {
    "Name": "Granite Run",
    "Address1": "1067 W Baltimore Pike Rd",
    "Address2": null,
    "City": "Media",
    "State": "PA",
    "Postal": 19063,
    "Latitude": 39.9204,
    "Longitude": -75.4162
  },
  {
    "Name": "Mays Landing",
    "Address1": "110 Consumer Square",
    "Address2": null,
    "City": "May's Landing",
    "State": "NJ",
    "Postal": 8330,
    "Latitude": 39.4816,
    "Longitude": -74.7373
  },
  {
    "Name": "Havertown",
    "Address1": "250 W Chester Pike",
    "Address2": null,
    "City": "Havertown",
    "State": "PA",
    "Postal": 19083,
    "Latitude": 39.9769,
    "Longitude": -75.3121
  },
  {
    "Name": "Evansville",
    "Address1": "201 N Burkhardt Rd",
    "Address2": null,
    "City": "Evansville",
    "State": "IN",
    "Postal": 47715,
    "Latitude": 37.9724,
    "Longitude": -87.4796
  },
  {
    "Name": "Oxford Valley",
    "Address1": "1641 Big Oak Rd",
    "Address2": null,
    "City": "Yardley",
    "State": "PA",
    "Postal": 19067,
    "Latitude": 40.2062,
    "Longitude": -74.8184
  },
  {
    "Name": "Winchester",
    "Address1": "2194 S Pleasant Valley Rd",
    "Address2": null,
    "City": "Winchester",
    "State": "VA",
    "Postal": 22601,
    "Latitude": 39.1745,
    "Longitude": -78.1734
  },
  {
    "Name": "Marlton",
    "Address1": "301 Route 70 W",
    "Address2": null,
    "City": "Marlton",
    "State": "NJ",
    "Postal": 8053,
    "Latitude": 39.8566,
    "Longitude": -74.9008
  },
  {
    "Name": "Cherry Hill",
    "Address1": "2133 Route 38",
    "Address2": null,
    "City": "Cherry Hill",
    "State": "NJ",
    "Postal": 8002,
    "Latitude": 39.932,
    "Longitude": -75.0276
  },
  {
    "Name": "Warminster",
    "Address1": "918 W Street Rd",
    "Address2": null,
    "City": "Warminster",
    "State": "PA",
    "Postal": 18974,
    "Latitude": 40.2171,
    "Longitude": -75.0728
  },
  {
    "Name": "Winston-Salem",
    "Address1": "1010 Hanes Mall Blvd",
    "Address2": null,
    "City": "Winston Salem",
    "State": "NC",
    "Postal": 27103,
    "Latitude": 36.0582,
    "Longitude": -80.3215
  },
  {
    "Name": "Springhurst",
    "Address1": "4200 Towne Center Dr",
    "Address2": null,
    "City": "Louisville",
    "State": "KY",
    "Postal": 40241,
    "Latitude": 38.3,
    "Longitude": -85.5757
  },
  {
    "Name": "Monroeville",
    "Address1": "3624 William Penn Hwy",
    "Address2": null,
    "City": "Monroeville",
    "State": "PA",
    "Postal": 15146,
    "Latitude": 40.4263,
    "Longitude": -79.7614
  },
  {
    "Name": "Glenview",
    "Address1": "2201 Willow Rd",
    "Address2": null,
    "City": "Glenview",
    "State": "IL",
    "Postal": 60025,
    "Latitude": 42.0752,
    "Longitude": -87.821
  },
  {
    "Name": "South Hills",
    "Address1": "4000 Oxford Dr",
    "Address2": null,
    "City": "Bethel Park",
    "State": "PA",
    "Postal": 15102,
    "Latitude": 40.3213,
    "Longitude": -80.0365
  },
  {
    "Name": "Century III",
    "Address1": "9911 Mountain View Dr",
    "Address2": null,
    "City": "West Mifflin",
    "State": "PA",
    "Postal": 15122,
    "Latitude": 40.3611,
    "Longitude": -79.8956
  },
  {
    "Name": "Robinson Township",
    "Address1": "6571 Stubenville Pike",
    "Address2": null,
    "City": "Pittsburgh",
    "State": "PA",
    "Postal": 15205,
    "Latitude": 40.4381,
    "Longitude": -80.0991
  },
  {
    "Name": "Sterling",
    "Address1": "21245 Signal Hall Plaza",
    "Address2": null,
    "City": "Sterling",
    "State": "VA",
    "Postal": 20164,
    "Latitude": 39.0133,
    "Longitude": -77.3951
  },
  {
    "Name": "Auburn Hills",
    "Address1": "4872 Baldwin Rd",
    "Address2": null,
    "City": "Lake Orion",
    "State": "MI",
    "Postal": 48359,
    "Latitude": 42.7207,
    "Longitude": -83.2754
  },
  {
    "Name": "Crossroads",
    "Address1": "909 S 72nd St",
    "Address2": null,
    "City": "Omaha",
    "State": "NE",
    "Postal": 68114,
    "Latitude": 41.2632,
    "Longitude": -96.0496
  },
  {
    "Name": "Ralph's Corner",
    "Address1": "2333 Welsh Rd",
    "Address2": null,
    "City": "Lansdale",
    "State": "PA",
    "Postal": 19446,
    "Latitude": 40.2323,
    "Longitude": -75.3039
  },
  {
    "Name": "Vestal",
    "Address1": "3208 E Vestal Pkwy",
    "Address2": null,
    "City": "Vestal",
    "State": "NY",
    "Postal": 13850,
    "Latitude": 42.0494,
    "Longitude": -76.0176
  },
  {
    "Name": "Shawnee",
    "Address1": "15500 Shawnee Mission Pkwy",
    "Address2": null,
    "City": "Shawnee",
    "State": "KS",
    "Postal": 66217,
    "Latitude": 39.0095,
    "Longitude": -94.7823
  },
  {
    "Name": "Battleground",
    "Address1": "3315 Battleground Ave",
    "Address2": null,
    "City": "Greensboro",
    "State": "NC",
    "Postal": 27410,
    "Latitude": 36.1175,
    "Longitude": -79.8942
  },
  {
    "Name": "Wendover",
    "Address1": "1210A Bridford Pkwy",
    "Address2": null,
    "City": "Greensboro",
    "State": "NC",
    "Postal": 27407,
    "Latitude": 36.0086,
    "Longitude": -79.8782
  },
  {
    "Name": "Knoxville East",
    "Address1": "5312 Washington Pike",
    "Address2": null,
    "City": "Knoxville",
    "State": "TN",
    "Postal": 37918,
    "Latitude": 36.0561,
    "Longitude": -83.9169
  },
  {
    "Name": "Knoxville West",
    "Address1": "220 Morrell Rd",
    "Address2": null,
    "City": "Knoxville",
    "State": "TN",
    "Postal": 37919,
    "Latitude": 35.9147,
    "Longitude": -84.0002
  },
  {
    "Name": "Farragut",
    "Address1": "11530 Kingston Pike",
    "Address2": null,
    "City": "Farragut",
    "State": "TN",
    "Postal": 37934,
    "Latitude": 35.8613,
    "Longitude": -84.1678
  },
  {
    "Name": "Muncie",
    "Address1": "1200 E Princeton Ave",
    "Address2": null,
    "City": "Muncie",
    "State": "IN",
    "Postal": 47303,
    "Latitude": 40.2716,
    "Longitude": -85.3777
  },
  {
    "Name": "Mechanicsville",
    "Address1": "7390 Ball Creek Rd",
    "Address2": null,
    "City": "Mechanicsville",
    "State": "VA",
    "Postal": 23111,
    "Latitude": 37.6136,
    "Longitude": -77.243
  },
  {
    "Name": "Short Pump",
    "Address1": "11240 W Broad St",
    "Address2": null,
    "City": "Glen Allen",
    "State": "VA",
    "Postal": 23060,
    "Latitude": 37.6562,
    "Longitude": -77.5378
  },
  {
    "Name": "North Hills",
    "Address1": "4801 McKnight Rd",
    "Address2": null,
    "City": "Pittsburgh",
    "State": "PA",
    "Postal": 15237,
    "Latitude": 40.5496,
    "Longitude": -80.0435
  },
  {
    "Name": "Fair Lakes",
    "Address1": "12551 Fair Lakes Cir",
    "Address2": null,
    "City": "Fairfax",
    "State": "VA",
    "Postal": 22033,
    "Latitude": 38.8752,
    "Longitude": -77.3847
  },
  {
    "Name": "Leesburg",
    "Address1": "1040 Edwards Ferry Rd NE",
    "Address2": null,
    "City": "Leesburg",
    "State": "VA",
    "Postal": 20176,
    "Latitude": 39.1847,
    "Longitude": -77.5441
  },
  {
    "Name": "Turnersville",
    "Address1": "5851 Route 42",
    "Address2": null,
    "City": "Turnersville",
    "State": "NJ",
    "Postal": 8012,
    "Latitude": 39.7838,
    "Longitude": -75.0561
  },
  {
    "Name": "Silver Spring",
    "Address1": "12024 Cherry Hill Rd",
    "Address2": null,
    "City": "Silver Spring",
    "State": "MD",
    "Postal": 20904,
    "Latitude": 39.0666,
    "Longitude": -76.9809
  },
  {
    "Name": "Westampton",
    "Address1": "2703 Burlington Mt Holly Rd",
    "Address2": null,
    "City": "Westampton",
    "State": "NJ",
    "Postal": 8060,
    "Latitude": 40.0077,
    "Longitude": -74.7901
  },
  {
    "Name": "Canton Township",
    "Address1": "44444 Ford Rd",
    "Address2": null,
    "City": "Canton",
    "State": "MI",
    "Postal": 48187,
    "Latitude": 42.3256,
    "Longitude": -83.4836
  },
  {
    "Name": "Gastonia",
    "Address1": "3648 E Franklin Blvd",
    "Address2": null,
    "City": "Gastonia",
    "State": "NC",
    "Postal": 28054,
    "Latitude": 35.2629,
    "Longitude": -81.1491
  },
  {
    "Name": "Huntersville",
    "Address1": "9743 Sam Furr Rd",
    "Address2": null,
    "City": "Huntersville",
    "State": "NC",
    "Postal": 28078,
    "Latitude": 35.4052,
    "Longitude": -80.864
  },
  {
    "Name": "Crystal Lake",
    "Address1": "5420 Northwest Hwy",
    "Address2": null,
    "City": "Crystal Lake",
    "State": "IL",
    "Postal": 60014,
    "Latitude": 42.2324,
    "Longitude": -88.3274
  },
  {
    "Name": "Joliet",
    "Address1": "2510 Route 59",
    "Address2": null,
    "City": "Plainfield",
    "State": "IL",
    "Postal": 60586,
    "Latitude": 41.5715,
    "Longitude": -88.2382
  },
  {
    "Name": "Batavia",
    "Address1": "251 N Randall Rd",
    "Address2": null,
    "City": "Batavia",
    "State": "IL",
    "Postal": 60510,
    "Latitude": 41.8411,
    "Longitude": -88.3066
  },
  {
    "Name": "Northville",
    "Address1": "20155 Haggerty Rd",
    "Address2": null,
    "City": "Northville",
    "State": "MI",
    "Postal": 48167,
    "Latitude": 42.4323,
    "Longitude": -83.5247
  },
  {
    "Name": "Airport Highway",
    "Address1": "1220 S Hollan - Sylvania Rd",
    "Address2": null,
    "City": "Holland",
    "State": "OH",
    "Postal": 43528,
    "Latitude": 41.6289,
    "Longitude": -83.7496
  },
  {
    "Name": "Gaithersburg",
    "Address1": "9871 Washingtonian Blvd",
    "Address2": null,
    "City": "Gaithersburg",
    "State": "MD",
    "Postal": 20878,
    "Latitude": 39.1128,
    "Longitude": -77.2505
  },
  {
    "Name": "Manassas",
    "Address1": "11190 Bulloch Dr",
    "Address2": null,
    "City": "Manassas",
    "State": "VA",
    "Postal": 20109,
    "Latitude": 38.7936,
    "Longitude": -77.531
  },
  {
    "Name": "Charleston",
    "Address1": "222 R H L Blvd",
    "Address2": null,
    "City": "Charleston",
    "State": "WV",
    "Postal": 25309,
    "Latitude": 38.3086,
    "Longitude": -81.7495
  },
  {
    "Name": "Powell",
    "Address1": "120 Meadow Park Dr",
    "Address2": null,
    "City": "Lewis Center",
    "State": "OH",
    "Postal": 43035,
    "Latitude": 40.1885,
    "Longitude": -82.995
  },
  {
    "Name": "New Albany",
    "Address1": "4865 N Hamilton Rd",
    "Address2": null,
    "City": "Columbus",
    "State": "OH",
    "Postal": 43230,
    "Latitude": 40.0358,
    "Longitude": -82.8709
  },
  {
    "Name": "Lawrence",
    "Address1": "3240 Iowa St",
    "Address2": null,
    "City": "Lawrence",
    "State": "KS",
    "Postal": 66046,
    "Latitude": 38.9045,
    "Longitude": -95.2098
  },
  {
    "Name": "Stow",
    "Address1": "4240 Kent Rd",
    "Address2": null,
    "City": "Stow",
    "State": "OH",
    "Postal": 44224,
    "Latitude": 41.1763,
    "Longitude": -81.4365
  },
  {
    "Name": "Ann Arbor",
    "Address1": "3160 Lohr Rd",
    "Address2": null,
    "City": "Ann Arbor",
    "State": "MI",
    "Postal": 48108,
    "Latitude": 42.2217,
    "Longitude": -83.7323
  },
  {
    "Name": "Bensalem",
    "Address1": "2325 Street Rd",
    "Address2": null,
    "City": "Bensalem",
    "State": "PA",
    "Postal": 19020,
    "Latitude": 40.1006,
    "Longitude": -74.9389
  },
  {
    "Name": "Lexington East",
    "Address1": "1988 Pavilion Way",
    "Address2": null,
    "City": "Lexington",
    "State": "KY",
    "Postal": 40509,
    "Latitude": 37.9973,
    "Longitude": -84.3779
  },
  {
    "Name": "Eagle Run",
    "Address1": "13550 W Maple Rd",
    "Address2": null,
    "City": "Omaha",
    "State": "NE",
    "Postal": 68164,
    "Latitude": 41.2969,
    "Longitude": -96.1067
  },
  {
    "Name": "Goshen",
    "Address1": "3802 Midway Rd",
    "Address2": null,
    "City": "Goshen",
    "State": "IN",
    "Postal": 46526,
    "Latitude": 41.5588,
    "Longitude": -85.8767
  },
  {
    "Name": "Mechanicsburg",
    "Address1": "6444 Carlisle Pike",
    "Address2": null,
    "City": "Mechanicsburg",
    "State": "PA",
    "Postal": 17055,
    "Latitude": 40.1828,
    "Longitude": -77.0046
  },
  {
    "Name": "Hanover",
    "Address1": "360 Eisenhower Dr",
    "Address2": null,
    "City": "Hanover",
    "State": "PA",
    "Postal": 17331,
    "Latitude": 39.7897,
    "Longitude": -76.978
  },
  {
    "Name": "York East",
    "Address1": "2600 Pleasant Valley Rd",
    "Address2": null,
    "City": "York",
    "State": "PA",
    "Postal": 17402,
    "Latitude": 39.9585,
    "Longitude": -76.6587
  },
  {
    "Name": "Herndon",
    "Address1": "2100 Centreville Rd",
    "Address2": null,
    "City": "Herndon",
    "State": "VA",
    "Postal": 20170,
    "Latitude": 38.9798,
    "Longitude": -77.3797
  },
  {
    "Name": "Lone Tree",
    "Address1": "8660 S Quebec St",
    "Address2": null,
    "City": "Lone Tree",
    "State": "CO",
    "Postal": 80124,
    "Latitude": 39.5329,
    "Longitude": -104.8911
  },
  {
    "Name": "Arapahoe Crossing",
    "Address1": "6584 S Parker Rd",
    "Address2": null,
    "City": "Aurora",
    "State": "CO",
    "Postal": 80016,
    "Latitude": 39.5995,
    "Longitude": -104.7076
  },
  {
    "Name": "Louisville",
    "Address1": "919 W Dillon Rd",
    "Address2": null,
    "City": "Louisville",
    "State": "CO",
    "Postal": 80027,
    "Latitude": 39.9508,
    "Longitude": -105.1595
  },
  {
    "Name": "Westminster",
    "Address1": "11875 Sheridan Blvd",
    "Address2": null,
    "City": "Westminster",
    "State": "CO",
    "Postal": 80020,
    "Latitude": 39.9308,
    "Longitude": -105.0743
  },
  {
    "Name": "Thornton",
    "Address1": "12090 Colorado Blvd",
    "Address2": null,
    "City": "Thornton",
    "State": "CO",
    "Postal": 80241,
    "Latitude": 39.9295,
    "Longitude": -104.9548
  },
  {
    "Name": "Aurora East",
    "Address1": "18307 E Hampden Ave",
    "Address2": null,
    "City": "Aurora",
    "State": "CO",
    "Postal": 80013,
    "Latitude": 39.6614,
    "Longitude": -104.7657
  },
  {
    "Name": "Plainfield",
    "Address1": "2685 E Mian St",
    "Address2": null,
    "City": "Plainfield",
    "State": "IN",
    "Postal": 46168,
    "Latitude": 39.6853,
    "Longitude": -86.3929
  },
  {
    "Name": "Hickory",
    "Address1": "1920 Catawba Valley Blvd SE",
    "Address2": null,
    "City": "Hickory",
    "State": "NC",
    "Postal": 28602,
    "Latitude": 35.6699,
    "Longitude": -81.3892
  },
  {
    "Name": "Brandermill",
    "Address1": "4701 Commonwealth Centre Pkwy",
    "Address2": null,
    "City": "Midlothian",
    "State": "VA",
    "Postal": 23112,
    "Latitude": 37.4334,
    "Longitude": -77.6628
  },
  {
    "Name": "Frederick",
    "Address1": "7350 Guilford Dr",
    "Address2": null,
    "City": "Frederick",
    "State": "MD",
    "Postal": 21704,
    "Latitude": 39.3549,
    "Longitude": -77.3759
  },
  {
    "Name": "Arnold",
    "Address1": "2150 Michigan Ave",
    "Address2": null,
    "City": "Arnold",
    "State": "MO",
    "Postal": 63010,
    "Latitude": 38.4304,
    "Longitude": -90.3921
  },
  {
    "Name": "Bridgeton",
    "Address1": "12222 St Charles Rock Rd",
    "Address2": null,
    "City": "Bridgeton",
    "State": "MO",
    "Postal": 63044,
    "Latitude": 38.7727,
    "Longitude": -90.43
  },
  {
    "Name": "Creve Coeur",
    "Address1": "955 Woodcrest Executive Dr",
    "Address2": null,
    "City": "Creve Coeur",
    "State": "MO",
    "Postal": 63141,
    "Latitude": 38.6582,
    "Longitude": -90.4582
  },
  {
    "Name": "Fairview Heights",
    "Address1": "6109 N Illinois St",
    "Address2": null,
    "City": "Fairview Heights",
    "State": "IL",
    "Postal": 62208,
    "Latitude": 38.5954,
    "Longitude": -90.0049
  },
  {
    "Name": "Manchester",
    "Address1": "14425 Andersohn Dr",
    "Address2": null,
    "City": "Manchester",
    "State": "MO",
    "Postal": 63011,
    "Latitude": 38.6037,
    "Longitude": -90.5592
  },
  {
    "Name": "O'Fallon",
    "Address1": "2110 Highway K",
    "Address2": null,
    "City": "O'Fallon",
    "State": "MO",
    "Postal": 63366,
    "Latitude": 38.8574,
    "Longitude": -90.7255
  },
  {
    "Name": "St. Peters",
    "Address1": "4000 Center Pointe Rd",
    "Address2": null,
    "City": "St. Peters",
    "State": "MO",
    "Postal": 63304,
    "Latitude": 38.7035,
    "Longitude": -90.6675
  },
  {
    "Name": "Round Lake",
    "Address1": "230 Rollins Rd E",
    "Address2": null,
    "City": "Round Lake Beach",
    "State": "IL",
    "Postal": 60073,
    "Latitude": 42.3488,
    "Longitude": -88.1096
  },
  {
    "Name": "Colonial Park",
    "Address1": "5125 Jonestown Rd",
    "Address2": null,
    "City": "Harrisburg",
    "State": "PA",
    "Postal": 17112,
    "Latitude": 40.3731,
    "Longitude": -76.7765
  },
  {
    "Name": "Rochester-MN",
    "Address1": "20 25th St SE",
    "Address2": null,
    "City": "Rochester",
    "State": "MN",
    "Postal": 55904,
    "Latitude": 43.9599,
    "Longitude": -92.4006
  },
  {
    "Name": "Carrollton",
    "Address1": "4120 Old Denton Rd",
    "Address2": null,
    "City": "Carrollton",
    "State": "TX",
    "Postal": 75010,
    "Latitude": 33.0501,
    "Longitude": -96.8745
  },
  {
    "Name": "Cedar Hill",
    "Address1": "424 N Highway 67",
    "Address2": null,
    "City": "Cedar Hill",
    "State": "TX",
    "Postal": 75104,
    "Latitude": 32.5802,
    "Longitude": -96.9646
  },
  {
    "Name": "Flower Mound",
    "Address1": "2501 Cross Timbers Rd",
    "Address2": null,
    "City": "Flower Mound",
    "State": "TX",
    "Postal": 75028,
    "Latitude": 33.0327,
    "Longitude": -97.0601
  },
  {
    "Name": "Garland",
    "Address1": "3353 N George Bush Hwy",
    "Address2": null,
    "City": "Garland ",
    "State": "TX",
    "Postal": 75040,
    "Latitude": 32.9289,
    "Longitude": -96.6198
  },
  {
    "Name": "Hulen",
    "Address1": "5520 SW Loop 820",
    "Address2": null,
    "City": "Fort Worth",
    "State": "TX",
    "Postal": 76132,
    "Latitude": 32.6674,
    "Longitude": -97.4168
  },
  {
    "Name": "Keller",
    "Address1": "2001 S Main St",
    "Address2": null,
    "City": "Keller",
    "State": "TX",
    "Postal": 76248,
    "Latitude": 32.924,
    "Longitude": -97.2251
  },
  {
    "Name": "Lewisville",
    "Address1": "1001 Valley Ridge Blvd",
    "Address2": null,
    "City": "Lewisville",
    "State": "TX",
    "Postal": 75067,
    "Latitude": 33.0135,
    "Longitude": -97.0002
  },
  {
    "Name": "North Richland Hills",
    "Address1": "6091 Precinct Line Rd",
    "Address2": null,
    "City": "N Richland Hills",
    "State": "TX",
    "Postal": 76180,
    "Latitude": 32.84,
    "Longitude": -97.2253
  },
  {
    "Name": "Plano North",
    "Address1": "2400 McDermott Rd",
    "Address2": null,
    "City": "Plano",
    "State": "TX",
    "Postal": 75025,
    "Latitude": 33.0901,
    "Longitude": -96.74
  },
  {
    "Name": "Rockwall",
    "Address1": "823 E I 30 Hwy",
    "Address2": null,
    "City": "Rockwall",
    "State": "TX",
    "Postal": 75087,
    "Latitude": 32.9439,
    "Longitude": -96.4529
  },
  {
    "Name": "South Arlington",
    "Address1": "5410 S Cooper St",
    "Address2": null,
    "City": "Arlington",
    "State": "TX",
    "Postal": 76017,
    "Latitude": 32.6625,
    "Longitude": -97.164
  },
  {
    "Name": "Lansing",
    "Address1": "6528 W Saginaw Hwy",
    "Address2": null,
    "City": "Lansing",
    "State": "MI",
    "Postal": 48917,
    "Latitude": 42.7252,
    "Longitude": -84.6395
  },
  {
    "Name": "Grandville",
    "Address1": "3790 Rivertown Pkwy SW",
    "Address2": null,
    "City": "Grandville",
    "State": "MI",
    "Postal": 49418,
    "Latitude": 42.878,
    "Longitude": -85.7679
  },
  {
    "Name": "Levittown",
    "Address1": "3601 Hempstead Turnpike",
    "Address2": null,
    "City": "Levittown",
    "State": "NY",
    "Postal": 11756,
    "Latitude": 40.7245,
    "Longitude": -73.5163
  },
  {
    "Name": "Deer Park",
    "Address1": "409 Commack Rd",
    "Address2": null,
    "City": "Deer Park",
    "State": "NY",
    "Postal": 11729,
    "Latitude": 40.7611,
    "Longitude": -73.3253
  },
  {
    "Name": "East Setauket",
    "Address1": "5000 Nesconset Hwy",
    "Address2": null,
    "City": "East Setauket",
    "State": "NY",
    "Postal": 11733,
    "Latitude": 40.9402,
    "Longitude": -73.1127
  },
  {
    "Name": "Ronkonkoma",
    "Address1": "106 Ronkonkoma Ave",
    "Address2": null,
    "City": "Lake Ronkonkoma",
    "State": "NY",
    "Postal": 11779,
    "Latitude": 40.813,
    "Longitude": -73.1145
  },
  {
    "Name": "Shirley",
    "Address1": "999-21 Montauk Hwy",
    "Address2": null,
    "City": "Shirley",
    "State": "NY",
    "Postal": 11967,
    "Latitude": 40.7948,
    "Longitude": -72.8755
  },
  {
    "Name": "Nanuet",
    "Address1": "220 E Route 59 Corner",
    "Address2": null,
    "City": "Nanuet",
    "State": "NY",
    "Postal": 10954,
    "Latitude": 41.0988,
    "Longitude": -74.0133
  },
  {
    "Name": "Paramus",
    "Address1": "165 Route 4 W",
    "Address2": null,
    "City": "Paramus",
    "State": "NJ",
    "Postal": 7652,
    "Latitude": 40.9473,
    "Longitude": -74.0702
  },
  {
    "Name": "West Paterson",
    "Address1": "1710 Route 46 W",
    "Address2": null,
    "City": "Woodland Park",
    "State": "NJ",
    "Postal": 7424,
    "Latitude": 40.8828,
    "Longitude": -74.2056
  },
  {
    "Name": "Morris Plains",
    "Address1": "1711 State Route 10 E",
    "Address2": null,
    "City": "Morris Plains",
    "State": "NJ",
    "Postal": 7950,
    "Latitude": 40.8459,
    "Longitude": -74.4823
  },
  {
    "Name": "Ledgewood",
    "Address1": "275 Route 10",
    "Address2": null,
    "City": "Succasunna",
    "State": "NJ",
    "Postal": 7876,
    "Latitude": 40.8545,
    "Longitude": -74.6574
  },
  {
    "Name": "Secaucus",
    "Address1": "3 Mill Creek Dr",
    "Address2": null,
    "City": "Secaucus",
    "State": "NJ",
    "Postal": 7094,
    "Latitude": 40.7819,
    "Longitude": -74.0676
  },
  {
    "Name": "Watchung",
    "Address1": "107 Route 22",
    "Address2": null,
    "City": "Watchung",
    "State": "NJ",
    "Postal": 7069,
    "Latitude": 40.6428,
    "Longitude": -74.4362
  },
  {
    "Name": "South Plainfield",
    "Address1": "4971 Stelton Rd",
    "Address2": null,
    "City": "South Plainfield",
    "State": "NJ",
    "Postal": 7080,
    "Latitude": 40.5744,
    "Longitude": -74.4148
  },
  {
    "Name": "Holmdel",
    "Address1": "2145 Hwy 35",
    "Address2": null,
    "City": "Holmdel",
    "State": "NJ",
    "Postal": 7733,
    "Latitude": 40.375,
    "Longitude": -74.1738
  },
  {
    "Name": "Marlboro",
    "Address1": "168 Route 9",
    "Address2": null,
    "City": "Englishtown",
    "State": "NJ",
    "Postal": 7726,
    "Latitude": 40.2824,
    "Longitude": -74.3466
  },
  {
    "Name": "Brick",
    "Address1": "644 Route 70",
    "Address2": null,
    "City": "Bricktown",
    "State": "NJ",
    "Postal": 8723,
    "Latitude": 40.0386,
    "Longitude": -74.1116
  },
  {
    "Name": "Tom's River",
    "Address1": "1 Route 37 W",
    "Address2": null,
    "City": "Tom's River",
    "State": "NJ",
    "Postal": 8753,
    "Latitude": 39.979,
    "Longitude": -74.1604
  },
  {
    "Name": "Severna Park",
    "Address1": "575 Ritchie Hwy",
    "Address2": null,
    "City": "Severna Park",
    "State": "MD",
    "Postal": 21146,
    "Latitude": 39.079,
    "Longitude": -76.5587
  },
  {
    "Name": "Yonkers",
    "Address1": "2350 Central Park Ave",
    "Address2": null,
    "City": "Yonkers",
    "State": "NY",
    "Postal": 10710,
    "Latitude": 40.9672,
    "Longitude": -73.8463
  },
  {
    "Name": "Bedford Hills",
    "Address1": "777 Bedford Rd",
    "Address2": null,
    "City": "Bedford Hills",
    "State": "NY",
    "Postal": 10507,
    "Latitude": 41.2279,
    "Longitude": -73.686
  },
  {
    "Name": "Cortlandt Manor",
    "Address1": "3008 E Main St",
    "Address2": null,
    "City": "Cortlandt Manor",
    "State": "NY",
    "Postal": 10567,
    "Latitude": 41.2896,
    "Longitude": -73.897
  },
  {
    "Name": "Wappingers Falls",
    "Address1": "1830 South Road ",
    "Address2": null,
    "City": "Wappingers Falls",
    "State": "NY",
    "Postal": 12590,
    "Latitude": 41.5926,
    "Longitude": -73.8869
  },
  {
    "Name": "Port Chester",
    "Address1": "431 Boston Post Rd",
    "Address2": null,
    "City": "Port Chester",
    "State": "NY",
    "Postal": 10573,
    "Latitude": 41.0159,
    "Longitude": -73.6774
  },
  {
    "Name": "West Norwalk",
    "Address1": "500 Connecticut Ave",
    "Address2": null,
    "City": "Norwalk",
    "State": "CT",
    "Postal": 6854,
    "Latitude": 41.0839,
    "Longitude": -73.4265
  },
  {
    "Name": "Ridgefield",
    "Address1": "125 Danbury Rd",
    "Address2": null,
    "City": "Ridgefield",
    "State": "CT",
    "Postal": 6877,
    "Latitude": 41.3108,
    "Longitude": -73.4997
  },
  {
    "Name": "Brookfield",
    "Address1": "84 Federal Rd",
    "Address2": null,
    "City": "Brookfield",
    "State": "CT",
    "Postal": 6804,
    "Latitude": 41.4699,
    "Longitude": -73.3937
  },
  {
    "Name": "Fairfield",
    "Address1": "290 Tunxis Hill Rd",
    "Address2": null,
    "City": "Fairfield",
    "State": "CT",
    "Postal": 6825,
    "Latitude": 41.1965,
    "Longitude": -73.2433
  },
  {
    "Name": "Trumbull",
    "Address1": "100 Hawley Ln",
    "Address2": null,
    "City": "Trumbull",
    "State": "CT",
    "Postal": 6611,
    "Latitude": 41.2679,
    "Longitude": -73.2137
  },
  {
    "Name": "Branford",
    "Address1": "1075 W Main St",
    "Address2": null,
    "City": "Branford",
    "State": "CT",
    "Postal": 6405,
    "Latitude": 41.2849,
    "Longitude": -72.7935
  },
  {
    "Name": "Hamden",
    "Address1": "2380 Dixwell Ave",
    "Address2": null,
    "City": "Hamden",
    "State": "CT",
    "Postal": 6514,
    "Latitude": 41.3761,
    "Longitude": -72.9434
  },
  {
    "Name": "Wallingford",
    "Address1": "1248 S Broad St",
    "Address2": null,
    "City": "Wallingford",
    "State": "CT",
    "Postal": 6492,
    "Latitude": 41.4587,
    "Longitude": -72.8045
  },
  {
    "Name": "Riverdale",
    "Address1": "12785 Riverdale Blvd NW",
    "Address2": null,
    "City": "Coon Rapids",
    "State": "MN",
    "Postal": 55448,
    "Latitude": 45.1936,
    "Longitude": -93.3005
  },
  {
    "Name": "Plano West",
    "Address1": "4708 W Spring Creek Pkwy",
    "Address2": null,
    "City": "Plano",
    "State": "TX",
    "Postal": 75093,
    "Latitude": 33.0342,
    "Longitude": -96.8116
  },
  {
    "Name": "Jericho",
    "Address1": "28 Jericho Turnpike",
    "Address2": null,
    "City": "Jericho",
    "State": "NY",
    "Postal": 11753,
    "Latitude": 40.7897,
    "Longitude": -73.5399
  },
  {
    "Name": "North Dallas",
    "Address1": "18224 Preston Rd",
    "Address2": null,
    "City": "Dallas",
    "State": "TX",
    "Postal": 75252,
    "Latitude": 32.9974,
    "Longitude": -96.7882
  },
  {
    "Name": "Grand Prairie",
    "Address1": "3865 S Carrier Pkwy",
    "Address2": null,
    "City": "Grand Prairie",
    "State": "TX",
    "Postal": 75052,
    "Latitude": 32.665,
    "Longitude": -97.0247
  },
  {
    "Name": "SW Denver",
    "Address1": "8444 S Kipling Pkwy",
    "Address2": null,
    "City": "Littleton",
    "State": "CO",
    "Postal": 80127,
    "Latitude": 39.5307,
    "Longitude": -105.1643
  },
  {
    "Name": "McKinney",
    "Address1": "3001 S Central Expressway",
    "Address2": null,
    "City": "McKinney",
    "State": "TX",
    "Postal": 75069,
    "Latitude": 33.18,
    "Longitude": -96.5857
  },
  {
    "Name": "Massapequa",
    "Address1": "5300 Sunrise Hwy",
    "Address2": null,
    "City": "Massapequa Park",
    "State": "NY",
    "Postal": 11762,
    "Latitude": 40.6826,
    "Longitude": -73.4467
  },
  {
    "Name": "Oceanside",
    "Address1": "3600 Long Beach Rd",
    "Address2": null,
    "City": "Oceanside",
    "State": "NY",
    "Postal": 11572,
    "Latitude": 40.6318,
    "Longitude": -73.6366
  },
  {
    "Name": "Lemont",
    "Address1": "13440 Archer Ave",
    "Address2": null,
    "City": "Lemont",
    "State": "IL",
    "Postal": 60439,
    "Latitude": 41.6769,
    "Longitude": -87.9772
  },
  {
    "Name": "Lake Zurich",
    "Address1": "675 N Rand Rd",
    "Address2": null,
    "City": "Lake Zurich",
    "State": "IL",
    "Postal": 60047,
    "Latitude": 42.2031,
    "Longitude": -88.0442
  },
  {
    "Name": "Golden",
    "Address1": "16700 W Colfax Ave",
    "Address2": null,
    "City": "Golden",
    "State": "CO",
    "Postal": 80401,
    "Latitude": 39.7187,
    "Longitude": -105.236
  },
  {
    "Name": "Cranberry",
    "Address1": "1717 Route 228",
    "Address2": null,
    "City": "Cranberry Township",
    "State": "PA",
    "Postal": 16066,
    "Latitude": 40.71,
    "Longitude": -80.1056
  },
  {
    "Name": "Southlake",
    "Address1": "3001 E State Hwy 114",
    "Address2": null,
    "City": "Southlake",
    "State": "TX",
    "Postal": 76092,
    "Latitude": 32.9599,
    "Longitude": -97.1484
  },
  {
    "Name": "Bay Shore",
    "Address1": "2040 Sunrise Hwy",
    "Address2": null,
    "City": "Bay Shore",
    "State": "NY",
    "Postal": 11706,
    "Latitude": 40.7224,
    "Longitude": -73.2522
  },
  {
    "Name": "South East Tulsa",
    "Address1": "11011 E 71st St",
    "Address2": null,
    "City": "Tulsa",
    "State": "OK",
    "Postal": 74133,
    "Latitude": 36.0393,
    "Longitude": -95.8774
  },
  {
    "Name": "Riverside",
    "Address1": "9595 S Delaware Ave",
    "Address2": null,
    "City": "Tulsa",
    "State": "OK",
    "Postal": 74137,
    "Latitude": 36.0224,
    "Longitude": -95.9306
  },
  {
    "Name": "Owasso",
    "Address1": "12405 E 96th St N",
    "Address2": null,
    "City": "Owasso",
    "State": "OK",
    "Postal": 74055,
    "Latitude": 36.2767,
    "Longitude": -95.8191
  },
  {
    "Name": "Elmhurst",
    "Address1": "303 S Route 83",
    "Address2": null,
    "City": "Elmhurst",
    "State": "IL",
    "Postal": 60126,
    "Latitude": 41.8968,
    "Longitude": -87.9412
  },
  {
    "Name": "Longmont",
    "Address1": "1211 S Hover St",
    "Address2": null,
    "City": "Longmont",
    "State": "CO",
    "Postal": 80501,
    "Latitude": 40.1648,
    "Longitude": -105.1032
  },
  {
    "Name": "Fort Collins",
    "Address1": "813 E Harmony Rd",
    "Address2": null,
    "City": "Fort Collins",
    "State": "CO",
    "Postal": 80525,
    "Latitude": 40.5299,
    "Longitude": -105.0366
  },
  {
    "Name": "Easton",
    "Address1": "3768 Easton Nazareth Hwy",
    "Address2": null,
    "City": "Easton",
    "State": "PA",
    "Postal": 18045,
    "Latitude": 40.6933,
    "Longitude": -75.2728
  },
  {
    "Name": "Kernersville",
    "Address1": "224 Harmon Creek Rd",
    "Address2": null,
    "City": "Kernersville",
    "State": "NC",
    "Postal": 27285,
    "Latitude": 36.11,
    "Longitude": -80.0699
  },
  {
    "Name": "Flint",
    "Address1": "3030 S Linden Rd",
    "Address2": null,
    "City": "Flint",
    "State": "MI",
    "Postal": 48507,
    "Latitude": 42.967,
    "Longitude": -83.7174
  },
  {
    "Name": "Fenton",
    "Address1": "115 Gravios Bluffs Plaza Dr",
    "Address2": null,
    "City": "Fenton",
    "State": "MO",
    "Postal": 63026,
    "Latitude": 38.5033,
    "Longitude": -90.461
  },
  {
    "Name": "Neenah",
    "Address1": "1175 W Winneconne Ave",
    "Address2": null,
    "City": "Neenah",
    "State": "WI",
    "Postal": 54956,
    "Latitude": 44.1823,
    "Longitude": -88.5276
  },
  {
    "Name": "Rochester Hills",
    "Address1": "223 E Auburn",
    "Address2": null,
    "City": "Rochester Hills",
    "State": "MI",
    "Postal": 48307,
    "Latitude": 42.6593,
    "Longitude": -83.1227
  },
  {
    "Name": "Stockbridge",
    "Address1": "5005 Mt Zion Pkwy",
    "Address2": null,
    "City": "Stockbridge",
    "State": "GA",
    "Postal": 30281,
    "Latitude": 33.5679,
    "Longitude": -84.1934
  },
  {
    "Name": "Fayetteville",
    "Address1": "300 Pavillion Pkwy",
    "Address2": null,
    "City": "Fayetteville",
    "State": "GA",
    "Postal": 30214,
    "Latitude": 33.4905,
    "Longitude": -84.486
  },
  {
    "Name": "Newnan",
    "Address1": "1140 Bullsboro Dr",
    "Address2": null,
    "City": "Newnan",
    "State": "GA",
    "Postal": 30265,
    "Latitude": 33.4186,
    "Longitude": -84.7131
  },
  {
    "Name": "Hiram",
    "Address1": "5220 Jimmy Lee Smith Pkwy",
    "Address2": null,
    "City": "Hiram",
    "State": "GA",
    "Postal": 30141,
    "Latitude": 33.8604,
    "Longitude": -84.7699
  },
  {
    "Name": "Acworth",
    "Address1": "3354 Cobb Pkwy",
    "Address2": null,
    "City": "Acworth",
    "State": "GA",
    "Postal": 30101,
    "Latitude": 34.0345,
    "Longitude": -84.7073
  },
  {
    "Name": "Austell",
    "Address1": "1825 East West Connector SW",
    "Address2": null,
    "City": "Austell",
    "State": "GA",
    "Postal": 30106,
    "Latitude": 33.839,
    "Longitude": -84.6282
  },
  {
    "Name": "Woodstock",
    "Address1": "120 Woodstock Square Ave",
    "Address2": null,
    "City": "Woodstock",
    "State": "GA",
    "Postal": 30189,
    "Latitude": 34.1242,
    "Longitude": -84.5707
  },
  {
    "Name": "Merchants Walk",
    "Address1": "1289 Johnson Ferry Rd",
    "Address2": null,
    "City": "Marrietta",
    "State": "GA",
    "Postal": 30068,
    "Latitude": 33.9681,
    "Longitude": -84.4317
  },
  {
    "Name": "Roswell",
    "Address1": "620 Crossville Rd W",
    "Address2": null,
    "City": "Roswell",
    "State": "GA",
    "Postal": 30075,
    "Latitude": 34.0551,
    "Longitude": -84.3905
  },
  {
    "Name": "Cumming",
    "Address1": "1615 Market Place Blvd",
    "Address2": null,
    "City": "Cumming",
    "State": "GA",
    "Postal": 30041,
    "Latitude": 34.2046,
    "Longitude": -84.1003
  },
  {
    "Name": "Johns Creek",
    "Address1": "3630 Peachtree Pkwy, Ste 150",
    "Address2": null,
    "City": "Suwanee ",
    "State": "GA",
    "Postal": 30024,
    "Latitude": 34.063,
    "Longitude": -84.0908
  },
  {
    "Name": "Duluth",
    "Address1": "2050 W Liddell Rd",
    "Address2": null,
    "City": "Duluth",
    "State": "GA",
    "Postal": 30096,
    "Latitude": 33.9743,
    "Longitude": -84.1454
  },
  {
    "Name": "Snellville",
    "Address1": "2059 Scenic Hwy",
    "Address2": null,
    "City": "Snellville",
    "State": "GA",
    "Postal": 30078,
    "Latitude": 33.861,
    "Longitude": -84.018
  },
  {
    "Name": "Conyers",
    "Address1": "1630 Dogwood Dr SE",
    "Address2": null,
    "City": "Conyers",
    "State": "GA",
    "Postal": 30013,
    "Latitude": 33.6452,
    "Longitude": -83.9722
  },
  {
    "Name": "Lawrenceville",
    "Address1": "640 Collins Hill Rd",
    "Address2": null,
    "City": "Lawrenceville",
    "State": "GA",
    "Postal": 30046,
    "Latitude": 33.9486,
    "Longitude": -83.9958
  },
  {
    "Name": "Chattanooga",
    "Address1": "1812 Gunbarrel Rd",
    "Address2": null,
    "City": "Chattanooga",
    "State": "TN",
    "Postal": 37421,
    "Latitude": 35.0305,
    "Longitude": -85.1457
  },
  {
    "Name": "Wausau",
    "Address1": "3600 Rib Mountain Dr",
    "Address2": null,
    "City": "Wausau",
    "State": "WI",
    "Postal": 54401,
    "Latitude": 44.9632,
    "Longitude": -89.7041
  },
  {
    "Name": "Fayetteville",
    "Address1": "3575 North Shiloh Dr",
    "Address2": null,
    "City": "Fayetteville",
    "State": "AR",
    "Postal": 72703,
    "Latitude": 36.1183,
    "Longitude": -94.0432
  },
  {
    "Name": "Fort Smith",
    "Address1": "7801 Rogers Ave",
    "Address2": null,
    "City": "Fort Smith",
    "State": "AR",
    "Postal": 72903,
    "Latitude": 35.351,
    "Longitude": -94.3612
  },
  {
    "Name": "Rogers",
    "Address1": "301 North 46th Street",
    "Address2": null,
    "City": "Rogers",
    "State": "AR",
    "Postal": 72756,
    "Latitude": 36.323,
    "Longitude": -93.976
  },
  {
    "Name": "Apple Valley",
    "Address1": "14926 Florence Trail",
    "Address2": null,
    "City": "Apple Valley",
    "State": "MN",
    "Postal": 55124,
    "Latitude": 44.7395,
    "Longitude": -93.1938
  },
  {
    "Name": "North Huntingdon",
    "Address1": "88 Rocky Road ",
    "Address2": null,
    "City": "North Huntingdon",
    "State": "PA",
    "Postal": 15642,
    "Latitude": 40.3183,
    "Longitude": -79.7236
  },
  {
    "Name": "Enfield",
    "Address1": "95 Elm St",
    "Address2": null,
    "City": "Enfield",
    "State": "CT",
    "Postal": 6082,
    "Latitude": 41.984,
    "Longitude": -72.5556
  },
  {
    "Name": "Plainville",
    "Address1": "200 New Britain Ave",
    "Address2": null,
    "City": "Plainville",
    "State": "CT",
    "Postal": 6062,
    "Latitude": 41.6736,
    "Longitude": -72.8597
  },
  {
    "Name": "Powers Blvd",
    "Address1": "3110 N Powers Blvd",
    "Address2": null,
    "City": "Colorado Springs",
    "State": "CO",
    "Postal": 80922,
    "Latitude": 38.8906,
    "Longitude": -104.7006
  },
  {
    "Name": "Bel Air",
    "Address1": "5K Bel Air South Pkwy",
    "Address2": null,
    "City": "Bel Air",
    "State": "MD",
    "Postal": 21015,
    "Latitude": 39.5441,
    "Longitude": -76.2925
  },
  {
    "Name": "Avon",
    "Address1": "35906 Detroit Rd",
    "Address2": null,
    "City": "Avon",
    "State": "OH",
    "Postal": 44011,
    "Latitude": 41.445,
    "Longitude": -82.0051
  },
  {
    "Name": "Cary Crossroads",
    "Address1": "2350 Walnut St",
    "Address2": null,
    "City": "Cary",
    "State": "NC",
    "Postal": 27518,
    "Latitude": 35.7311,
    "Longitude": -78.7732
  },
  {
    "Name": "Falls Pointe",
    "Address1": "9600 Falls of Neuse Rd",
    "Address2": null,
    "City": "Raleigh",
    "State": "NC",
    "Postal": 27615,
    "Latitude": 35.8985,
    "Longitude": -78.6354
  },
  {
    "Name": "Troy",
    "Address1": "1265 Coolidge Rd",
    "Address2": null,
    "City": "Troy",
    "State": "MI",
    "Postal": 48084,
    "Latitude": 42.5606,
    "Longitude": -83.1757
  },
  {
    "Name": "Mesquite",
    "Address1": "19065 LBJ Freeway",
    "Address2": null,
    "City": "Mesquite",
    "State": "TX",
    "Postal": 75150,
    "Latitude": 32.8174,
    "Longitude": -96.6304
  },
  {
    "Name": "Hamilton Township",
    "Address1": "460 Market Place Blvd",
    "Address2": null,
    "City": "Hamilton Township",
    "State": "NJ",
    "Postal": 8691,
    "Latitude": 40.2087,
    "Longitude": -74.5921
  },
  {
    "Name": "Groton",
    "Address1": "220 Route 12",
    "Address2": null,
    "City": "Groton",
    "State": "CT",
    "Postal": 6340,
    "Latitude": 41.3575,
    "Longitude": -72.0418
  },
  {
    "Name": "Lisbon",
    "Address1": "160 River Rd Ste A100",
    "Address2": null,
    "City": "Lisbon",
    "State": "CT",
    "Postal": 6351,
    "Latitude": 41.5897,
    "Longitude": -71.9484
  },
  {
    "Name": "Lee's Summit",
    "Address1": "1820 NW Chipman Rd",
    "Address2": null,
    "City": "Lee's Summit",
    "State": "MO",
    "Postal": 64081,
    "Latitude": 38.9069,
    "Longitude": -94.4038
  },
  {
    "Name": "Valparaiso",
    "Address1": "350 Silhavy Rd",
    "Address2": null,
    "City": "Valparaiso",
    "State": "IN",
    "Postal": 46383,
    "Latitude": 41.4632,
    "Longitude": -87.0074
  },
  {
    "Name": "Frankfort",
    "Address1": "11055 W Lincoln Hwy",
    "Address2": null,
    "City": "Frankfort",
    "State": "IL",
    "Postal": 60423,
    "Latitude": 41.4773,
    "Longitude": -87.8324
  },
  {
    "Name": "McHenry",
    "Address1": "2450 N Richmond Rd",
    "Address2": null,
    "City": "McHenry",
    "State": "IL",
    "Postal": 60050,
    "Latitude": 42.3311,
    "Longitude": -88.2951
  },
  {
    "Name": "Howell",
    "Address1": "4799 US Hwy 9",
    "Address2": null,
    "City": "Howell",
    "State": "NJ",
    "Postal": 7731,
    "Latitude": 40.1495,
    "Longitude": -74.2039
  },
  {
    "Name": "Santa Maria",
    "Address1": "2501 South Broadway",
    "Address2": null,
    "City": "Santa Maria",
    "State": "CA",
    "Postal": 93455,
    "Latitude": 34.8318,
    "Longitude": -120.4335
  },
  {
    "Name": "Hillsborough",
    "Address1": "315 Route 206",
    "Address2": null,
    "City": "Hillsborough",
    "State": "NJ",
    "Postal": 8844,
    "Latitude": 40.4977,
    "Longitude": -74.6705
  },
  {
    "Name": "Royersford",
    "Address1": "989 Township Line Rd",
    "Address2": null,
    "City": "Royersford",
    "State": "PA",
    "Postal": 19468,
    "Latitude": 40.2076,
    "Longitude": -75.5321
  },
  {
    "Name": "Brighton",
    "Address1": "6650 Whitmore Lake Rd",
    "Address2": null,
    "City": "Brighton",
    "State": "MI",
    "Postal": 48116,
    "Latitude": 42.5057,
    "Longitude": -83.7829
  },
  {
    "Name": "Shelby Township",
    "Address1": "8320 26 Mile Rd",
    "Address2": null,
    "City": "Shelby Township",
    "State": "MI",
    "Postal": 48316,
    "Latitude": 42.6902,
    "Longitude": -83.0572
  },
  {
    "Name": "Midland",
    "Address1": "901 Joe Mann Blvd",
    "Address2": null,
    "City": "Midland",
    "State": "MI",
    "Postal": 48642,
    "Latitude": 43.7127,
    "Longitude": -84.237
  },
  {
    "Name": "SW Waukesha",
    "Address1": "2140 W St Paul Ave",
    "Address2": null,
    "City": "Waukesha",
    "State": "WI",
    "Postal": 53188,
    "Latitude": 43.0223,
    "Longitude": -88.2924
  },
  {
    "Name": "Delavan",
    "Address1": "1921 E Geneva St",
    "Address2": null,
    "City": "Delavan",
    "State": "WI",
    "Postal": 53115,
    "Latitude": 42.6566,
    "Longitude": -88.6683
  },
  {
    "Name": "Muskego",
    "Address1": "S68 W15388 Janesville Rd",
    "Address2": null,
    "City": "Muskego",
    "State": "WI",
    "Postal": 53150,
    "Latitude": 42.8714,
    "Longitude": -88.1343
  },
  {
    "Name": "Bainbridge",
    "Address1": "7005 Market Place Dr",
    "Address2": null,
    "City": "Aurora",
    "State": "OH",
    "Postal": 44202,
    "Latitude": 41.3151,
    "Longitude": -81.3383
  },
  {
    "Name": "Edmond",
    "Address1": "2201 W Danforth Rd",
    "Address2": null,
    "City": "Edmond",
    "State": "OK",
    "Postal": 73003,
    "Latitude": 35.6689,
    "Longitude": -97.4974
  },
  {
    "Name": "NW Oklahoma City",
    "Address1": "9001 NW Passage Rd",
    "Address2": null,
    "City": "Oklahoma City",
    "State": "OK",
    "Postal": 73132,
    "Latitude": 35.5534,
    "Longitude": -97.6333
  },
  {
    "Name": "Yukon",
    "Address1": "1715 Garth Brooks Blvd",
    "Address2": null,
    "City": "Yukon",
    "State": "OK",
    "Postal": 73099,
    "Latitude": 35.5274,
    "Longitude": -97.7825
  },
  {
    "Name": "Moore",
    "Address1": "2600 S Telephone Rd",
    "Address2": null,
    "City": "Moore ",
    "State": "OK",
    "Postal": 73160,
    "Latitude": 35.3324,
    "Longitude": -97.4752
  },
  {
    "Name": "Westminster",
    "Address1": "840 Market St",
    "Address2": null,
    "City": "Westminster",
    "State": "MD",
    "Postal": 21157,
    "Latitude": 39.5486,
    "Longitude": -76.9836
  },
  {
    "Name": "Eldersburg",
    "Address1": "1324 Londontown Blvd",
    "Address2": null,
    "City": "Eldersburg",
    "State": "MD",
    "Postal": 21784,
    "Latitude": 39.4011,
    "Longitude": -76.9736
  },
  {
    "Name": "Greenville-SC",
    "Address1": "1219 Woodruff Rd",
    "Address2": null,
    "City": "Greenville",
    "State": "SC",
    "Postal": 29607,
    "Latitude": 34.8128,
    "Longitude": -82.3317
  },
  {
    "Name": "Asheville",
    "Address1": "149 Bleachery Blvd",
    "Address2": null,
    "City": "Asheville",
    "State": "NC",
    "Postal": 28805,
    "Latitude": 35.6338,
    "Longitude": -82.4832
  },
  {
    "Name": "Columbus-IN",
    "Address1": "711 Creekview Dr",
    "Address2": null,
    "City": "Columbus",
    "State": "IN",
    "Postal": 47201,
    "Latitude": 39.1589,
    "Longitude": -85.9932
  },
  {
    "Name": "Johnson Creek",
    "Address1": "570 Wright Rd",
    "Address2": null,
    "City": "Johnson Creek",
    "State": "WI",
    "Postal": 53038,
    "Latitude": 43.0843,
    "Longitude": -88.7877
  },
  {
    "Name": "Coralville",
    "Address1": "2795 Commerce Dr",
    "Address2": null,
    "City": "Coralville",
    "State": "IA",
    "Postal": 52241,
    "Latitude": 41.6995,
    "Longitude": -91.596
  },
  {
    "Name": "Cedar Falls",
    "Address1": "5911 University Ave Ste 400",
    "Address2": null,
    "City": "Cedar Falls",
    "State": "IA",
    "Postal": 50613,
    "Latitude": 42.5314,
    "Longitude": -92.4858
  },
  {
    "Name": "Perrysburg",
    "Address1": "10323 Fremont Pike",
    "Address2": null,
    "City": "Perrysburg",
    "State": "OH",
    "Postal": 43551,
    "Latitude": 41.518,
    "Longitude": -83.572
  },
  {
    "Name": "Manchester",
    "Address1": "155 Tolland Turnpike",
    "Address2": null,
    "City": "Manchester",
    "State": "CT",
    "Postal": 6040,
    "Latitude": 41.7614,
    "Longitude": -72.5256
  },
  {
    "Name": "Newark-DE",
    "Address1": "2800 Pulaski Hwy",
    "Address2": null,
    "City": "Newark",
    "State": "DE",
    "Postal": 19702,
    "Latitude": 39.6182,
    "Longitude": -75.7296
  },
  {
    "Name": "Wallkill",
    "Address1": "470 Route 211 East",
    "Address2": null,
    "City": "Middletown",
    "State": "NY",
    "Postal": 10940,
    "Latitude": 41.4465,
    "Longitude": -74.4787
  },
  {
    "Name": "South Elgin",
    "Address1": "350 Randall Rd",
    "Address2": null,
    "City": "South Elgin",
    "State": "IL",
    "Postal": 60177,
    "Latitude": 41.9885,
    "Longitude": -88.3102
  },
  {
    "Name": "El Paso East",
    "Address1": "1319 George Dieter Dr",
    "Address2": null,
    "City": "El Paso",
    "State": "TX",
    "Postal": 79936,
    "Latitude": 31.7766,
    "Longitude": -106.297
  },
  {
    "Name": "El Paso Northwest",
    "Address1": "5680 N Desert Blvd",
    "Address2": null,
    "City": "El Paso",
    "State": "TX",
    "Postal": 79912,
    "Latitude": 31.8486,
    "Longitude": -106.5343
  },
  {
    "Name": "North Austin",
    "Address1": "13609 N I H 35",
    "Address2": null,
    "City": "Austin",
    "State": "TX",
    "Postal": 78753,
    "Latitude": 30.3825,
    "Longitude": -97.6735
  },
  {
    "Name": "Lakeline",
    "Address1": "11111 Lakeline Blvd",
    "Address2": null,
    "City": "Austin",
    "State": "TX",
    "Postal": 78717,
    "Latitude": 30.4924,
    "Longitude": -97.7483
  },
  {
    "Name": "Round Rock",
    "Address1": "200 Sundance Pkwy",
    "Address2": null,
    "City": "Round Rock",
    "State": "TX",
    "Postal": 78681,
    "Latitude": 30.5344,
    "Longitude": -97.7257
  },
  {
    "Name": "New Albany",
    "Address1": "3899 Charlestown Rd",
    "Address2": null,
    "City": "New Albany",
    "State": "IN",
    "Postal": 47150,
    "Latitude": 38.2834,
    "Longitude": -85.8476
  },
  {
    "Name": "Preston Highway",
    "Address1": "11811 Standiford Plaza Dr",
    "Address2": null,
    "City": "Louisville",
    "State": "KY",
    "Postal": 40229,
    "Latitude": 38.0895,
    "Longitude": -85.6538
  },
  {
    "Name": "Battle Creek",
    "Address1": "12765 Harper Village Dr",
    "Address2": null,
    "City": "Battle Creek",
    "State": "MI",
    "Postal": 49014,
    "Latitude": 42.3146,
    "Longitude": -85.1062
  },
  {
    "Name": "Frisco",
    "Address1": "7150 Preston Rd",
    "Address2": null,
    "City": "Frisco",
    "State": "TX",
    "Postal": 75034,
    "Latitude": 33.1466,
    "Longitude": -96.8558
  },
  {
    "Name": "Rocky Point",
    "Address1": "346 Route 25A Ste 130",
    "Address2": null,
    "City": "Rocky Point",
    "State": "NY",
    "Postal": 11778,
    "Latitude": 40.948,
    "Longitude": -72.9371
  },
  {
    "Name": "Gainesville",
    "Address1": "975 Dawsonville Hwy",
    "Address2": null,
    "City": "Gainesville",
    "State": "GA",
    "Postal": 30501,
    "Latitude": 34.3191,
    "Longitude": -83.8144
  },
  {
    "Name": "Hamilton Mill",
    "Address1": "2270 Hamilton Creek Pkwy",
    "Address2": null,
    "City": "Dacula",
    "State": "GA",
    "Postal": 30019,
    "Latitude": 33.9756,
    "Longitude": -83.8837
  },
  {
    "Name": "Bloomington",
    "Address1": "3140 W Whitehall Crossing Blvd",
    "Address2": null,
    "City": "Bloomington",
    "State": "IN",
    "Postal": 47404,
    "Latitude": 39.2194,
    "Longitude": -86.5912
  },
  {
    "Name": "Shakopee",
    "Address1": "1529 17th Ave E",
    "Address2": null,
    "City": "Shakopee",
    "State": "MN",
    "Postal": 55379,
    "Latitude": 44.754,
    "Longitude": -93.5146
  },
  {
    "Name": "Woodlands",
    "Address1": "16640 I 45 South",
    "Address2": null,
    "City": "Conroe",
    "State": "TX",
    "Postal": 77384,
    "Latitude": 30.2338,
    "Longitude": -95.4957
  },
  {
    "Name": "Franklin",
    "Address1": "300 Spring Creek Dr",
    "Address2": null,
    "City": "Franklin",
    "State": "TN",
    "Postal": 37067,
    "Latitude": 35.9123,
    "Longitude": -86.7803
  },
  {
    "Name": "Hermitage",
    "Address1": "2330 Jackson Downs Blvd",
    "Address2": null,
    "City": "Nashville",
    "State": "TN",
    "Postal": 37214,
    "Latitude": 36.1622,
    "Longitude": -86.6709
  },
  {
    "Name": "Hendersonville",
    "Address1": "1030 Glenbrook Way",
    "Address2": null,
    "City": "Hendersonville",
    "State": "TN",
    "Postal": 37075,
    "Latitude": 36.34,
    "Longitude": -86.6079
  },
  {
    "Name": "Murfreesboro",
    "Address1": "2535 Old Forte Pkwy",
    "Address2": null,
    "City": "Murfreesboro",
    "State": "TN",
    "Postal": 37128,
    "Latitude": 35.7842,
    "Longitude": -86.4894
  },
  {
    "Name": "Burleson",
    "Address1": "1173 N Burleson Blvd",
    "Address2": null,
    "City": "Burleson",
    "State": "TX",
    "Postal": 76028,
    "Latitude": 32.5327,
    "Longitude": -97.3065
  },
  {
    "Name": "Katy",
    "Address1": "1200 Fry Rd",
    "Address2": null,
    "City": "Houston",
    "State": "TX",
    "Postal": 77084,
    "Latitude": 29.8275,
    "Longitude": -95.6598
  },
  {
    "Name": "Burlington-MA",
    "Address1": "150 Lexington St",
    "Address2": null,
    "City": "Burlington",
    "State": "MA",
    "Postal": 1803,
    "Latitude": 42.5032,
    "Longitude": -71.2017
  },
  {
    "Name": "Chelmsford",
    "Address1": "251 Chelmsford St",
    "Address2": null,
    "City": "Chelmsford",
    "State": "MA",
    "Postal": 1824,
    "Latitude": 42.5908,
    "Longitude": -71.3552
  },
  {
    "Name": "Hingham",
    "Address1": "100 Derby St",
    "Address2": null,
    "City": "Hingham",
    "State": "MA",
    "Postal": 2043,
    "Latitude": 42.2161,
    "Longitude": -70.8813
  },
  {
    "Name": "Medford",
    "Address1": "3850 Mystic Valley Pkwy",
    "Address2": null,
    "City": "Medford",
    "State": "MA",
    "Postal": 2155,
    "Latitude": 42.4238,
    "Longitude": -71.1076
  },
  {
    "Name": "Milford",
    "Address1": "91 Medway Rd",
    "Address2": null,
    "City": "Milford",
    "State": "MA",
    "Postal": 1757,
    "Latitude": 42.1587,
    "Longitude": -71.5214
  },
  {
    "Name": "Nashua",
    "Address1": "21 Gusabel Ave",
    "Address2": null,
    "City": "Nashua",
    "State": "NH",
    "Postal": 3063,
    "Latitude": 42.7821,
    "Longitude": -71.518
  },
  {
    "Name": "Newington",
    "Address1": "45 Gosling Road Unit 7",
    "Address2": null,
    "City": "Newington",
    "State": "NH",
    "Postal": 3801,
    "Latitude": 43.0748,
    "Longitude": -70.8054
  },
  {
    "Name": "North Andover",
    "Address1": "350 Winthrop Ave",
    "Address2": null,
    "City": "North Andover",
    "State": "MA",
    "Postal": 1845,
    "Latitude": 42.6739,
    "Longitude": -71.0913
  },
  {
    "Name": "Pembroke",
    "Address1": "139 Church St",
    "Address2": null,
    "City": "Pembroke",
    "State": "MA",
    "Postal": 2359,
    "Latitude": 42.0678,
    "Longitude": -70.8057
  },