[
 {
   "Name": "Things Remembered",
   "Address1": " 246 North New Hope Rd",
   "Address2": null,
   "City": " Gastonia",
   "State": " NC",
   "Postal": 28054,
   "Latitude": null,
   "Longitude": null
 },
 {
   "Name": "Things Remembered",
   "Address1": " 4600 Jonestown Rd",
   "Address2": "Spc 13",
   "City": " Harrisburg",
   "State": " PA",
   "Postal": 17109,
   "Latitude": null,
   "Longitude": null
 },
 {
   "Name": "Things Remembered",
   "Address1": " 4950 Pacific Ave",
   "Address2": "Spc 217",
   "City": " Stockton",
   "State": " CA",
   "Postal": 95207,
   "Latitude": null,
   "Longitude": null
 },
 {
   "Name": "Things Remembered",
   "Address1": " 3333 Buford Dr",
   "Address2": "Spc 2033",
   "City": " Buford",
   "State": " GA",
   "Postal": 30519,
   "Latitude": null,
   "Longitude": null
 },
 {
   "Name": "Things Remembered",
   "Address1": " 3301 E Main St",
   "Address2": "Spc 1030",
   "City": " Ventura",
   "State": " CA",
   "Postal": 93003,
   "Latitude": null,
   "Longitude": null
 },
 {
   "Name": "Things Remembered",
   "Address1": " 7401 Market St",
   "Address2": "Spc 343",
   "City": " Youngstown",
   "State": " OH",
   "Postal": 44512,
   "Latitude": null,
   "Longitude": null
 },
 {
   "Name": "Things Remembered",
   "Address1": " 719 Brookwood Vlg",
   "Address2": null,
   "City": " Homewood",
   "State": " AL",
   "Postal": 35209,
   "Latitude": null,
   "Longitude": null
 },
 {
   "Name": "Things Remembered",
   "Address1": " 1750 Deptford Center Rd",
   "Address2": "1220",
   "City": " Woodbury",
   "State": " NJ",
   "Postal": 8096,
   "Latitude": null,
   "Longitude": null
 },
 {
   "Name": "Things Remembered",
   "Address1": " 601-635 Harry L Dr",
   "Address2": "Ste 75",
   "City": " Johnson City",
   "State": " NY",
   "Postal": 13790,
   "Latitude": null,
   "Longitude": null
 },
 {
   "Name": "Things Remembered",
   "Address1": " 572 Great Northern Mall",
   "Address2": null,
   "City": " North Olmsted",
   "State": " OH",
   "Postal": 44070,
   "Latitude": null,
   "Longitude": null
 },
 {
   "Name": "Things Remembered",
   "Address1": " 100 Viewmont Mall",
   "Address2": "Box 75",
   "City": " Scranton",
   "State": " PA",
   "Postal": 18508,
   "Latitude": null,
   "Longitude": null
 },
 {
   "Name": "Things Remembered",
   "Address1": " 17 Wyoming Valley Mall",
   "Address2": null,
   "City": " Wilkes Barre",
   "State": " PA",
   "Postal": 18702,
   "Latitude": null,
   "Longitude": null
 },
 {
   "Name": "Things Remembered",
   "Address1": " 1 Garden State Plz",
   "Address2": "Ste T13",
   "City": " Paramus",
   "State": " NJ",
   "Postal": 7652,
   "Latitude": null,
   "Longitude": null
 },
 {
   "Name": "Things Remembered",
   "Address1": " 21100 Dulles Town Cir",
   "Address2": "187",
   "City": " Dulles",
   "State": " VA",
   "Postal": 20166,
   "Latitude": null,
   "Longitude": null
 },
 {
   "Name": "Things Remembered",
   "Address1": " 5580 Goods Ln",
   "Address2": "Ste 1057",
   "City": " Altoona",
   "State": " PA",
   "Postal": 16602,
   "Latitude": null,
   "Longitude": null
 },
 {
   "Name": "Things Remembered",
   "Address1": " 1227 Southlake Mall",
   "Address2": null,
   "City": " Morrow",
   "State": " GA",
   "Postal": 30260,
   "Latitude": null,
   "Longitude": null
 },
 {
   "Name": "Things Remembered",
   "Address1": " 4201 Coldwater Rd",
   "Address2": "G01",
   "City": " Fort Wayne",
   "State": " IN",
   "Postal": 46805,
   "Latitude": null,
   "Longitude": null
 },
 {
   "Name": "Things Remembered",
   "Address1": " 154 Chesterfield Mall",
   "Address2": null,
   "City": " Chesterfield",
   "State": " MO",
   "Postal": 63017,
   "Latitude": null,
   "Longitude": null
 },
 {
   "Name": "Things Remembered",
   "Address1": " 14200 E Alameda Ave",
   "Address2": null,
   "City": " Aurora",
   "State": " CO",
   "Postal": 80012,
   "Latitude": null,
   "Longitude": null
 },
 {
   "Name": "Things Remembered",
   "Address1": " 4314 Milan Rd",
   "Address2": "Spc K4",
   "City": " Sandusky",
   "State": " OH",
   "Postal": 44870,
   "Latitude": null,
   "Longitude": null
 },
 {
   "Name": "Things Remembered",
   "Address1": " 240 Lehigh Valley Mall",
   "Address2": null,
   "City": " Whitehall",
   "State": " PA",
   "Postal": 18052,
   "Latitude": null,
   "Longitude": null
 },
 {
   "Name": "Things Remembered",
   "Address1": " 3320 Brunswick Ave",
   "Address2": "249",
   "City": " Lawrenceville",
   "State": " NJ",
   "Postal": 8648,
   "Latitude": null,
   "Longitude": null
 },
 {
   "Name": "Things Remembered",
   "Address1": " 12511 N Mainstreet",
   "Address2": null,
   "City": " Rancho Cucamonga",
   "State": " CA",
   "Postal": 91739,
   "Latitude": null,
   "Longitude": null
 },
 {
   "Name": "Things Remembered",
   "Address1": " 5256 Route 30",
   "Address2": null,
   "City": " Greensburg",
   "State": " PA",
   "Postal": 15601,
   "Latitude": null,
   "Longitude": null
 },
 {
   "Name": "Things Remembered",
   "Address1": " 825 Dulaney Valley Rd",
   "Address2": null,
   "City": " Towson",
   "State": " MD",
   "Postal": 21204,
   "Latitude": null,
   "Longitude": null
 },
 {
   "Name": "Things Remembered",
   "Address1": " 2152 Florence Mall",
   "Address2": null,
   "City": " Florence",
   "State": " KY",
   "Postal": 41042,
   "Latitude": null,
   "Longitude": null
 },
 {
   "Name": "Things Remembered",
   "Address1": " 1872 Green Oaks Rd",
   "Address2": null,
   "City": " Fort Worth",
   "State": " TX",
   "Postal": 76116,
   "Latitude": null,
   "Longitude": null
 },
 {
   "Name": "Things Remembered",
   "Address1": " 6002 Slide Rd",
   "Address2": "B06 Box 68334",
   "City": " Lubbock",
   "State": " TX",
   "Postal": 79414,
   "Latitude": null,
   "Longitude": null
 },
 {
   "Name": "Things Remembered",
   "Address1": " 755 State Route 18",
   "Address2": null,
   "City": " East Brunswick",
   "State": " NJ",
   "Postal": 8816,
   "Latitude": null,
   "Longitude": null
 },
 {
   "Name": "Things Remembered",
   "Address1": " 2011 Burnsville Center",
   "Address2": null,
   "City": " Burnsville",
   "State": " MN",
   "Postal": 55306,
   "Latitude": null,
   "Longitude": null
 },
 {
   "Name": "Things Remembered",
   "Address1": " 3489 Capital City Mall Dr",
   "Address2": null,
   "City": " Camp Hill",
   "State": " PA",
   "Postal": 17011,
   "Latitude": null,
   "Longitude": null
 },
 {
   "Name": "Things Remembered",
   "Address1": " 1201 Hooper Ave",
   "Address2": "Spc 1083",
   "City": " Toms River",
   "State": " NJ",
   "Postal": 8753,
   "Latitude": null,
   "Longitude": null
 },
 {
   "Name": "Things Remembered",
   "Address1": " 2257 Southlake Mall",
   "Address2": null,
   "City": " Merrillville",
   "State": " IN",
   "Postal": 46410,
   "Latitude": null,
   "Longitude": null
 },
 {
   "Name": "Things Remembered",
   "Address1": " 2501 Wabash Ave",
   "Address2": "Spc C051",
   "City": " Springfield",
   "State": " IL",
   "Postal": 62704,
   "Latitude": null,
   "Longitude": null
 },
 {
   "Name": "Things Remembered",
   "Address1": " 2901 E College Ave",
   "Address2": "Ste 645",
   "City": " State College",
   "State": " PA",
   "Postal": 16801,
   "Latitude": null,
   "Longitude": null
 },
 {
   "Name": "Things Remembered",
   "Address1": " 156 Orland Square Dr",
   "Address2": null,
   "City": " Orland Park",
   "State": " IL",
   "Postal": 60462,
   "Latitude": null,
   "Longitude": null
 },
 {
   "Name": "Things Remembered",
   "Address1": " 6801 Northlake Mall Dr",
   "Address2": null,
   "City": " Charlotte",
   "State": " NC",
   "Postal": 28216,
   "Latitude": null,
   "Longitude": null
 },
 {
   "Name": "Things Remembered",
   "Address1": " 3279 East Colonial Dr",
   "Address2": "D56",
   "City": " Orlando",
   "State": " FL",
   "Postal": 32803,
   "Latitude": null,
   "Longitude": null
 },
 {
   "Name": "Things Remembered",
   "Address1": " 3651 Wall Ave",
   "Address2": null,
   "City": " Ogden",
   "State": " UT",
   "Postal": 84405,
   "Latitude": null,
   "Longitude": null
 },
 {
   "Name": "Things Remembered",
   "Address1": " 7021 S Memorial Dr",
   "Address2": "Ste 128",
   "City": " Tulsa",
   "State": " OK",
   "Postal": 74133,
   "Latitude": null,
   "Longitude": null
 },
 {
   "Name": "Things Remembered",
   "Address1": " 4801 Outer Loop",
   "Address2": "A224",
   "City": " Louisville",
   "State": " KY",
   "Postal": 40219,
   "Latitude": null,
   "Longitude": null
 },
 {
   "Name": "Things Remembered",
   "Address1": " 11401 Pines Blvd",
   "Address2": "Ste 105",
   "City": " Pembroke Pines",
   "State": " FL",
   "Postal": 33026,
   "Latitude": null,
   "Longitude": null
 },
 {
   "Name": "Things Remembered",
   "Address1": " 4034 The Strand W",
   "Address2": null,
   "City": " Columbus",
   "State": " OH",
   "Postal": 43219,
   "Latitude": null,
   "Longitude": null
 },
 {
   "Name": "Things Remembered",
   "Address1": " 501 Fox Valley Ctr",
   "Address2": null,
   "City": " Aurora",
   "State": " IL",
   "Postal": 60504,
   "Latitude": null,
   "Longitude": null
 },
 {
   "Name": "Things Remembered",
   "Address1": " 1201 Boston Post Rd",
   "Address2": null,
   "City": " Milford",
   "State": " CT",
   "Postal": 6460,
   "Latitude": null,
   "Longitude": null
 },
 {
   "Name": "Things Remembered",
   "Address1": " 290 E Broadway",
   "Address2": null,
   "City": " Bloomington",
   "State": " MN",
   "Postal": 55425,
   "Latitude": null,
   "Longitude": null
 },
 {
   "Name": "Things Remembered",
   "Address1": " 424 W 14 Mile Rd",
   "Address2": null,
   "City": " Troy",
   "State": " MI",
   "Postal": 48083,
   "Latitude": null,
   "Longitude": null
 },
 {
   "Name": "Things Remembered",
   "Address1": " 2929 Turner Hill Rd",
   "Address2": "Ste 1050",
   "City": " Lithonia",
   "State": " GA",
   "Postal": 30038,
   "Latitude": null,
   "Longitude": null
 },
 {
   "Name": "Things Remembered",
   "Address1": " 811K Neshaminy Mall",
   "Address2": null,
   "City": " Bensalem",
   "State": " PA",
   "Postal": 19020,
   "Latitude": null,
   "Longitude": null
 },
 {
   "Name": "Things Remembered",
   "Address1": " 1655 Paramus Park Mall",
   "Address2": null,
   "City": " Paramus",
   "State": " NJ",
   "Postal": 7652,
   "Latitude": null,
   "Longitude": null
 },
 {
   "Name": "Things Remembered",
   "Address1": " 2280 Galleria At Tyler",
   "Address2": null,
   "City": " Riverside",
   "State": " CA",
   "Postal": 92503,
   "Latitude": null,
   "Longitude": null
 },
 {
   "Name": "Things Remembered",
   "Address1": " 462 Woodbridge Ctr",
   "Address2": null,
   "City": " Woodbridge",
   "State": " NJ",
   "Postal": 7095,
   "Latitude": null,
   "Longitude": null
 },
 {
   "Name": "Things Remembered",
   "Address1": " 10300 Forest Hill Blvd",
   "Address2": "156",
   "City": " Wellington",
   "State": " FL",
   "Postal": 33414,
   "Latitude": null,
   "Longitude": null
 },
 {
   "Name": "Things Remembered",
   "Address1": " 6901 Security Blvd",
   "Address2": null,
   "City": " Baltimore",
   "State": " MD",
   "Postal": 21244,
   "Latitude": null,
   "Longitude": null
 },
 {
   "Name": "Things Remembered",
   "Address1": " 6301 Nw Loop 410",
   "Address2": null,
   "City": " San Antonio",
   "State": " TX",
   "Postal": 78238,
   "Latitude": null,
   "Longitude": null
 },
 {
   "Name": "Things Remembered",
   "Address1": " 1760 W Empire Mall",
   "Address2": null,
   "City": " Sioux Falls",
   "State": " SD",
   "Postal": 57106,
   "Latitude": null,
   "Longitude": null
 },
 {
   "Name": "Things Remembered",
   "Address1": " 5959 Triangle Town Blvd",
   "Address2": "1140",
   "City": " Raleigh",
   "State": " NC",
   "Postal": 27616,
   "Latitude": null,
   "Longitude": null
 },
 {
   "Name": "Things Remembered",
   "Address1": " 5500 Buckeystown Pike",
   "Address2": null,
   "City": " Frederick",
   "State": " MD",
   "Postal": 21703,
   "Latitude": null,
   "Longitude": null
 },
 {
   "Name": "Things Remembered",
   "Address1": " 630 Briarwood Circle",
   "Address2": null,
   "City": " Ann Arbor",
   "State": " MI",
   "Postal": 48108,
   "Latitude": null,
   "Longitude": null
 },
 {
   "Name": "Things Remembered",
   "Address1": " 1018 Rosedale Center",
   "Address2": "Ki3505",
   "City": " Roseville",
   "State": " MN",
   "Postal": 55113,
   "Latitude": null,
   "Longitude": null
 },
 {
   "Name": "Things Remembered",
   "Address1": " 21182 Salmon Run Mall Loop W",
   "Address2": null,
   "City": " Watertown",
   "State": " NY",
   "Postal": 13601,
   "Latitude": null,
   "Longitude": null
 },
 {
   "Name": "Things Remembered",
   "Address1": " 1277 Broadway",
   "Address2": "Spc W124",
   "City": " Saugus",
   "State": " MA",
   "Postal": 1906,
   "Latitude": null,
   "Longitude": null
 },
 {
   "Name": "Things Remembered",
   "Address1": " 5043 Tuttle Crossing Blvd",
   "Address2": null,
   "City": " Dublin",
   "State": " OH",
   "Postal": 43016,
   "Latitude": null,
   "Longitude": null
 },
 {
   "Name": "Things Remembered",
   "Address1": " 8505 Park Meadows Center Dr",
   "Address2": "2017",
   "City": " Lone Tree",
   "State": " CO",
   "Postal": 80124,
   "Latitude": null,
   "Longitude": null
 },
 {
   "Name": "Things Remembered",
   "Address1": " 6501 Grape Rd",
   "Address2": "K640",
   "City": " Mishawaka",
   "State": " IN",
   "Postal": 46545,
   "Latitude": null,
   "Longitude": null
 },
 {
   "Name": "Things Remembered",
   "Address1": " 925 Blossom Hill Rd",
   "Address2": "Ste 1036",
   "City": " San Jose",
   "State": " CA",
   "Postal": 95123,
   "Latitude": null,
   "Longitude": null
 },
 {
   "Name": "Things Remembered",
   "Address1": " 4101 E 42nd St",
   "Address2": "Ste L28",
   "City": " Odessa",
   "State": " TX",
   "Postal": 79762,
   "Latitude": null,
   "Longitude": null
 },
 {
   "Name": "Things Remembered",
   "Address1": " 3075 Clairton Rd",
   "Address2": "Spc 456",
   "City": " West Mifflin",
   "State": " PA",
   "Postal": 15123,
   "Latitude": null,
   "Longitude": null
 },
 {
   "Name": "Things Remembered",
   "Address1": " 4622 Baldwin Rd",
   "Address2": null,
   "City": " Auburn Hills",
   "State": " MI",
   "Postal": 48326,
   "Latitude": null,
   "Longitude": null
 },
 {
   "Name": "Things Remembered",
   "Address1": " 1251 US 31 N",
   "Address2": null,
   "City": " Greenwood",
   "State": " IN",
   "Postal": 46142,
   "Latitude": null,
   "Longitude": null
 },
 {
   "Name": "Things Remembered",
   "Address1": " 3724 Irving Mall",
   "Address2": null,
   "City": " Irving",
   "State": " TX",
   "Postal": 75062,
   "Latitude": null,
   "Longitude": null
 },
 {
   "Name": "Things Remembered",
   "Address1": " 274 Towne Center Cir",
   "Address2": "Spc H3A",
   "City": " Sanford",
   "State": " FL",
   "Postal": 32771,
   "Latitude": null,
   "Longitude": null
 },
 {
   "Name": "Things Remembered",
   "Address1": " 8095 Citrus Park Town Center",
   "Address2": null,
   "City": " Tampa",
   "State": " FL",
   "Postal": 33625,
   "Latitude": null,
   "Longitude": null
 },
 {
   "Name": "Things Remembered",
   "Address1": " 3000 184th St SW",
   "Address2": "Ste 388",
   "City": " Lynnwood",
   "State": " WA",
   "Postal": 98037,
   "Latitude": null,
   "Longitude": null
 },
 {
   "Name": "Things Remembered",
   "Address1": " 420 Northtown Dr Ne",
   "Address2": null,
   "City": " Blaine",
   "State": " MN",
   "Postal": 55434,
   "Latitude": null,
   "Longitude": null
 },
 {
   "Name": "Things Remembered",
   "Address1": " 40820 Winchester Rd",
   "Address2": "1610",
   "City": " Temecula",
   "State": " CA",
   "Postal": 92591,
   "Latitude": null,
   "Longitude": null
 },
 {
   "Name": "Things Remembered",
   "Address1": " 4201 N Shiloh Dr",
   "Address2": null,
   "City": " Fayetteville",
   "State": " AR",
   "Postal": 72703,
   "Latitude": null,
   "Longitude": null
 },
 {
   "Name": "Things Remembered",
   "Address1": " 6001 W Waco Dr",
   "Address2": null,
   "City": " Waco",
   "State": " TX",
   "Postal": 76710,
   "Latitude": null,
   "Longitude": null
 },
 {
   "Name": "Things Remembered",
   "Address1": " 7205 NW 86th Terrace",
   "Address2": null,
   "City": " Kansas City",
   "State": " MO",
   "Postal": 64153,
   "Latitude": null,
   "Longitude": null
 },
 {
   "Name": "Things Remembered",
   "Address1": " 14600 Lakeside Cir",
   "Address2": null,
   "City": " Sterling Hts",
   "State": " MI",
   "Postal": 48313,
   "Latitude": null,
   "Longitude": null
 },
 {
   "Name": "Things Remembered",
   "Address1": " 777 E Merritt Island Cswy",
   "Address2": "187",
   "City": " Merritt Island",
   "State": " FL",
   "Postal": 32952,
   "Latitude": null,
   "Longitude": null
 },
 {
   "Name": "Things Remembered",
   "Address1": " 6000 Sepulveda Blvd",
   "Address2": "Ste 1466",
   "City": " Culver City",
   "State": " CA",
   "Postal": 90230,
   "Latitude": null,
   "Longitude": null
 },
 {
   "Name": "Things Remembered",
   "Address1": " 350 N Milwaukee St",
   "Address2": null,
   "City": " Boise",
   "State": " ID",
   "Postal": 83704,
   "Latitude": null,
   "Longitude": null
 },
 {
   "Name": "Things Remembered",
   "Address1": " 250 Granite St",
   "Address2": "2001",
   "City": " Braintree",
   "State": " MA",
   "Postal": 2184,
   "Latitude": null,
   "Longitude": null
 },
 {
   "Name": "Things Remembered",
   "Address1": " 3500 Oleander Dr",
   "Address2": null,
   "City": " Wilmington",
   "State": " NC",
   "Postal": 28403,
   "Latitude": null,
   "Longitude": null
 },
 {
   "Name": "Things Remembered",
   "Address1": " 4550 E Cactus Rd",
   "Address2": "208",
   "City": " Phoenix",
   "State": " AZ",
   "Postal": 85032,
   "Latitude": null,
   "Longitude": null
 },
 {
   "Name": "Things Remembered",
   "Address1": " 276 W Hillcrest Dr",
   "Address2": null,
   "City": " Thousand Oaks",
   "State": " CA",
   "Postal": 91360,
   "Latitude": null,
   "Longitude": null
 },
 {
   "Name": "Things Remembered",
   "Address1": " 17460 Hall Rd",
   "Address2": "Ste 153",
   "City": " Clinton Township",
   "State": " MI",
   "Postal": 48038,
   "Latitude": null,
   "Longitude": null
 },
 {
   "Name": "Things Remembered",
   "Address1": " 2012 North Point Cir",
   "Address2": null,
   "City": " Alpharetta",
   "State": " GA",
   "Postal": 30022,
   "Latitude": null,
   "Longitude": null
 },
 {
   "Name": "Things Remembered",
   "Address1": " 210 Andover St",
   "Address2": "E139",
   "City": " Peabody",
   "State": " MA",
   "Postal": 1960,
   "Latitude": null,
   "Longitude": null
 },
 {
   "Name": "Things Remembered",
   "Address1": " 8555 Seneca Tpke",
   "Address2": "K27",
   "City": " New Hartford",
   "State": " NY",
   "Postal": 13413,
   "Latitude": null,
   "Longitude": null
 },
 {
   "Name": "Things Remembered",
   "Address1": " 5953 W Park Ave",
   "Address2": "K7",
   "City": " Houma",
   "State": " LA",
   "Postal": 70364,
   "Latitude": null,
   "Longitude": null
 },
 {
   "Name": "Things Remembered",
   "Address1": " 12000 SE 82nd Ave",
   "Address2": "Ste 1128",
   "City": " Happy Valley",
   "State": " OR",
   "Postal": 97086,
   "Latitude": null,
   "Longitude": null
 },
 {
   "Name": "Things Remembered",
   "Address1": " 113 Stratford Square Mall",
   "Address2": null,
   "City": " Bloomingdale",
   "State": " IL",
   "Postal": 60108,
   "Latitude": null,
   "Longitude": null
 },
 {
   "Name": "Things Remembered",
   "Address1": " 23000 Eureka Rd",
   "Address2": "Spc 1130",
   "City": " Taylor",
   "State": " MI",
   "Postal": 48180,
   "Latitude": null,
   "Longitude": null
 },
 {
   "Name": "Things Remembered",
   "Address1": " 1701 Sunrise Hwy",
   "Address2": "Ste F11A",
   "City": " Bay Shore",
   "State": " NY",
   "Postal": 11706,
   "Latitude": null,
   "Longitude": null
 },
 {
   "Name": "Things Remembered",
   "Address1": " 2655 Richmond Ave",
   "Address2": "Ste 2305",
   "City": " Staten Island",
   "State": " NY",
   "Postal": 10314,
   "Latitude": null,
   "Longitude": null
 },
 {
   "Name": "Things Remembered",
   "Address1": " 455 Los Cerritos Mall",
   "Address2": null,
   "City": " Cerritos",
   "State": " CA",
   "Postal": 90703,
   "Latitude": null,
   "Longitude": null
 },
 {
   "Name": "Things Remembered",
   "Address1": " 811 Central Expy",
   "Address2": "Spc 2200",
   "City": " Plano",
   "State": " TX",
   "Postal": 75075,
   "Latitude": null,
   "Longitude": null
 },
 {
   "Name": "Things Remembered",
   "Address1": " 3300 Chambers Rd",
   "Address2": "Ste 5113",
   "City": " Horseheads",
   "State": " NY",
   "Postal": 14845,
   "Latitude": null,
   "Longitude": null
 },
 {
   "Name": "Things Remembered",
   "Address1": " 50 Holyoke St",
   "Address2": "Box 10176",
   "City": " Holyoke",
   "State": " MA",
   "Postal": 1040,
   "Latitude": null,
   "Longitude": null
 },
 {
   "Name": "Things Remembered",
   "Address1": " 2501 W Memorial Rd",
   "Address2": "257",
   "City": " Oklahoma City",
   "State": " OK",
   "Postal": 73134,
   "Latitude": null,
   "Longitude": null
 },
 {
   "Name": "Things Remembered",
   "Address1": " 1350 Travis Blvd",
   "Address2": "Ste 1437A",
   "City": " Fairfield",
   "State": " CA",
   "Postal": 94533,
   "Latitude": null,
   "Longitude": null
 },
 {
   "Name": "Things Remembered",
   "Address1": " 230 Chicago Ridge Mall",
   "Address2": null,
   "City": " Chicago Ridge",
   "State": " IL",
   "Postal": 60415,
   "Latitude": null,
   "Longitude": null
 },
 {
   "Name": "Things Remembered",
   "Address1": " 1394 Willowbrook Mall",
   "Address2": null,
   "City": " Houston",
   "State": " TX",
   "Postal": 77070,
   "Latitude": null,
   "Longitude": null
 },
 {
   "Name": "Things Remembered",
   "Address1": " 1572 Spring Hill Mall",
   "Address2": null,
   "City": " West Dundee",
   "State": " IL",
   "Postal": 60118,
   "Latitude": null,
   "Longitude": null
 },
 {
   "Name": "Things Remembered",
   "Address1": " 10300 Little Patuxent Pkwy",
   "Address2": "2365",
   "City": " Columbia",
   "State": " MD",
   "Postal": 21044,
   "Latitude": null,
   "Longitude": null
 },
 {
   "Name": "Things Remembered",
   "Address1": " 1068 Santa Rosa Plaza",
   "Address2": null,
   "City": " Santa Rosa",
   "State": " CA",
   "Postal": 95401,
   "Latitude": null,
   "Longitude": null
 },
 {
   "Name": "Things Remembered",
   "Address1": " 2014 Town East Mall",
   "Address2": null,
   "City": " Mesquite",
   "State": " TX",
   "Postal": 75150,
   "Latitude": null,
   "Longitude": null
 },
 {
   "Name": "Things Remembered",
   "Address1": " 8200 Perry Hall Blvd",
   "Address2": "1169",
   "City": " Baltimore",
   "State": " MD",
   "Postal": 21236,
   "Latitude": null,
   "Longitude": null
 },
 {
   "Name": "Things Remembered",
   "Address1": " 4500 N Oracle Rd",
   "Address2": "270",
   "City": " Tucson",
   "State": " AZ",
   "Postal": 85705,
   "Latitude": null,
   "Longitude": null
 },
 {
   "Name": "Things Remembered",
   "Address1": " 72 Providence Place",
   "Address2": "Ste 4325",
   "City": " Providence",
   "State": " RI",
   "Postal": 2903,
   "Latitude": null,
   "Longitude": null
 },
 {
   "Name": "Things Remembered",
   "Address1": " 8321 On The Mall",
   "Address2": null,
   "City": " Buena Park",
   "State": " CA",
   "Postal": 90620,
   "Latitude": null,
   "Longitude": null
 },
 {
   "Name": "Things Remembered",
   "Address1": " 2500 W Moreland Rd",
   "Address2": "Ste 1080",
   "City": " Willow Grove",
   "State": " PA",
   "Postal": 19090,
   "Latitude": null,
   "Longitude": null
 },
 {
   "Name": "Things Remembered",
   "Address1": " 9401 W Colonial Dr",
   "Address2": "Ste 200",
   "City": " Ocoee",
   "State": " FL",
   "Postal": 34761,
   "Latitude": null,
   "Longitude": null
 },
 {
   "Name": "Things Remembered",
   "Address1": " 241 Hillsdale Mall",
   "Address2": "Spc 2092",
   "City": " San Mateo",
   "State": " CA",
   "Postal": 94403,
   "Latitude": null,
   "Longitude": null
 },
 {
   "Name": "Things Remembered",
   "Address1": " 1700 W New Haven Ave",
   "Address2": null,
   "City": " Melbourne",
   "State": " FL",
   "Postal": 32904,
   "Latitude": null,
   "Longitude": null
 },
 {
   "Name": "Things Remembered",
   "Address1": " 705 Plaza Drive",
   "Address2": null,
   "City": " West Covina",
   "State": " CA",
   "Postal": 91790,
   "Latitude": null,
   "Longitude": null
 },
 {
   "Name": "Things Remembered",
   "Address1": " 100 Cambridgeside Place",
   "Address2": "E208",
   "City": " Cambridge",
   "State": " MA",
   "Postal": 2141,
   "Latitude": null,
   "Longitude": null
 },
 {
   "Name": "Things Remembered",
   "Address1": " 500 Inland Ctr",
   "Address2": "Spc 220",
   "City": " San Bernardino",
   "State": " CA",
   "Postal": 92408,
   "Latitude": null,
   "Longitude": null
 },
 {
   "Name": "Things Remembered",
   "Address1": " 523 Eastview Mall",
   "Address2": null,
   "City": " Victor",
   "State": " NY",
   "Postal": 14564,
   "Latitude": null,
   "Longitude": null
 },
 {
   "Name": "Things Remembered",
   "Address1": " 977 Bay Park Square",
   "Address2": "977D",
   "City": " Green Bay",
   "State": " WI",
   "Postal": 54304,
   "Latitude": null,
   "Longitude": null
 },
 {
   "Name": "Things Remembered",
   "Address1": " 3030 Plaza Bonita Rd",
   "Address2": "Spc 2460",
   "City": " National City",
   "State": " CA",
   "Postal": 91950,
   "Latitude": null,
   "Longitude": null
 },
 {
   "Name": "Things Remembered",
   "Address1": " 364 Maine Mall Rd",
   "Address2": "Box 702",
   "City": " South Portland",
   "State": " ME",
   "Postal": 4106,
   "Latitude": null,
   "Longitude": null
 },
 {
   "Name": "Things Remembered",
   "Address1": " 5300 South 76th St",
   "Address2": null,
   "City": " Greendale",
   "State": " WI",
   "Postal": 53129,
   "Latitude": null,
   "Longitude": null
 },
 {
   "Name": "Things Remembered",
   "Address1": " 2 Galleria Mall Dr",
   "Address2": "Spc B210",
   "City": " Taunton",
   "State": " MA",
   "Postal": 2780,
   "Latitude": null,
   "Longitude": null
 },
 {
   "Name": "Things Remembered",
   "Address1": " 3191 28th St Se",
   "Address2": null,
   "City": " Grand Rapids",
   "State": " MI",
   "Postal": 49512,
   "Latitude": null,
   "Longitude": null
 },
 {
   "Name": "Things Remembered",
   "Address1": " 3498 Bel Air Mall",
   "Address2": null,
   "City": " Mobile",
   "State": " AL",
   "Postal": 36606,
   "Latitude": null,
   "Longitude": null
 },
 {
   "Name": "Things Remembered",
   "Address1": " 4750 N Division St",
   "Address2": "Ste 177",
   "City": " Spokane",
   "State": " WA",
   "Postal": 99207,
   "Latitude": null,
   "Longitude": null
 },
 {
   "Name": "Things Remembered",
   "Address1": " 11160 Veirs Mill Rd",
   "Address2": "Ste C1A",
   "City": " Wheaton",
   "State": " MD",
   "Postal": 20902,
   "Latitude": null,
   "Longitude": null
 },
 {
   "Name": "Things Remembered",
   "Address1": " 27804 Novi Rd",
   "Address2": null,
   "City": " Novi",
   "State": " MI",
   "Postal": 48377,
   "Latitude": null,
   "Longitude": null
 },
 {
   "Name": "Things Remembered",
   "Address1": " 197 Westbank Expy",
   "Address2": "5568",
   "City": " Gretna",
   "State": " LA",
   "Postal": 70053,
   "Latitude": null,
   "Longitude": null
 },
 {
   "Name": "Things Remembered",
   "Address1": " 660 Miracle Mile Dr",
   "Address2": null,
   "City": " Rochester",
   "State": " NY",
   "Postal": 14623,
   "Latitude": null,
   "Longitude": null
 },
 {
   "Name": "Things Remembered",
   "Address1": " 2870 Southdale Center",
   "Address2": null,
   "City": " Edina",
   "State": " MN",
   "Postal": 55435,
   "Latitude": null,
   "Longitude": null
 },
 {
   "Name": "Things Remembered",
   "Address1": " 800 N Green River Rd",
   "Address2": null,
   "City": " Evansville",
   "State": " IN",
   "Postal": 47715,
   "Latitude": null,
   "Longitude": null
 },
 {
   "Name": "Things Remembered",
   "Address1": " 4545 Transit Rd",
   "Address2": null,
   "City": " Williamsville",
   "State": " NY",
   "Postal": 14221,
   "Latitude": null,
   "Longitude": null
 },
 {
   "Name": "Things Remembered",
   "Address1": " 1 Crossgates Mall Rd",
   "Address2": null,
   "City": " Albany",
   "State": " NY",
   "Postal": 12203,
   "Latitude": null,
   "Longitude": null
 },
 {
   "Name": "Things Remembered",
   "Address1": " 6650 S Westnedge Ave",
   "Address2": "Ste 3503",
   "City": " Portage",
   "State": " MI",
   "Postal": 49024,
   "Latitude": null,
   "Longitude": null
 },
 {
   "Name": "Things Remembered",
   "Address1": " 1910 Wells Rd",
   "Address2": "Spc 1109",
   "City": " Orange Park",
   "State": " FL",
   "Postal": 32073,
   "Latitude": null,
   "Longitude": null
 },
 {
   "Name": "Things Remembered",
   "Address1": " 7804 Abercorn St",
   "Address2": null,
   "City": " Savannah",
   "State": " GA",
   "Postal": 31406,
   "Latitude": null,
   "Longitude": null
 },
 {
   "Name": "Things Remembered",
   "Address1": " D424 Wausau Ctr",
   "Address2": null,
   "City": " Wausau",
   "State": " WI",
   "Postal": 54403,
   "Latitude": null,
   "Longitude": null
 },
 {
   "Name": "Things Remembered",
   "Address1": " 1308 Baybrook Mall",
   "Address2": null,
   "City": " Friendswood",
   "State": " TX",
   "Postal": 77546,
   "Latitude": null,
   "Longitude": null
 },
 {
   "Name": "Things Remembered",
   "Address1": " 1037 Charleston Town Center",
   "Address2": null,
   "City": " Charleston",
   "State": " WV",
   "Postal": 25389,
   "Latitude": null,
   "Longitude": null
 },
 {
   "Name": "Things Remembered",
   "Address1": " 5057 W 117th St",
   "Address2": null,
   "City": " Leawood",
   "State": " KS",
   "Postal": 66211,
   "Latitude": null,
   "Longitude": null
 },
 {
   "Name": "Things Remembered",
   "Address1": " 7900 Shelbyville Rd",
   "Address2": "J7",
   "City": " Louisville",
   "State": " KY",
   "Postal": 40222,
   "Latitude": null,
   "Longitude": null
 },
 {
   "Name": "Things Remembered",
   "Address1": " 701 Lynnhaven Pkwy",
   "Address2": "Spc 10A",
   "City": " Virginia Beach",
   "State": " VA",
   "Postal": 23452,
   "Latitude": null,
   "Longitude": null
 },
 {
   "Name": "Things Remembered",
   "Address1": " 9555 W Atlantic Blvd",
   "Address2": null,
   "City": " Coral Springs",
   "State": " FL",
   "Postal": 33071,
   "Latitude": null,
   "Longitude": null
 },
 {
   "Name": "Things Remembered",
   "Address1": " 9409 Us Highway 19",
   "Address2": null,
   "City": " Port Richey",
   "State": " FL",
   "Postal": 34668,
   "Latitude": null,
   "Longitude": null
 },
 {
   "Name": "Things Remembered",
   "Address1": " 3507 Manchester Expy",
   "Address2": "76",
   "City": " Columbus",
   "State": " GA",
   "Postal": 31909,
   "Latitude": null,
   "Longitude": null
 },
 {
   "Name": "Things Remembered",
   "Address1": " 2000 Brittain Rd",
   "Address2": "Ste 281",
   "City": " Akron",
   "State": " OH",
   "Postal": 44310,
   "Latitude": null,
   "Longitude": null
 },
 {
   "Name": "Things Remembered",
   "Address1": " 1300 W Sunset Rd",
   "Address2": "2217",
   "City": " Henderson",
   "State": " NV",
   "Postal": 89014,
   "Latitude": null,
   "Longitude": null
 },
 {
   "Name": "Things Remembered",
   "Address1": " 453 S County Center Way",
   "Address2": null,
   "City": " Saint Louis",
   "State": " MO",
   "Postal": 63129,
   "Latitude": null,
   "Longitude": null
 },
 {
   "Name": "Things Remembered",
   "Address1": " 5510 Meadowood Mall Cir",
   "Address2": "G101",
   "City": " Reno",
   "State": " NV",
   "Postal": 89502,
   "Latitude": null,
   "Longitude": null
 },
 {
   "Name": "Things Remembered",
   "Address1": " 1131 Cumberland Mall Se",
   "Address2": null,
   "City": " Atlanta",
   "State": " GA",
   "Postal": 30339,
   "Latitude": null,
   "Longitude": null
 },
 {
   "Name": "Things Remembered",
   "Address1": " 3908 Town Center Blvd",
   "Address2": null,
   "City": " Bowie",
   "State": " MD",
   "Postal": 20716,
   "Latitude": null,
   "Longitude": null
 },
 {
   "Name": "Things Remembered",
   "Address1": " 4125 Cleveland Ave",
   "Address2": "Box 9",
   "City": " Fort Myers",
   "State": " FL",
   "Postal": 33901,
   "Latitude": null,
   "Longitude": null
 },
 {
   "Name": "Things Remembered",
   "Address1": " 850 Hartford Tpke",
   "Address2": "G104",
   "City": " Waterford",
   "State": " CT",
   "Postal": 6385,
   "Latitude": null,
   "Longitude": null
 },
 {
   "Name": "Things Remembered",
   "Address1": " 8401 Gateway Blvd W",
   "Address2": "R09A",
   "City": " El Paso",
   "State": " TX",
   "Postal": 79925,
   "Latitude": null,
   "Longitude": null
 },
 {
   "Name": "Things Remembered",
   "Address1": " 3340 Mall Loop Dr",
   "Address2": "1412",
   "City": " Joliet",
   "State": " IL",
   "Postal": 60431,
   "Latitude": null,
   "Longitude": null
 },
 {
   "Name": "Things Remembered",
   "Address1": " 4802 Valley View Blvd Nw",
   "Address2": null,
   "City": " Roanoke",
   "State": " VA",
   "Postal": 24012,
   "Latitude": null,
   "Longitude": null
 },
 {
   "Name": "Things Remembered",
   "Address1": " 131 Colonie Center",
   "Address2": "409",
   "City": " Albany",
   "State": " NY",
   "Postal": 12205,
   "Latitude": null,
   "Longitude": null
 },
 {
   "Name": "Things Remembered",
   "Address1": " 801 N Congress Ave",
   "Address2": "741",
   "City": " Boynton Beach",
   "State": " FL",
   "Postal": 33426,
   "Latitude": null,
   "Longitude": null
 },
 {
   "Name": "Things Remembered",
   "Address1": " 3701 Mckinley Pkwy",
   "Address2": null,
   "City": " Blasdell",
   "State": " NY",
   "Postal": 14219,
   "Latitude": null,
   "Longitude": null
 },
 {
   "Name": "Things Remembered",
   "Address1": " 65 River Oaks Center Dr",
   "Address2": null,
   "City": " Calumet City",
   "State": " IL",
   "Postal": 60409,
   "Latitude": null,
   "Longitude": null
 },
 {
   "Name": "Things Remembered",
   "Address1": " 2048 Montebello Town Ctr",
   "Address2": null,
   "City": " Montebello",
   "State": " CA",
   "Postal": 90640,
   "Latitude": null,
   "Longitude": null
 },
 {
   "Name": "Things Remembered",
   "Address1": " 3111 W Chandler Blvd",
   "Address2": null,
   "City": " Chandler",
   "State": " AZ",
   "Postal": 85226,
   "Latitude": null,
   "Longitude": null
 },
 {
   "Name": "Things Remembered",
   "Address1": " 1815 Hawthorne Blvd",
   "Address2": "220",
   "City": " Redondo Beach",
   "State": " CA",
   "Postal": 90278,
   "Latitude": null,
   "Longitude": null
 },
 {
   "Name": "Things Remembered",
   "Address1": " 50 Fox Run Rd",
   "Address2": "84",
   "City": " Newington",
   "State": " NH",
   "Postal": 3801,
   "Latitude": null,
   "Longitude": null
 },
 {
   "Name": "Things Remembered",
   "Address1": " 6200 20th St",
   "Address2": "546",
   "City": " Vero Beach",
   "State": " FL",
   "Postal": 32966,
   "Latitude": null,
   "Longitude": null
 },
 {
   "Name": "Things Remembered",
   "Address1": " 2201 Newpark Mall",
   "Address2": null,
   "City": " Newark",
   "State": " CA",
   "Postal": 94560,
   "Latitude": null,
   "Longitude": null
 },
 {
   "Name": "Things Remembered",
   "Address1": " 2200 S 10th St",
   "Address2": null,
   "City": " Mcallen",
   "State": " TX",
   "Postal": 78503,
   "Latitude": null,
   "Longitude": null
 },
 {
   "Name": "Things Remembered",
   "Address1": " 27001 US Hwy 19 N",
   "Address2": "2036",
   "City": " Clearwater",
   "State": " FL",
   "Postal": 33761,
   "Latitude": null,
   "Longitude": null
 },
 {
   "Name": "Things Remembered",
   "Address1": " 1500 S Willow St",
   "Address2": "143",
   "City": " Manchester",
   "State": " NH",
   "Postal": 3103,
   "Latitude": null,
   "Longitude": null
 },
 {
   "Name": "Things Remembered",
   "Address1": " 20131 Highway 59 N",
   "Address2": "2384",
   "City": " Humble",
   "State": " TX",
   "Postal": 77338,
   "Latitude": null,
   "Longitude": null
 },
 {
   "Name": "Things Remembered",
   "Address1": " 7600 Kingston Pike",
   "Address2": "1020",
   "City": " Knoxville",
   "State": " TN",
   "Postal": 37919,
   "Latitude": null,
   "Longitude": null
 },
 {
   "Name": "Things Remembered",
   "Address1": " 2046 E Montclair Plaza Ln",
   "Address2": null,
   "City": " Montclair",
   "State": " CA",
   "Postal": 91763,
   "Latitude": null,
   "Longitude": null
 },
 {
   "Name": "Things Remembered",
   "Address1": " 2000 Riverchase Galleria",
   "Address2": "238",
   "City": " Hoover",
   "State": " AL",
   "Postal": 35244,
   "Latitude": null,
   "Longitude": null
 },
 {
   "Name": "Things Remembered",
   "Address1": " 400 Barrett Pkwy",
   "Address2": "183",
   "City": " Kennesaw",
   "State": " GA",
   "Postal": 30144,
   "Latitude": null,
   "Longitude": null
 },
 {
   "Name": "Things Remembered",
   "Address1": " 1828 South Commons",
   "Address2": null,
   "City": " Federal Way",
   "State": " WA",
   "Postal": 98003,
   "Latitude": null,
   "Longitude": null
 },
 {
   "Name": "Things Remembered",
   "Address1": " 7700 W Arrowhead Towne Center",
   "Address2": null,
   "City": " Glendale",
   "State": " AZ",
   "Postal": 85308,
   "Latitude": null,
   "Longitude": null
 },
 {
   "Name": "Things Remembered",
   "Address1": " 1500 Apalachee Pkwy",
   "Address2": null,
   "City": " Tallahassee",
   "State": " FL",
   "Postal": 32301,
   "Latitude": null,
   "Longitude": null
 },
 {
   "Name": "Things Remembered",
   "Address1": " 8001 S Orange Blossom Trl",
   "Address2": null,
   "City": " Orlando",
   "State": " FL",
   "Postal": 32809,
   "Latitude": null,
   "Longitude": null
 },
 {
   "Name": "Things Remembered",
   "Address1": " 4107 S Yale Ave",
   "Address2": "105",
   "City": " Tulsa",
   "State": " OK",
   "Postal": 74135,
   "Latitude": null,
   "Longitude": null
 },
 {
   "Name": "Things Remembered",
   "Address1": " 4511 N Midkiff Rd",
   "Address2": "B11B",
   "City": " Midland",
   "State": " TX",
   "Postal": 79705,
   "Latitude": null,
   "Longitude": null
 },
 {
   "Name": "Things Remembered",
   "Address1": " 2601 Preston Rd",
   "Address2": "1134",
   "City": " Frisco",
   "State": " TX",
   "Postal": 75034,
   "Latitude": null,
   "Longitude": null
 },
 {
   "Name": "Things Remembered",
   "Address1": " 3902 13th Ave S",
   "Address2": null,
   "City": " Fargo",
   "State": " ND",
   "Postal": 58103,
   "Latitude": null,
   "Longitude": null
 },
 {
   "Name": "Things Remembered",
   "Address1": " 2760 N Germantown Pkwy",
   "Address2": "216",
   "City": " Memphis",
   "State": " TN",
   "Postal": 38133,
   "Latitude": null,
   "Longitude": null
 },
 {
   "Name": "Things Remembered",
   "Address1": " 460 Sun Valley Mall",
   "Address2": null,
   "City": " Concord",
   "State": " CA",
   "Postal": 94520,
   "Latitude": null,
   "Longitude": null
 },
 {
   "Name": "Things Remembered",
   "Address1": " 18900 Michigan Ave",
   "Address2": null,
   "City": " Dearborn",
   "State": " MI",
   "Postal": 48126,
   "Latitude": null,
   "Longitude": null
 },
 {
   "Name": "Things Remembered",
   "Address1": " 327 Golf Mill Ctr",
   "Address2": null,
   "City": " Niles",
   "State": " IL",
   "Postal": 60714,
   "Latitude": null,
   "Longitude": null
 },
 {
   "Name": "Things Remembered",
   "Address1": " 2000 Route 38",
   "Address2": "1015",
   "City": " Cherry Hill",
   "State": " NJ",
   "Postal": 8002,
   "Latitude": null,
   "Longitude": null
 },
 {
   "Name": "Things Remembered",
   "Address1": " 7 Backus Ave",
   "Address2": "B216",
   "City": " Danbury",
   "State": " CT",
   "Postal": 6810,
   "Latitude": null,
   "Longitude": null
 },
 {
   "Name": "Things Remembered",
   "Address1": " 1720 Old Fort Pkwy",
   "Address2": "3517",
   "City": " Murfreesboro",
   "State": " TN",
   "Postal": 37129,
   "Latitude": null,
   "Longitude": null
 },
 {
   "Name": "Things Remembered",
   "Address1": " 1000 Ross Park Mall Dr",
   "Address2": "K168",
   "City": " Pittsburgh",
   "State": " PA",
   "Postal": 15237,
   "Latitude": null,
   "Longitude": null
 },
 {
   "Name": "Things Remembered",
   "Address1": " 310 Daniel Webster Hwy",
   "Address2": "Box 129",
   "City": " Nashua",
   "State": " NH",
   "Postal": 3060,
   "Latitude": null,
   "Longitude": null
 },
 {
   "Name": "Things Remembered",
   "Address1": " 3049 William St",
   "Address2": "227",
   "City": " Cape Girardeau",
   "State": " MO",
   "Postal": 63703,
   "Latitude": null,
   "Longitude": null
 },
 {
   "Name": "Things Remembered",
   "Address1": " 5000 S Arizona Mills Cir",
   "Address2": null,
   "City": " Tempe",
   "State": " AZ",
   "Postal": 85282,
   "Latitude": null,
   "Longitude": null
 },
 {
   "Name": "Things Remembered",
   "Address1": " 112 Eisenhower Pkwy",
   "Address2": "=2013",
   "City": " Livingston",
   "State": " NJ",
   "Postal": 7039,
   "Latitude": null,
   "Longitude": null
 },
 {
   "Name": "Things Remembered",
   "Address1": " 5725 Johnston St",
   "Address2": "233",
   "City": " Lafayette",
   "State": " LA",
   "Postal": 70503,
   "Latitude": null,
   "Longitude": null
 },
 {
   "Name": "Things Remembered",
   "Address1": " 400 W Route 38",
   "Address2": "1755",
   "City": " Moorestown",
   "State": " NJ",
   "Postal": 8057,
   "Latitude": null,
   "Longitude": null
 },
 {
   "Name": "Things Remembered",
   "Address1": " 7800 N Navarro St",
   "Address2": "111",
   "City": " Victoria",
   "State": " TX",
   "Postal": 77904,
   "Latitude": null,
   "Longitude": null
 },
 {
   "Name": "Things Remembered",
   "Address1": " 2133 S Mooney Blvd",
   "Address2": "A",
   "City": " Visalia",
   "State": " CA",
   "Postal": 93277,
   "Latitude": null,
   "Longitude": null
 },
 {
   "Name": "Things Remembered",
   "Address1": " 4300 Meadows Ln",
   "Address2": "1590",
   "City": " Las Vegas",
   "State": " NV",
   "Postal": 89107,
   "Latitude": null,
   "Longitude": null
 },
 {
   "Name": "Things Remembered",
   "Address1": " 2700 Potomac Mills Cir",
   "Address2": "804",
   "City": " Woodbridge",
   "State": " VA",
   "Postal": 22192,
   "Latitude": null,
   "Longitude": null
 },
 {
   "Name": "Things Remembered",
   "Address1": " 3811 S Cooper St",
   "Address2": null,
   "City": " Arlington",
   "State": " TX",
   "Postal": 76015,
   "Latitude": null,
   "Longitude": null
 },
 {
   "Name": "Things Remembered",
   "Address1": " 3800 US Highway 98 N",
   "Address2": "716",
   "City": " Lakeland",
   "State": " FL",
   "Postal": 33809,
   "Latitude": null,
   "Longitude": null
 },
 {
   "Name": "Things Remembered",
   "Address1": " 1250 Baltimore Pike",
   "Address2": "L17",
   "City": " Springfield",
   "State": " PA",
   "Postal": 19064,
   "Latitude": null,
   "Longitude": null
 },
 {
   "Name": "Things Remembered",
   "Address1": " 200 E Via Rancho Pky",
   "Address2": "413",
   "City": " Escondido",
   "State": " CA",
   "Postal": 92025,
   "Latitude": null,
   "Longitude": null
 },
 {
   "Name": "Things Remembered",
   "Address1": " 32293 Gratiot Ave",
   "Address2": "255",
   "City": " Roseville",
   "State": " MI",
   "Postal": 48066,
   "Latitude": null,
   "Longitude": null
 },
 {
   "Name": "Things Remembered",
   "Address1": " 1401 W Esplanade Ave",
   "Address2": null,
   "City": " Kenner",
   "State": " LA",
   "Postal": 70065,
   "Latitude": null,
   "Longitude": null
 },
 {
   "Name": "Things Remembered",
   "Address1": " 5100 N 9th Ave",
   "Address2": "A111",
   "City": " Pensacola",
   "State": " FL",
   "Postal": 32504,
   "Latitude": null,
   "Longitude": null
 },
 {
   "Name": "Things Remembered",
   "Address1": " 4316 Belden Village Mall",
   "Address2": null,
   "City": " Canton",
   "State": " OH",
   "Postal": 44718,
   "Latitude": null,
   "Longitude": null
 },
 {
   "Name": "Things Remembered",
   "Address1": " 1982 W Grand River Ave",
   "Address2": "233",
   "City": " Okemos",
   "State": " MI",
   "Postal": 48864,
   "Latitude": null,
   "Longitude": null
 },
 {
   "Name": "Things Remembered",
   "Address1": " 1000 Rivergate Pkwy",
   "Address2": "1200",
   "City": " Goodlettsville",
   "State": " TN",
   "Postal": 37072,
   "Latitude": null,
   "Longitude": null
 },
 {
   "Name": "Things Remembered",
   "Address1": " 1 W Flatiron Crossing Dr",
   "Address2": null,
   "City": " Broomfield",
   "State": " CO",
   "Postal": 80021,
   "Latitude": null,
   "Longitude": null
 },
 {
   "Name": "Things Remembered",
   "Address1": " 7701 W Interstate 40",
   "Address2": null,
   "City": " Amarillo",
   "State": " TX",
   "Postal": 79121,
   "Latitude": null,
   "Longitude": null
 },
 {
   "Name": "Things Remembered",
   "Address1": " 264 Southpark Center",
   "Address2": null,
   "City": " Strongsville",
   "State": " OH",
   "Postal": 44136,
   "Latitude": null,
   "Longitude": null
 },
 {
   "Name": "Things Remembered",
   "Address1": " 5065 Main St",
   "Address2": "266",
   "City": " Trumbull",
   "State": " CT",
   "Postal": 6611,
   "Latitude": null,
   "Longitude": null
 },
 {
   "Name": "Things Remembered",
   "Address1": "12300 Jefferson Ave",
   "Address2": "201",
   "City": "Newport News",
   "State": "VA",
   "Postal": 23602,
   "Latitude": null,
   "Longitude": null
 },
 {
   "Name": "Things Remembered",
   "Address1": " 4403 Black Horse Pike",
   "Address2": "1120",
   "City": " Mays Landing",
   "State": " NJ",
   "Postal": 8330,
   "Latitude": null,
   "Longitude": null
 },
 {
   "Name": "Things Remembered",
   "Address1": " 5001 Monroe St",
   "Address2": "1085",
   "City": " Toledo",
   "State": " OH",
   "Postal": 43623,
   "Latitude": null,
   "Longitude": null
 },
 {
   "Name": "Things Remembered",
   "Address1": " 4800 Briarcliff Rd Ne",
   "Address2": "1015",
   "City": " Atlanta",
   "State": " GA",
   "Postal": 30345,
   "Latitude": null,
   "Longitude": null
 },
 {
   "Name": "Things Remembered",
   "Address1": " 2100 Hamilton Pl Blvd",
   "Address2": "229",
   "City": " Chattanooga",
   "State": " TN",
   "Postal": 37421,
   "Latitude": null,
   "Longitude": null
 },
 {
   "Name": "Things Remembered",
   "Address1": " 1600 Mid Rivers Mall",
   "Address2": "1070",
   "City": " Saint Peters",
   "State": " MO",
   "Postal": 63376,
   "Latitude": null,
   "Longitude": null
 },
 {
   "Name": "Things Remembered",
   "Address1": " 3226 NW Federal Hwy",
   "Address2": null,
   "City": " Jensen Beach",
   "State": " FL",
   "Postal": 34957,
   "Latitude": null,
   "Longitude": null
 },
 {
   "Name": "Things Remembered",
   "Address1": " 3401 Nicholasville Rd",
   "Address2": "132",
   "City": " Lexington",
   "State": " KY",
   "Postal": 40503,
   "Latitude": null,
   "Longitude": null
 },
 {
   "Name": "Things Remembered",
   "Address1": " 1600 Miller Trunk Hwy",
   "Address2": "K108",
   "City": " Duluth",
   "State": " MN",
   "Postal": 55811,
   "Latitude": null,
   "Longitude": null
 },
 {
   "Name": "Things Remembered",
   "Address1": " 1640 Camino Del Rio N",
   "Address2": "235",
   "City": " San Diego",
   "State": " CA",
   "Postal": 92108,
   "Latitude": null,
   "Longitude": null
 },
 {
   "Name": "Things Remembered",
   "Address1": " 11500 Midlothian Tpke",
   "Address2": null,
   "City": " North Chesterfield",
   "State": " VA",
   "Postal": 23235,
   "Latitude": null,
   "Longitude": null
 },
 {
   "Name": "Things Remembered",
   "Address1": " 31 West Towne Mall",
   "Address2": null,
   "City": " Madison",
   "State": " WI",
   "Postal": 53719,
   "Latitude": null,
   "Longitude": null
 },
 {
   "Name": "Things Remembered",
   "Address1": " 4301 W Wisconsin Ave",
   "Address2": "802",
   "City": " Appleton",
   "State": " WI",
   "Postal": 54913,
   "Latitude": null,
   "Longitude": null
 },
 {
   "Name": "Things Remembered",
   "Address1": " 122 N Dartmouth Mall",
   "Address2": null,
   "City": " Dartmouth",
   "State": " MA",
   "Postal": 2747,
   "Latitude": null,
   "Longitude": null
 },
 {
   "Name": "Things Remembered",
   "Address1": " 174 Gateway Mall",
   "Address2": null,
   "City": " Lincoln",
   "State": " NE",
   "Postal": 68505,
   "Latitude": null,
   "Longitude": null
 },
 {
   "Name": "Things Remembered",
   "Address1": " 5488 S Padre Island Dr",
   "Address2": "2210",
   "City": " Corpus Christi",
   "State": " TX",
   "Postal": 78411,
   "Latitude": null,
   "Longitude": null
 },
 {
   "Name": "Things Remembered",
   "Address1": " 470 Lewis Ave",
   "Address2": null,
   "City": " Meriden",
   "State": " CT",
   "Postal": 6451,
   "Latitude": null,
   "Longitude": null
 },
 {
   "Name": "Things Remembered",
   "Address1": " 3849 S Delsea Dr",
   "Address2": "F14",
   "City": " Vineland",
   "State": " NJ",
   "Postal": 8360,
   "Latitude": null,
   "Longitude": null
 },
 {
   "Name": "Things Remembered",
   "Address1": " 663 Stillwater Ave",
   "Address2": "Ki13",
   "City": " Bangor",
   "State": " ME",
   "Postal": 4401,
   "Latitude": null,
   "Longitude": null
 },
 {
   "Name": "Things Remembered",
   "Address1": " 6170 Grand Ave",
   "Address2": "491",
   "City": " Gurnee",
   "State": " IL",
   "Postal": 60031,
   "Latitude": null,
   "Longitude": null
 },
 {
   "Name": "Things Remembered",
   "Address1": " 1420 Annapolis Mall",
   "Address2": null,
   "City": " Annapolis",
   "State": " MD",
   "Postal": 21401,
   "Latitude": null,
   "Longitude": null
 },
 {
   "Name": "Things Remembered",
   "Address1": " 643 E Shaw Ave",
   "Address2": null,
   "City": " Fresno",
   "State": " CA",
   "Postal": 93710,
   "Latitude": null,
   "Longitude": null
 },
 {
   "Name": "Things Remembered",
   "Address1": " 2901 S Capital Of Texas Hwy",
   "Address2": null,
   "City": " Austin",
   "State": " TX",
   "Postal": 78746,
   "Latitude": null,
   "Longitude": null
 },
 {
   "Name": "Things Remembered",
   "Address1": " 1161 Glendale Galleria",
   "Address2": null,
   "City": " Glendale",
   "State": " CA",
   "Postal": 91210,
   "Latitude": null,
   "Longitude": null
 },
 {
   "Name": "Things Remembered",
   "Address1": " 136 Yorktown Center",
   "Address2": null,
   "City": " Lombard",
   "State": " IL",
   "Postal": 60148,
   "Latitude": null,
   "Longitude": null
 },
 {
   "Name": "Things Remembered",
   "Address1": " 3450 Wrightsboro Rd",
   "Address2": "2195",
   "City": " Augusta",
   "State": " GA",
   "Postal": 30909,
   "Latitude": null,
   "Longitude": null
 },
 {
   "Name": "Things Remembered",
   "Address1": " 3333 W Touhy Ave",
   "Address2": "D4",
   "City": " Lincolnwood",
   "State": " IL",
   "Postal": 60712,
   "Latitude": null,
   "Longitude": null
 },
 {
   "Name": "Things Remembered",
   "Address1": " 194 Buckland Hills Dr",
   "Address2": null,
   "City": " Manchester",
   "State": " CT",
   "Postal": 6042,
   "Latitude": null,
   "Longitude": null
 },
 {
   "Name": "Things Remembered",
   "Address1": " 11110 Mall Cir",
   "Address2": "N03",
   "City": " Waldorf",
   "State": " MD",
   "Postal": 20603,
   "Latitude": null,
   "Longitude": null
 },
 {
   "Name": "Things Remembered",
   "Address1": " 7014 E Camelback Rd",
   "Address2": "2113",
   "City": " Scottsdale",
   "State": " AZ",
   "Postal": 85251,
   "Latitude": null,
   "Longitude": null
 },
 {
   "Name": "Things Remembered",
   "Address1": " 2728 Eastland Mall",
   "Address2": null,
   "City": " Columbus",
   "State": " OH",
   "Postal": 43232,
   "Latitude": null,
   "Longitude": null
 },
 {
   "Name": "Things Remembered",
   "Address1": " 1701 Mcfarland Blvd E",
   "Address2": null,
   "City": " Tuscaloosa",
   "State": " AL",
   "Postal": 35404,
   "Latitude": null,
   "Longitude": null
 },
 {
   "Name": "Things Remembered",
   "Address1": " 3429 Dillon Dr",
   "Address2": null,
   "City": " Pueblo",
   "State": " CO",
   "Postal": 81008,
   "Latitude": null,
   "Longitude": null
 },
 {
   "Name": "Things Remembered",
   "Address1": " 100 Columbiana Cir",
   "Address2": "1226",
   "City": " Columbia",
   "State": " SC",
   "Postal": 29212,
   "Latitude": null,
   "Longitude": null
 },
 {
   "Name": "Things Remembered",
   "Address1": " 1 N Galleria Dr",
   "Address2": "A109",
   "City": " Middletown",
   "State": " NY",
   "Postal": 10941,
   "Latitude": null,
   "Longitude": null
 },
 {
   "Name": "Things Remembered",
   "Address1": " 2491 Saint Louis Galleria",
   "Address2": null,
   "City": " Saint Louis",
   "State": " MO",
   "Postal": 63117,
   "Latitude": null,
   "Longitude": null
 },
 {
   "Name": "Things Remembered",
   "Address1": " 2300 N Salisbury Blvd",
   "Address2": null,
   "City": " Salisbury",
   "State": " MD",
   "Postal": 21801,
   "Latitude": null,
   "Longitude": null
 },
 {
   "Name": "Things Remembered",
   "Address1": " 99 Rockingham Pk Blvd",
   "Address2": "E255",
   "City": " Salem",
   "State": " NH",
   "Postal": 3079,
   "Latitude": null,
   "Longitude": null
 },
 {
   "Name": "Things Remembered",
   "Address1": " 1800 Galleria Blvd",
   "Address2": "2510",
   "City": " Franklin",
   "State": " TN",
   "Postal": 37067,
   "Latitude": null,
   "Longitude": null
 },
 {
   "Name": "Things Remembered",
   "Address1": " 24201 Valencia Blvd",
   "Address2": "2074",
   "City": " Valencia",
   "State": " CA",
   "Postal": 91355,
   "Latitude": null,
   "Longitude": null
 },
 {
   "Name": "Things Remembered",
   "Address1": " 708 Christiana Mall",
   "Address2": null,
   "City": " Newark",
   "State": " DE",
   "Postal": 19702,
   "Latitude": null,
   "Longitude": null
 },
 {
   "Name": "Things Remembered",
   "Address1": " 2727 Fairfield Commons Blvd",
   "Address2": null,
   "City": " Beavercreek",
   "State": " OH",
   "Postal": 45431,
   "Latitude": null,
   "Longitude": null
 },
 {
   "Name": "Things Remembered",
   "Address1": " 1050 Shaw Ave",
   "Address2": "B35",
   "City": " Clovis",
   "State": " CA",
   "Postal": 93612,
   "Latitude": null,
   "Longitude": null
 },
 {
   "Name": "Things Remembered",
   "Address1": " 3100 Sw College Road",
   "Address2": "172",
   "City": " Ocala",
   "State": " FL",
   "Postal": 34474,
   "Latitude": null,
   "Longitude": null
 },
 {
   "Name": "Things Remembered",
   "Address1": " 8700 Ne Vancouver Mall Dr",
   "Address2": "251",
   "City": " Vancouver",
   "State": " WA",
   "Postal": 98662,
   "Latitude": null,
   "Longitude": null
 },
 {
   "Name": "Things Remembered",
   "Address1": " 243 Stonewood St",
   "Address2": "B25",
   "City": " Downey",
   "State": " CA",
   "Postal": 90241,
   "Latitude": null,
   "Longitude": null
 },
 {
   "Name": "Things Remembered",
   "Address1": " 2370 N Expressway",
   "Address2": null,
   "City": " Brownsville",
   "State": " TX",
   "Postal": 78521,
   "Latitude": null,
   "Longitude": null
 },
 {
   "Name": "Things Remembered",
   "Address1": " 100 Robinson Centre Dr",
   "Address2": null,
   "City": " Pittsburgh",
   "State": " PA",
   "Postal": 15205,
   "Latitude": null,
   "Longitude": null
 },
 {
   "Name": "Things Remembered",
   "Address1": " 3257 S Linden Rd",
   "Address2": null,
   "City": " Flint",
   "State": " MI",
   "Postal": 48507,
   "Latitude": null,
   "Longitude": null
 },
 {
   "Name": "Things Remembered",
   "Address1": " 72840 Highway 111",
   "Address2": "T379",
   "City": " Palm Desert",
   "State": " CA",
   "Postal": 92260,
   "Latitude": null,
   "Longitude": null
 },
 {
   "Name": "Things Remembered",
   "Address1": " 10315 Silverdale Way Nw",
   "Address2": null,
   "City": " Silverdale",
   "State": " WA",
   "Postal": 98383,
   "Latitude": null,
   "Longitude": null
 },
 {
   "Name": "Things Remembered",
   "Address1": " 10000 Coors Blvd Nw",
   "Address2": "A213",
   "City": " Albuquerque",
   "State": " NM",
   "Postal": 87114,
   "Latitude": null,
   "Longitude": null
 },
 {
   "Name": "Things Remembered",
   "Address1": " 3200 Naglee Rd",
   "Address2": "136",
   "City": " Tracy",
   "State": " CA",
   "Postal": 95304,
   "Latitude": null,
   "Longitude": null
 },
 {
   "Name": "Things Remembered",
   "Address1": " 701 Russell Ave",
   "Address2": "H127",
   "City": " Gaithersburg",
   "State": " MD",
   "Postal": 20877,
   "Latitude": null,
   "Longitude": null
 },
 {
   "Name": "Things Remembered",
   "Address1": " 6909 N Loop 1604 E",
   "Address2": "1119",
   "City": " San Antonio",
   "State": " TX",
   "Postal": 78247,
   "Latitude": null,
   "Longitude": null
 },
 {
   "Name": "Things Remembered",
   "Address1": " 95 N Moorland Rd",
   "Address2": "C8",
   "City": " Brookfield",
   "State": " WI",
   "Postal": 53005,
   "Latitude": null,
   "Longitude": null
 },
 {
   "Name": "Things Remembered",
   "Address1": " 64 Southpark Mall",
   "Address2": "C45",
   "City": " Colonial Heights",
   "State": " VA",
   "Postal": 23834,
   "Latitude": null,
   "Longitude": null
 },
 {
   "Name": "Things Remembered",
   "Address1": " 301 Mount Hope Ave",
   "Address2": "2047",
   "City": " Rockaway",
   "State": " NJ",
   "Postal": 7866,
   "Latitude": null,
   "Longitude": null
 },
 {
   "Name": "Things Remembered",
   "Address1": " 5870 E Broadway Blvd",
   "Address2": "340",
   "City": " Tucson",
   "State": " AZ",
   "Postal": 85711,
   "Latitude": null,
   "Longitude": null
 },
 {
   "Name": "Things Remembered",
   "Address1": " B-205 Walden Galleria",
   "Address2": null,
   "City": " Buffalo",
   "State": " NY",
   "Postal": 14225,
   "Latitude": null,
   "Longitude": null
 },
 {
   "Name": "Things Remembered",
   "Address1": " 155 West County Center",
   "Address2": null,
   "City": " Des Peres",
   "State": " MO",
   "Postal": 63131,
   "Latitude": null,
   "Longitude": null
 },
 {
   "Name": "Things Remembered",
   "Address1": " 1401 Greenbrier Pkwy",
   "Address2": "T33",
   "City": " Chesapeake",
   "State": " VA",
   "Postal": 23320,
   "Latitude": null,
   "Longitude": null
 },
 {
   "Name": "Things Remembered",
   "Address1": " 7700 E. Kellogg Dr",
   "Address2": "1048",
   "City": " Wichita",
   "State": " KS",
   "Postal": 67207,
   "Latitude": null,
   "Longitude": null
 },
 {
   "Name": "Things Remembered",
   "Address1": " 7875 Montgomery Rd",
   "Address2": "1237",
   "City": " Cincinnati",
   "State": " OH",
   "Postal": 45236,
   "Latitude": null,
   "Longitude": null
 },
 {
   "Name": "Things Remembered",
   "Address1": " 314 Four Seasons Town Centre",
   "Address2": null,
   "City": " Greensboro",
   "State": " NC",
   "Postal": 27407,
   "Latitude": null,
   "Longitude": null
 },
 {
   "Name": "Things Remembered",
   "Address1": " 2001 South Rd",
   "Address2": "213",
   "City": " Poughkeepsie",
   "State": " NY",
   "Postal": 12601,
   "Latitude": null,
   "Longitude": null
 },
 {
   "Name": "Things Remembered",
   "Address1": " 714 Alberta Dr",
   "Address2": "525",
   "City": " Amherst",
   "State": " NY",
   "Postal": 14226,
   "Latitude": null,
   "Longitude": null
 },
 {
   "Name": "Things Remembered",
   "Address1": " 1441 Tamiami Trail",
   "Address2": "135",
   "City": " Port Charlotte",
   "State": " FL",
   "Postal": 33948,
   "Latitude": null,
   "Longitude": null
 },
 {
   "Name": "Things Remembered",
   "Address1": " 999 S Washington St",
   "Address2": null,
   "City": " North Attleboro",
   "State": " MA",
   "Postal": 2760,
   "Latitude": null,
   "Longitude": null
 },
 {
   "Name": "Things Remembered",
   "Address1": " 3500 S Meridian",
   "Address2": "960",
   "City": " Puyallup",
   "State": " WA",
   "Postal": 98373,
   "Latitude": null,
   "Longitude": null
 },
 {
   "Name": "Things Remembered",
   "Address1": " 653 Spectrum Center Dr",
   "Address2": null,
   "City": " Irvine",
   "State": " CA",
   "Postal": 92618,
   "Latitude": null,
   "Longitude": null
 },
 {
   "Name": "Things Remembered",
   "Address1": " 1365 N Dupont Hwy",
   "Address2": "Ki29",
   "City": " Dover",
   "State": " DE",
   "Postal": 19901,
   "Latitude": null,
   "Longitude": null
 },
 {
   "Name": "Things Remembered",
   "Address1": " 11800 W Broad St",
   "Address2": null,
   "City": " Richmond",
   "State": " VA",
   "Postal": 23233,
   "Latitude": null,
   "Longitude": null
 },
 {
   "Name": "Things Remembered",
   "Address1": " 7981L Tysons Corner Ctr",
   "Address2": null,
   "City": " Mclean",
   "State": " VA",
   "Postal": 22102,
   "Latitude": null,
   "Longitude": null
 },
 {
   "Name": "Things Remembered",
   "Address1": " 400 Commons Way",
   "Address2": "281",
   "City": " Bridgewater",
   "State": " NJ",
   "Postal": 8807,
   "Latitude": null,
   "Longitude": null
 },
 {
   "Name": "Things Remembered",
   "Address1": " 9015 Queens Blvd",
   "Address2": "2091",
   "City": " Elmhurst",
   "State": " NY",
   "Postal": 11373,
   "Latitude": null,
   "Longitude": null
 },
 {
   "Name": "Things Remembered",
   "Address1": " 184 Montgomery Mall",
   "Address2": "1165",
   "City": " North Wales",
   "State": " PA",
   "Postal": 19454,
   "Latitude": null,
   "Longitude": null
 },
 {
   "Name": "Things Remembered",
   "Address1": " 2101 Brea Mall",
   "Address2": null,
   "City": " Brea",
   "State": " CA",
   "Postal": 92821,
   "Latitude": null,
   "Longitude": null
 },
 {
   "Name": "Things Remembered",
   "Address1": " 407 Parkway Plaza",
   "Address2": null,
   "City": " El Cajon",
   "State": " CA",
   "Postal": 92020,
   "Latitude": null,
   "Longitude": null
 },
 {
   "Name": "Things Remembered",
   "Address1": " 11700 Princeton Pike",
   "Address2": "E202",
   "City": " Cincinnati",
   "State": " OH",
   "Postal": 45246,
   "Latitude": null,
   "Longitude": null
 },
 {
   "Name": "Things Remembered",
   "Address1": " 11775B W 95th St",
   "Address2": null,
   "City": " Overland Park",
   "State": " KS",
   "Postal": 66214,
   "Latitude": null,
   "Longitude": null
 },
 {
   "Name": "Things Remembered",
   "Address1": " 1233 W Rancho Vista Blvd",
   "Address2": "905",
   "City": " Palmdale",
   "State": " CA",
   "Postal": 93551,
   "Latitude": null,
   "Longitude": null
 },
 {
   "Name": "Things Remembered",
   "Address1": " 400 Bald Hill Rd Ste 133",
   "Address2": null,
   "City": " Warwick",
   "State": " RI",
   "Postal": 2886,
   "Latitude": null,
   "Longitude": null
 },
 {
   "Name": "Things Remembered",
   "Address1": " 3 S Tunnel Rd",
   "Address2": "K03",
   "City": " Asheville",
   "State": " NC",
   "Postal": 28805,
   "Latitude": null,
   "Longitude": null
 },
 {
   "Name": "Things Remembered",
   "Address1": " 1100 S Hayes St",
   "Address2": "X4",
   "City": " Arlington",
   "State": " VA",
   "Postal": 22202,
   "Latitude": null,
   "Longitude": null
 },
 {
   "Name": "Things Remembered",
   "Address1": " 2401 S Stemmons Fwy",
   "Address2": "1150",
   "City": " Lewisville",
   "State": " TX",
   "Postal": 75067,
   "Latitude": null,
   "Longitude": null
 },
 {
   "Name": "Things Remembered",
   "Address1": " 140 University Town Center Dr",
   "Address2": "191",
   "City": " Sarasota",
   "State": " FL",
   "Postal": 34243,
   "Latitude": null,
   "Longitude": null
 },
 {
   "Name": "Things Remembered",
   "Address1": " 1901 Nw Expy",
   "Address2": "1083",
   "City": " Oklahoma City",
   "State": " OK",
   "Postal": 73118,
   "Latitude": null,
   "Longitude": null
 },
 {
   "Name": "Things Remembered",
   "Address1": " 14006 Riverside Dr",
   "Address2": "243",
   "City": " Sherman Oaks",
   "State": " CA",
   "Postal": 91423,
   "Latitude": null,
   "Longitude": null
 },
 {
   "Name": "Things Remembered",
   "Address1": " 1151 Galleria Blvd",
   "Address2": null,
   "City": " Roseville",
   "State": " CA",
   "Postal": 95678,
   "Latitude": null,
   "Longitude": null
 },
 {
   "Name": "Things Remembered",
   "Address1": " 500 W Germantown Pike",
   "Address2": "1350",
   "City": " Plymouth Meeting",
   "State": " PA",
   "Postal": 19462,
   "Latitude": null,
   "Longitude": null
 },
 {
   "Name": "Things Remembered",
   "Address1": " 318 Lakewood Center Mall",
   "Address2": null,
   "City": " Lakewood",
   "State": " CA",
   "Postal": 90712,
   "Latitude": null,
   "Longitude": null
 },
 {
   "Name": "Things Remembered",
   "Address1": " 5252 Kings Plaza",
   "Address2": "149",
   "City": " Brooklyn",
   "State": " NY",
   "Postal": 11234,
   "Latitude": null,
   "Longitude": null
 },
 {
   "Name": "Things Remembered",
   "Address1": " 37636 6 Mile Rd",
   "Address2": null,
   "City": " Livonia",
   "State": " MI",
   "Postal": 48152,
   "Latitude": null,
   "Longitude": null
 },
 {
   "Name": "Things Remembered",
   "Address1": " 30 Mall Dr W",
   "Address2": "107B",
   "City": " Jersey City",
   "State": " NJ",
   "Postal": 7310,
   "Latitude": null,
   "Longitude": null
 },
 {
   "Name": "Things Remembered",
   "Address1": " 500 Winchester Ave",
   "Address2": "Box 720",
   "City": " Ashland",
   "State": " KY",
   "Postal": 41101,
   "Latitude": null,
   "Longitude": null
 },
 {
   "Name": "Things Remembered",
   "Address1": " 344 Stroud Mall Rd",
   "Address2": "703",
   "City": " Stroudsburg",
   "State": " PA",
   "Postal": 18360,
   "Latitude": null,
   "Longitude": null
 },
 {
   "Name": "Things Remembered",
   "Address1": " 6700 Douglas Blvd",
   "Address2": "1380",
   "City": " Douglasville",
   "State": " GA",
   "Postal": 30135,
   "Latitude": null,
   "Longitude": null
 },
 {
   "Name": "Things Remembered",
   "Address1": " 1635 River Valley Cir S",
   "Address2": null,
   "City": " Lancaster",
   "State": " OH",
   "Postal": 43130,
   "Latitude": null,
   "Longitude": null
 },
 {
   "Name": "Things Remembered",
   "Address1": " 2800 N Main Street",
   "Address2": null,
   "City": " Santa Ana",
   "State": " CA",
   "Postal": 92705,
   "Latitude": null,
   "Longitude": null
 },
 {
   "Name": "Things Remembered",
   "Address1": " 4200 Portsmouth Blvd",
   "Address2": null,
   "City": " Chesapeake",
   "State": " VA",
   "Postal": 23321,
   "Latitude": null,
   "Longitude": null
 },
 {
   "Name": "Things Remembered",
   "Address1": " 2899 Whiteford Rd",
   "Address2": "118",
   "City": " York",
   "State": " PA",
   "Postal": 17402,
   "Latitude": null,
   "Longitude": null
 },
 {
   "Name": "Things Remembered",
   "Address1": " 1237 E Main St",
   "Address2": "1076",
   "City": " Carbondale",
   "State": " IL",
   "Postal": 62901,
   "Latitude": null,
   "Longitude": null
 },
 {
   "Name": "Things Remembered",
   "Address1": " 3000 E 1St Ave",
   "Address2": "219",
   "City": " Denver",
   "State": " CO",
   "Postal": 80206,
   "Latitude": null,
   "Longitude": null
 },
 {
   "Name": "Things Remembered",
   "Address1": " 1689 Arden Way",
   "Address2": "2174",
   "City": " Sacramento",
   "State": " CA",
   "Postal": 95815,
   "Latitude": null,
   "Longitude": null
 },
 {
   "Name": "Things Remembered",
   "Address1": " 3710 Route 9",
   "Address2": "B109",
   "City": " Freehold",
   "State": " NJ",
   "Postal": 7728,
   "Latitude": null,
   "Longitude": null
 },
 {
   "Name": "Things Remembered",
   "Address1": " 1410 Willowbrook Mall",
   "Address2": null,
   "City": " Wayne",
   "State": " NJ",
   "Postal": 7470,
   "Latitude": null,
   "Longitude": null
 },
 {
   "Name": "Things Remembered",
   "Address1": " 496 W Prien Lake Rd",
   "Address2": "Ki13",
   "City": " Lake Charles",
   "State": " LA",
   "Postal": 70601,
   "Latitude": null,
   "Longitude": null
 },
 {
   "Name": "Things Remembered",
   "Address1": " 10300 Southside Blvd",
   "Address2": "252",
   "City": " Jacksonville",
   "State": " FL",
   "Postal": 32256,
   "Latitude": null,
   "Longitude": null
 },
 {
   "Name": "Things Remembered",
   "Address1": " 23 East Towne Mall",
   "Address2": "E520",
   "City": " Madison",
   "State": " WI",
   "Postal": 53704,
   "Latitude": null,
   "Longitude": null
 },
 {
   "Name": "Things Remembered",
   "Address1": " 1710 Briargate Blvd",
   "Address2": "735",
   "City": " Colorado Springs",
   "State": " CO",
   "Postal": 80920,
   "Latitude": null,
   "Longitude": null
 },
 {
   "Name": "Things Remembered",
   "Address1": " 7000 Arundel Mills Cir",
   "Address2": "319",
   "City": " Hanover",
   "State": " MD",
   "Postal": 21076,
   "Latitude": null,
   "Longitude": null
 },
 {
   "Name": "Things Remembered",
   "Address1": " 495 Union St",
   "Address2": "1116",
   "City": " Waterbury",
   "State": " CT",
   "Postal": 6706,
   "Latitude": null,
   "Longitude": null
 },
 {
   "Name": "Things Remembered",
   "Address1": " 2700 Miamisburg Centerville Rd",
   "Address2": null,
   "City": " Dayton",
   "State": " OH",
   "Postal": 45459,
   "Latitude": null,
   "Longitude": null
 },
 {
   "Name": "Things Remembered",
   "Address1": " 5555 Youngstown Warren Rd",
   "Address2": "33",
   "City": " Niles",
   "State": " OH",
   "Postal": 44446,
   "Latitude": null,
   "Longitude": null
 },
 {
   "Name": "Things Remembered",
   "Address1": " 750 Citadel Dr E",
   "Address2": "2336",
   "City": " Colorado Springs",
   "State": " CO",
   "Postal": 80909,
   "Latitude": null,
   "Longitude": null
 },
 {
   "Name": "Things Remembered",
   "Address1": " 7850 Mentor Ave",
   "Address2": "824",
   "City": " Mentor",
   "State": " OH",
   "Postal": 44060,
   "Latitude": null,
   "Longitude": null
 },
 {
   "Name": "Things Remembered",
   "Address1": " 208 Alton Square",
   "Address2": null,
   "City": " Alton",
   "State": " IL",
   "Postal": 62002,
   "Latitude": null,
   "Longitude": null
 },
 {
   "Name": "Things Remembered",
   "Address1": " 11025 Carolina Place Pkwy",
   "Address2": "D24",
   "City": " Pineville",
   "State": " NC",
   "Postal": 28134,
   "Latitude": null,
   "Longitude": null
 },
 {
   "Name": "Things Remembered",
   "Address1": " 2855 Stevens Creek Blvd",
   "Address2": "2481",
   "City": " Santa Clara",
   "State": " CA",
   "Postal": 95050,
   "Latitude": null,
   "Longitude": null
 },
 {
   "Name": "Things Remembered",
   "Address1": " 1036 Green Acres Mall",
   "Address2": null,
   "City": " Valley Stream",
   "State": " NY",
   "Postal": 11581,
   "Latitude": null,
   "Longitude": null
 },
 {
   "Name": "Things Remembered",
   "Address1": " 650 Lee Blvd",
   "Address2": null,
   "City": " Yorktown Heights",
   "State": " NY",
   "Postal": 10598,
   "Latitude": null,
   "Longitude": null
 },
 {
   "Name": "Things Remembered",
   "Address1": " 301 South Hills Village",
   "Address2": "1260",
   "City": " Pittsburgh",
   "State": " PA",
   "Postal": 15241,
   "Latitude": null,
   "Longitude": null
 },
 {
   "Name": "Things Remembered",
   "Address1": " 6555 E Southern Ave",
   "Address2": "2020",
   "City": " Mesa",
   "State": " AZ",
   "Postal": 85206,
   "Latitude": null,
   "Longitude": null
 },
 {
   "Name": "Things Remembered",
   "Address1": " 9455 Sw Washington Sq Rd",
   "Address2": null,
   "City": " Portland",
   "State": " OR",
   "Postal": 97223,
   "Latitude": null,
   "Longitude": null
 },
 {
   "Name": "Things Remembered",
   "Address1": " 3065 Route 50",
   "Address2": "C5",
   "City": " Saratoga Springs",
   "State": " NY",
   "Postal": 12866,
   "Latitude": null,
   "Longitude": null
 },
 {
   "Name": "Things Remembered",
   "Address1": " 385 Southbridge St",
   "Address2": "67",
   "City": " Auburn",
   "State": " MA",
   "Postal": 1501,
   "Latitude": null,
   "Longitude": null
 },
 {
   "Name": "Things Remembered",
   "Address1": " 1600 N State Route 50",
   "Address2": "116",
   "City": " Bourbonnais",
   "State": " IL",
   "Postal": 60914,
   "Latitude": null,
   "Longitude": null
 },
 {
   "Name": "Things Remembered",
   "Address1": " 180 Highway 35",
   "Address2": null,
   "City": " Eatontown",
   "State": " NJ",
   "Postal": 7724,
   "Latitude": null,
   "Longitude": null
 },
 {
   "Name": "Things Remembered",
   "Address1": " 6910 Fayetteville Rd",
   "Address2": null,
   "City": " Durham",
   "State": " NC",
   "Postal": 27713,
   "Latitude": null,
   "Longitude": null
 },
 {
   "Name": "Things Remembered",
   "Address1": " 98-1005 Moanalua Rd",
   "Address2": "112",
   "City": " Aiea",
   "State": " HI",
   "Postal": 96701,
   "Latitude": null,
   "Longitude": null
 },
 {
   "Name": "Things Remembered",
   "Address1": " 20505 S Dixie Hwy",
   "Address2": "1203",
   "City": " Cutler Bay",
   "State": " FL",
   "Postal": 33189,
   "Latitude": null,
   "Longitude": null
 },
 {
   "Name": "Things Remembered",
   "Address1": " 900 Dana Dr",
   "Address2": "C23",
   "City": " Redding",
   "State": " CA",
   "Postal": 96003,
   "Latitude": null,
   "Longitude": null
 },
 {
   "Name": "Things Remembered",
   "Address1": " 471 Town Center Pl",
   "Address2": "8",
   "City": " Columbia",
   "State": " SC",
   "Postal": 29229,
   "Latitude": null,
   "Longitude": null
 },
 {
   "Name": "Things Remembered",
   "Address1": " 11200 Lakeline Mall Dr",
   "Address2": "C14A",
   "City": " Cedar Park",
   "State": " TX",
   "Postal": 78613,
   "Latitude": null,
   "Longitude": null
 },
 {
   "Name": "Things Remembered",
   "Address1": " 4176 North Harlem Ave",
   "Address2": "57",
   "City": " Norridge",
   "State": " IL",
   "Postal": 60706,
   "Latitude": null,
   "Longitude": null
 },
 {
   "Name": "Things Remembered",
   "Address1": " 5000 Shelbyville Road",
   "Address2": null,
   "City": " Louisville",
   "State": " KY",
   "Postal": 40207,
   "Latitude": null,
   "Longitude": null
 },
 {
   "Name": "Things Remembered",
   "Address1": " 1245 Worcester St",
   "Address2": "2028",
   "City": " Natick",
   "State": " MA",
   "Postal": 1760,
   "Latitude": null,
   "Longitude": null
 },
 {
   "Name": "Things Remembered",
   "Address1": " 4800 S Hulen St",
   "Address2": "2062",
   "City": " Fort Worth",
   "State": " TX",
   "Postal": 76132,
   "Latitude": null,
   "Longitude": null
 },
 {
   "Name": "Things Remembered",
   "Address1": " 8000 Mall Walk",
   "Address2": "Box 16",
   "City": " Yonkers",
   "State": " NY",
   "Postal": 10704,
   "Latitude": null,
   "Longitude": null
 },
 {
   "Name": "Things Remembered",
   "Address1": " 630 Old Country Rd",
   "Address2": "2074",
   "City": " Garden City",
   "State": " NY",
   "Postal": 11530,
   "Latitude": null,
   "Longitude": null
 },
 {
   "Name": "Things Remembered",
   "Address1": " 24647 Cedar Rd",
   "Address2": null,
   "City": " Lyndhurst",
   "State": " OH",
   "Postal": 44124,
   "Latitude": null,
   "Longitude": null
 },
 {
   "Name": "Things Remembered",
   "Address1": " 7501 W Cermak Rd",
   "Address2": "E17",
   "City": " North Riverside",
   "State": " IL",
   "Postal": 60546,
   "Latitude": null,
   "Longitude": null
 },
 {
   "Name": "Things Remembered",
   "Address1": " 3265 W Market St",
   "Address2": "176B",
   "City": " Fairlawn",
   "State": " OH",
   "Postal": 44333,
   "Latitude": null,
   "Longitude": null
 },
 {
   "Name": "Things Remembered",
   "Address1": " 6401 Bluebonnet Blvd",
   "Address2": null,
   "City": " Baton Rouge",
   "State": " LA",
   "Postal": 70836,
   "Latitude": null,
   "Longitude": null
 },
 {
   "Name": "Things Remembered",
   "Address1": " 415 Apache Mall",
   "Address2": null,
   "City": " Rochester",
   "State": " MN",
   "Postal": 55902,
   "Latitude": null,
   "Longitude": null
 },
 {
   "Name": "Things Remembered",
   "Address1": " 11921L Fair Oaks Mall",
   "Address2": "G120",
   "City": " Fairfax",
   "State": " VA",
   "Postal": 22033,
   "Latitude": null,
   "Longitude": null
 },
 {
   "Name": "Things Remembered",
   "Address1": " 1011 Southcenter Mall",
   "Address2": null,
   "City": " Tukwila",
   "State": " WA",
   "Postal": 98188,
   "Latitude": null,
   "Longitude": null
 },
 {
   "Name": "Things Remembered",
   "Address1": " 118A Serramonte Center",
   "Address2": null,
   "City": " Daly City",
   "State": " CA",
   "Postal": 94015,
   "Latitude": null,
   "Longitude": null
 },
 {
   "Name": "Things Remembered",
   "Address1": " 3251 20th Ave",
   "Address2": "214",
   "City": " San Francisco",
   "State": " CA",
   "Postal": 94132,
   "Latitude": null,
   "Longitude": null
 },
 {
   "Name": "Things Remembered",
   "Address1": " 35000 Warren Rd",
   "Address2": "3508",
   "City": " Westland",
   "State": " MI",
   "Postal": 48185,
   "Latitude": null,
   "Longitude": null
 },
 {
   "Name": "Things Remembered",
   "Address1": " 211 Monroeville Mall",
   "Address2": null,
   "City": " Monroeville",
   "State": " PA",
   "Postal": 15146,
   "Latitude": null,
   "Longitude": null
 },
 {
   "Name": "Things Remembered",
   "Address1": " 639 E Boughton Rd",
   "Address2": "155",
   "City": " Bolingbrook",
   "State": " IL",
   "Postal": 60440,
   "Latitude": null,
   "Longitude": null
 },
 {
   "Name": "Things Remembered",
   "Address1": " 5080 Riverside Dr",
   "Address2": "220",
   "City": " Macon",
   "State": " GA",
   "Postal": 31210,
   "Latitude": null,
   "Longitude": null
 },
 {
   "Name": "Things Remembered",
   "Address1": " 1500 Polaris Pkwy",
   "Address2": "2026",
   "City": " Columbus",
   "State": " OH",
   "Postal": 43240,
   "Latitude": null,
   "Longitude": null
 },
 {
   "Name": "Things Remembered",
   "Address1": " 257 Westshore Plaza",
   "Address2": null,
   "City": " Tampa",
   "State": " FL",
   "Postal": 33609,
   "Latitude": null,
   "Longitude": null
 },
 {
   "Name": "Things Remembered",
   "Address1": " 303 Memorial City",
   "Address2": "534",
   "City": " Houston",
   "State": " TX",
   "Postal": 77024,
   "Latitude": null,
   "Longitude": null
 },
 {
   "Name": "Things Remembered",
   "Address1": " 1201 Lake Woodlands Dr",
   "Address2": "2036",
   "City": " The Woodlands",
   "State": " TX",
   "Postal": 77380,
   "Latitude": null,
   "Longitude": null
 },
 {
   "Name": "Things Remembered",
   "Address1": " 14400 Bear Valley Rd",
   "Address2": "304",
   "City": " Victorville",
   "State": " CA",
   "Postal": 92392,
   "Latitude": null,
   "Longitude": null
 },
 {
   "Name": "Things Remembered",
   "Address1": " 341 Westfarms Mall",
   "Address2": null,
   "City": " Farmington",
   "State": " CT",
   "Postal": 6032,
   "Latitude": null,
   "Longitude": null
 },
 {
   "Name": "Things Remembered",
   "Address1": " 268 Valley River Ctr",
   "Address2": null,
   "City": " Eugene",
   "State": " OR",
   "Postal": 97401,
   "Latitude": null,
   "Longitude": null
 },
 {
   "Name": "Things Remembered",
   "Address1": " 1514 Commons Dr",
   "Address2": null,
   "City": " Geneva",
   "State": " IL",
   "Postal": 60134,
   "Latitude": null,
   "Longitude": null
 },
 {
   "Name": "Things Remembered",
   "Address1": " 2425 Stoneridge Mall Rd",
   "Address2": null,
   "City": " Pleasanton",
   "State": " CA",
   "Postal": 94588,
   "Latitude": null,
   "Longitude": null
 },
 {
   "Name": "Things Remembered",
   "Address1": " 10450 S State St",
   "Address2": "K2",
   "City": " Sandy",
   "State": " UT",
   "Postal": 84070,
   "Latitude": null,
   "Longitude": null
 },
 {
   "Name": "Things Remembered",
   "Address1": " 3001 S 144th St",
   "Address2": "J3",
   "City": " Omaha",
   "State": " NE",
   "Postal": 68144,
   "Latitude": null,
   "Longitude": null
 },
 {
   "Name": "Things Remembered",
   "Address1": " 9301 Tampa Ave",
   "Address2": "114",
   "City": " Northridge",
   "State": " CA",
   "Postal": 91324,
   "Latitude": null,
   "Longitude": null
 },
 {
   "Name": "Things Remembered",
   "Address1": " 1065 Voorhees Town Ctr",
   "Address2": null,
   "City": " Voorhees",
   "State": " NJ",
   "Postal": 8043,
   "Latitude": null,
   "Longitude": null
 },
 {
   "Name": "Things Remembered",
   "Address1": " 75 Middlesex Tpke",
   "Address2": "2116",
   "City": " Burlington",
   "State": " MA",
   "Postal": 1803,
   "Latitude": null,
   "Longitude": null
 },
 {
   "Name": "Things Remembered",
   "Address1": " 637 Brandon Town Center Mall",
   "Address2": null,
   "City": " Brandon",
   "State": " FL",
   "Postal": 33511,
   "Latitude": null,
   "Longitude": null
 },
 {
   "Name": "Things Remembered",
   "Address1": " 1133 Saint Vincent Ave",
   "Address2": "5531",
   "City": " Shreveport",
   "State": " LA",
   "Postal": 71104,
   "Latitude": null,
   "Longitude": null
 },
 {
   "Name": "Things Remembered",
   "Address1": " 2825 S Glenstone Ave",
   "Address2": "K03",
   "City": " Springfield",
   "State": " MO",
   "Postal": 65804,
   "Latitude": null,
   "Longitude": null
 },
 {
   "Name": "Things Remembered",
   "Address1": " 8300 Sudley Rd",
   "Address2": "K5",
   "City": " Manassas",
   "State": " VA",
   "Postal": 20109,
   "Latitude": null,
   "Longitude": null
 },
 {
   "Name": "Things Remembered",
   "Address1": " 2150 Northwoods Blvd",
   "Address2": null,
   "City": " North Charleston",
   "State": " SC",
   "Postal": 29406,
   "Latitude": null,
   "Longitude": null
 },
 {
   "Name": "Things Remembered",
   "Address1": " 101 Jordan Creek Pkwy",
   "Address2": "12250",
   "City": " West Des Moines",
   "State": " IA",
   "Postal": 50266,
   "Latitude": null,
   "Longitude": null
 },
 {
   "Name": "Things Remembered",
   "Address1": " 4731 Fashion Square Mall",
   "Address2": null,
   "City": " Saginaw",
   "State": " MI",
   "Postal": 48604,
   "Latitude": null,
   "Longitude": null
 },
 {
   "Name": "Things Remembered",
   "Address1": " 9687 Destiny Usa Dr",
   "Address2": null,
   "City": " Syracuse",
   "State": " NY",
   "Postal": 13204,
   "Latitude": null,
   "Longitude": null
 },
 {
   "Name": "Things Remembered",
   "Address1": " 11290 Legacy Ave",
   "Address2": "K130",
   "City": " Palm Beach Gardens",
   "State": " FL",
   "Postal": 33410,
   "Latitude": null,
   "Longitude": null
 },
 {
   "Name": "Things Remembered",
   "Address1": " 236 Greece Ridge Ctr Dr",
   "Address2": "236",
   "City": " Rochester",
   "State": " NY",
   "Postal": 14626,
   "Latitude": null,
   "Longitude": null
 },
 {
   "Name": "Things Remembered",
   "Address1": " 2801 Memorial Pkwy Sw",
   "Address2": null,
   "City": " Huntsville",
   "State": " AL",
   "Postal": 35801,
   "Latitude": null,
   "Longitude": null
 },
 {
   "Name": "Things Remembered",
   "Address1": " 672 Bel Air Rd",
   "Address2": null,
   "City": " Bel Air",
   "State": " MD",
   "Postal": 21014,
   "Latitude": null,
   "Longitude": null
 },
 {
   "Name": "Things Remembered",
   "Address1": " 410 Smith Haven Mall",
   "Address2": null,
   "City": " Lake Grove",
   "State": " NY",
   "Postal": 11755,
   "Latitude": null,
   "Longitude": null
 },
 {
   "Name": "Things Remembered",
   "Address1": " 1665 State Hill Rd",
   "Address2": null,
   "City": " Wyomissing",
   "State": " PA",
   "Postal": 19610,
   "Latitude": null,
   "Longitude": null
 },
 {
   "Name": "Things Remembered",
   "Address1": " 319 Exton Square Mall",
   "Address2": null,
   "City": " Exton",
   "State": " PA",
   "Postal": 19341,
   "Latitude": null,
   "Longitude": null
 },
 {
   "Name": "Things Remembered",
   "Address1": " 2701 Ming Ave",
   "Address2": "163",
   "City": " Bakersfield",
   "State": " CA",
   "Postal": 93304,
   "Latitude": null,
   "Longitude": null
 },
 {
   "Name": "Things Remembered",
   "Address1": " 16535 Southwest Fwy",
   "Address2": null,
   "City": " Sugar Land",
   "State": " TX",
   "Postal": 77479,
   "Latitude": null,
   "Longitude": null
 },
 {
   "Name": "Things Remembered",
   "Address1": " 2110 Sunrise Mall",
   "Address2": null,
   "City": " Massapequa",
   "State": " NY",
   "Postal": 11758,
   "Latitude": null,
   "Longitude": null
 },
 {
   "Name": "Things Remembered",
   "Address1": " 9475 Colerain Ave",
   "Address2": null,
   "City": " Cincinnati",
   "State": " OH",
   "Postal": 45251,
   "Latitude": null,
   "Longitude": null
 },
 {
   "Name": "Things Remembered",
   "Address1": " 2260 Callagan Hwy Bldg 3379",
   "Address2": null,
   "City": "San Diego",
   "State": "CA",
   "Postal": 92136,
   "Latitude": null,
   "Longitude": null
 },
 {
   "Name": "Things Remembered",
   "Address1": " 4725 Bougainville Dr",
   "Address2": null,
   "City": " Honolulu",
   "State": " HI",
   "Postal": 96818,
   "Latitude": null,
   "Longitude": null
 },
 {
   "Name": "Things Remembered",
   "Address1": " 6901 22nd Ave N",
   "Address2": null,
   "City": " Saint Petersburg",
   "State": " FL",
   "Postal": 33710,
   "Latitude": null,
   "Longitude": null
 },
 {
   "Name": "Things Remembered",
   "Address1": " 320 W Kimberly Rd",
   "Address2": "86",
   "City": " Davenport",
   "State": " IA",
   "Postal": 52806,
   "Latitude": null,
   "Longitude": null
 },
 {
   "Name": "Things Remembered",
   "Address1": " 2300 E Lincoln Hwy",
   "Address2": "2127",
   "City": " Langhorne",
   "State": " PA",
   "Postal": 19047,
   "Latitude": null,
   "Longitude": null
 },
 {
   "Name": "Things Remembered",
   "Address1": " 6110 Martinez St",
   "Address2": null,
   "City": " Fort Carson",
   "State": " CO",
   "Postal": 80913,
   "Latitude": null,
   "Longitude": null
 },
 {
   "Name": "Things Remembered",
   "Address1": " 527 Hawthorn Center",
   "Address2": null,
   "City": " Vernon Hills",
   "State": " IL",
   "Postal": 60061,
   "Latitude": null,
   "Longitude": null
 },
 {
   "Name": "Things Remembered",
   "Address1": " 160 Walt Whitman Rd",
   "Address2": "1025A",
   "City": " Huntington Station",
   "State": " NY",
   "Postal": 11746,
   "Latitude": null,
   "Longitude": null
 },
 {
   "Name": "Things Remembered",
   "Address1": " Bldg 85050 Butner Rd",
   "Address2": null,
   "City": " Fort Bragg",
   "State": " NC",
   "Postal": 28307,
   "Latitude": null,
   "Longitude": null
 },
 {
   "Name": "Things Remembered",
   "Address1": " 1231 Birch St",
   "Address2": null,
   "City": " Camp Lejeune",
   "State": " NC",
   "Postal": 28547,
   "Latitude": null,
   "Longitude": null
 },
 {
   "Name": "Things Remembered",
   "Address1": " 7200 Harrison Ave",
   "Address2": "E59",
   "City": " Rockford",
   "State": " IL",
   "Postal": 61112,
   "Latitude": null,
   "Longitude": null
 },
 {
   "Name": "Things Remembered",
   "Address1": " 8651 John J Kingman Rd Bldg 2321",
   "Address2": null,
   "City": " Fort Belvoir",
   "State": " VA",
   "Postal": 22060,
   "Latitude": null,
   "Longitude": null
 },
 {
   "Name": "Things Remembered",
   "Address1": " D214 Woodfield Mall",
   "Address2": null,
   "City": " Schaumburg",
   "State": " IL",
   "Postal": 60173,
   "Latitude": null,
   "Longitude": null
 },
 {
   "Name": "Things Remembered",
   "Address1": " 400 S Baldwin Ave",
   "Address2": "344",
   "City": " Arcadia",
   "State": " CA",
   "Postal": 91007,
   "Latitude": null,
   "Longitude": null
 },
 {
   "Name": "Things Remembered",
   "Address1": " 2116 Coastal Grand Cir",
   "Address2": null,
   "City": " Myrtle Beach",
   "State": " SC",
   "Postal": 29577,
   "Latitude": null,
   "Longitude": null
 },
 {
   "Name": "Things Remembered",
   "Address1": " 6020 E 82nd St",
   "Address2": null,
   "City": " Indianapolis",
   "State": " IN",
   "Postal": 46250,
   "Latitude": null,
   "Longitude": null
 },
 {
   "Name": "Things Remembered",
   "Address1": " 623 Millcreek Mall",
   "Address2": null,
   "City": " Erie",
   "State": " PA",
   "Postal": 16565,
   "Latitude": null,
   "Longitude": null
 },
 {
   "Name": "Things Remembered",
   "Address1": " 2026 Westminster Mall",
   "Address2": null,
   "City": " Westminster",
   "State": " CA",
   "Postal": 92683,
   "Latitude": null,
   "Longitude": null
 },
 {
   "Name": "Things Remembered",
   "Address1": " 55 Parsonage Rd",
   "Address2": "Box 303",
   "City": " Edison",
   "State": " NJ",
   "Postal": 8837,
   "Latitude": null,
   "Longitude": null
 },
 {
   "Name": "Things Remembered",
   "Address1": " 4250 Clear Creek Rd",
   "Address2": null,
   "City": " Fort Hood",
   "State": " TX",
   "Postal": 76544,
   "Latitude": null,
   "Longitude": null
 },
 {
   "Name": "Things Remembered",
   "Address1": " 590 Spotsylvania Mall",
   "Address2": null,
   "City": " Fredericksburg",
   "State": " VA",
   "Postal": 22407,
   "Latitude": null,
   "Longitude": null
 },
 {
   "Name": "Things Remembered",
   "Address1": " 2500 N Mayfair Rd",
   "Address2": null,
   "City": " Wauwatosa",
   "State": " WI",
   "Postal": 53226,
   "Latitude": null,
   "Longitude": null
 },
 {
   "Name": "Things Remembered",
   "Address1": " 6121 W Park Blvd",
   "Address2": "A118",
   "City": " Plano",
   "State": " TX",
   "Postal": 75093,
   "Latitude": null,
   "Longitude": null
 },
 {
   "Name": "Things Remembered",
   "Address1": " 3001 White Bear Ave N",
   "Address2": null,
   "City": " Maplewood",
   "State": " MN",
   "Postal": 55109,
   "Latitude": null,
   "Longitude": null
 },
 {
   "Name": "Things Remembered",
   "Address1": " 241 Saint Clair Sq",
   "Address2": null,
   "City": " Fairview Heights",
   "State": " IL",
   "Postal": 62208,
   "Latitude": null,
   "Longitude": null
 },
 {
   "Name": "Things Remembered",
   "Address1": " 18813 East 39th St S",
   "Address2": "1114",
   "City": " Independence",
   "State": " MO",
   "Postal": 64057,
   "Latitude": null,
   "Longitude": null
 },
 {
   "Name": "Things Remembered",
   "Address1": " 12629 Wayzata Blvd",
   "Address2": null,
   "City": " Minnetonka",
   "State": " MN",
   "Postal": 55305,
   "Latitude": null,
   "Longitude": null
 },
 {
   "Name": "Things Remembered",
   "Address1": " 2525 El Camino Real",
   "Address2": "251",
   "City": " Carlsbad",
   "State": " CA",
   "Postal": 92008,
   "Latitude": null,
   "Longitude": null
 },
 {
   "Name": "Things Remembered",
   "Address1": " 22500 Town Circle",
   "Address2": null,
   "City": " Moreno Valley",
   "State": " CA",
   "Postal": 92553,
   "Latitude": null,
   "Longitude": null
 },
 {
   "Name": "Things Remembered",
   "Address1": " 1645 W 49th St",
   "Address2": "1352",
   "City": " Hialeah",
   "State": " FL",
   "Postal": 33012,
   "Latitude": null,
   "Longitude": null
 },
 {
   "Name": "Things Remembered",
   "Address1": " 3401 Dale Rd",
   "Address2": "207",
   "City": " Modesto",
   "State": " CA",
   "Postal": 95356,
   "Latitude": null,
   "Longitude": null
 },
 {
   "Name": "Things Remembered",
   "Address1": " 630 3rd St W Bldg 1068",
   "Address2": null,
   "City": " Universal City",
   "State": " TX",
   "Postal": 78148,
   "Latitude": null,
   "Longitude": null
 },
 {
   "Name": "Things Remembered",
   "Address1": " 451 E Altamonte Dr",
   "Address2": "1465",
   "City": " Altamonte Springs",
   "State": " FL",
   "Postal": 32701,
   "Latitude": null,
   "Longitude": null
 },
 {
   "Name": "Things Remembered",
   "Address1": " 1700 W International Speedway Blvd",
   "Address2": "344",
   "City": " Daytona Beach",
   "State": " FL",
   "Postal": 32114,
   "Latitude": null,
   "Longitude": null
 },
 {
   "Name": "Things Remembered",
   "Address1": " 1614 Pleasonton Rd Ste D115",
   "Address2": null,
   "City": " Fort Bliss",
   "State": " TX",
   "Postal": 79906,
   "Latitude": null,
   "Longitude": null
 },
 {
   "Name": "Things Remembered",
   "Address1": " 419 Cross Creek Mall",
   "Address2": "241",
   "City": " Fayetteville",
   "State": " NC",
   "Postal": 28303,
   "Latitude": null,
   "Longitude": null
 },
 {
   "Name": "Things Remembered",
   "Address1": " 9220 Marne Rd",
   "Address2": null,
   "City": " Fort Benning",
   "State": " GA",
   "Postal": 31905,
   "Latitude": null,
   "Longitude": null
 },
 {
   "Name": "Things Remembered",
   "Address1": " 3320 Silas Creek Pkwy",
   "Address2": "Cl320",
   "City": " Winston Salem",
   "State": " NC",
   "Postal": 27103,
   "Latitude": null,
   "Longitude": null
 },
 {
   "Name": "Things Remembered",
   "Address1": " 1560 Mall Dr Bldg #Cd-13",
   "Address2": null,
   "City": " Norfolk",
   "State": " VA",
   "Postal": 23511,
   "Latitude": null,
   "Longitude": null
 },
 {
   "Name": "Things Remembered",
   "Address1": " 143 Replacement Ave Bldg 487",
   "Address2": null,
   "City": " Fort Leonard Wood",
   "State": " MO",
   "Postal": 65473,
   "Latitude": null,
   "Longitude": null
 },
 {
   "Name": "Things Remembered",
   "Address1": " 2840 Bastogne Ave",
   "Address2": null,
   "City": " Fort Campbell",
   "State": " KY",
   "Postal": 42223,
   "Latitude": null,
   "Longitude": null
 },
 {
   "Name": "Things Remembered",
   "Address1": " 8000 W. Broward Blvd",
   "Address2": "117",
   "City": " Plantation",
   "State": " FL",
   "Postal": 33388,
   "Latitude": null,
   "Longitude": null
 },
 {
   "Name": "Things Remembered",
   "Address1": " 601 Donald Lynch Blvd",
   "Address2": null,
   "City": " Marlborough",
   "State": " MA",
   "Postal": 1752,
   "Latitude": null,
   "Longitude": null
 },
 {
   "Name": "Things Remembered",
   "Address1": " 4325 Glenwood Ave",
   "Address2": null,
   "City": " Raleigh",
   "State": " NC",
   "Postal": 27612,
   "Latitude": null,
   "Longitude": null
 },
 {
   "Name": null,
   "Address1": null,
   "Address2": null,
   "City": null,
   "State": null,
   "Postal": null,
   "Latitude": null,
   "Longitude": null
 },
 {
   "Name": null,
   "Address1": null,
   "Address2": null,
   "City": null,
   "State": null,
   "Postal": null,
   "Latitude": null,
   "Longitude": null
 },
 {
   "Name": null,
   "Address1": null,
   "Address2": null,
   "City": null,
   "State": null,
   "Postal": null,
   "Latitude": null,
   "Longitude": null
 },
 {
   "Name": null,
   "Address1": null,
   "Address2": null,
   "City": null,
   "State": null,
   "Postal": null,
   "Latitude": null,
   "Longitude": null
 },
 {
   "Name": null,
   "Address1": null,
   "Address2": null,
   "City": null,
   "State": null,
   "Postal": null,
   "Latitude": null,
   "Longitude": null
 },
 {
   "Name": null,
   "Address1": null,
   "Address2": null,
   "City": null,
   "State": null,
   "Postal": null,
   "Latitude": null,
   "Longitude": null
 },
 {
   "Name": null,
   "Address1": null,
   "Address2": null,
   "City": null,
   "State": null,
   "Postal": null,
   "Latitude": null,
   "Longitude": null
 },
 {
   "Name": null,
   "Address1": null,
   "Address2": null,
   "City": null,
   "State": null,
   "Postal": null,
   "Latitude": null,
   "Longitude": null
 },
 {
   "Name": null,
   "Address1": null,
   "Address2": null,
   "City": null,
   "State": null,
   "Postal": null,
   "Latitude": null,
   "Longitude": null
 },
 {
   "Name": null,
   "Address1": null,
   "Address2": null,
   "City": null,
   "State": null,
   "Postal": null,
   "Latitude": null,
   "Longitude": null
 },
 {
   "Name": null,
   "Address1": null,
   "Address2": null,
   "City": null,
   "State": null,
   "Postal": null,
   "Latitude": null,
   "Longitude": null
 },
 {
   "Name": null,
   "Address1": null,
   "Address2": null,
   "City": null,
   "State": null,
   "Postal": null,
   "Latitude": null,
   "Longitude": null
 },
 {
   "Name": null,
   "Address1": null,
   "Address2": null,
   "City": null,
   "State": null,
   "Postal": null,
   "Latitude": null,
   "Longitude": null
 },
 {
   "Name": null,
   "Address1": null,
   "Address2": null,
   "City": null,
   "State": null,
   "Postal": null,
   "Latitude": null,
   "Longitude": null
 },
 {
   "Name": null,
   "Address1": null,
   "Address2": null,
   "City": null,
   "State": null,
   "Postal": null,
   "Latitude": null,
   "Longitude": null
 },
 {
   "Name": null,
   "Address1": null,
   "Address2": null,
   "City": null,
   "State": null,
   "Postal": null,
   "Latitude": null,
   "Longitude": null
 },
 {
   "Name": null,
   "Address1": null,
   "Address2": null,
   "City": null,
   "State": null,
   "Postal": null,
   "Latitude": null,
   "Longitude": null
 },
 {
   "Name": null,
   "Address1": null,
   "Address2": null,
   "City": null,
   "State": null,
   "Postal": null,
   "Latitude": null,
   "Longitude": null
 },
 {
   "Name": null,
   "Address1": null,
   "Address2": null,
   "City": null,
   "State": null,
   "Postal": null,
   "Latitude": null,
   "Longitude": null
 },
 {
   "Name": null,
   "Address1": null,
   "Address2": null,
   "City": null,
   "State": null,
   "Postal": null,
   "Latitude": null,
   "Longitude": null
 },
 {
   "Name": null,
   "Address1": null,
   "Address2": null,
   "City": null,
   "State": null,
   "Postal": null,
   "Latitude": null,
   "Longitude": null
 },
 {
   "Name": null,
   "Address1": null,
   "Address2": null,
   "City": null,
   "State": null,
   "Postal": null,
   "Latitude": null,
   "Longitude": null
 },
 {
   "Name": null,
   "Address1": null,
   "Address2": null,
   "City": null,
   "State": null,
   "Postal": null,
   "Latitude": null,
   "Longitude": null
 },
 {
   "Name": null,
   "Address1": null,
   "Address2": null,
   "City": null,
   "State": null,
   "Postal": null,
   "Latitude": null,
   "Longitude": null
 },
 {
   "Name": null,
   "Address1": null,
   "Address2": null,
   "City": null,
   "State": null,
   "Postal": null,
   "Latitude": null,
   "Longitude": null
 },
 {
   "Name": null,
   "Address1": null,
   "Address2": null,
   "City": null,
   "State": null,
   "Postal": null,
   "Latitude": null,
   "Longitude": null
 },
 {
   "Name": null,
   "Address1": null,
   "Address2": null,
   "City": null,
   "State": null,
   "Postal": null,
   "Latitude": null,
   "Longitude": null
 },
 {
   "Name": null,
   "Address1": null,
   "Address2": null,
   "City": null,
   "State": null,
   "Postal": null,
   "Latitude": null,
   "Longitude": null
 },
 {
   "Name": null,
   "Address1": null,
   "Address2": null,
   "City": null,
   "State": null,
   "Postal": null,
   "Latitude": null,
   "Longitude": null
 },
 {
   "Name": null,
   "Address1": null,
   "Address2": null,
   "City": null,
   "State": null,
   "Postal": null,
   "Latitude": null,
   "Longitude": null
 },
 {
   "Name": null,
   "Address1": null,
   "Address2": null,
   "City": null,
   "State": null,
   "Postal": null,
   "Latitude": null,
   "Longitude": null
 },
 {
   "Name": null,
   "Address1": null,
   "Address2": null,
   "City": null,
   "State": null,
   "Postal": null,
   "Latitude": null,
   "Longitude": null
 },
 {
   "Name": null,
   "Address1": null,
   "Address2": null,
   "City": null,
   "State": null,
   "Postal": null,
   "Latitude": null,
   "Longitude": null
 },
 {
   "Name": null,
   "Address1": null,
   "Address2": null,
   "City": null,
   "State": null,
   "Postal": null,
   "Latitude": null,
   "Longitude": null
 },
 {
   "Name": null,
   "Address1": null,
   "Address2": null,
   "City": null,
   "State": null,
   "Postal": null,
   "Latitude": null,
   "Longitude": null
 },
 {
   "Name": null,
   "Address1": null,
   "Address2": null,
   "City": null,
   "State": null,
   "Postal": null,
   "Latitude": null,
   "Longitude": null
 },
 {
   "Name": null,
   "Address1": null,
   "Address2": null,
   "City": null,
   "State": null,
   "Postal": null,
   "Latitude": null,
   "Longitude": null
 },
 {
   "Name": null,
   "Address1": null,
   "Address2": null,
   "City": null,
   "State": null,
   "Postal": null,
   "Latitude": null,
   "Longitude": null
 },
 {
   "Name": null,
   "Address1": null,
   "Address2": null,
   "City": null,
   "State": null,
   "Postal": null,
   "Latitude": null,
   "Longitude": null
 },
 {
   "Name": null,
   "Address1": null,
   "Address2": null,
   "City": null,
   "State": null,
   "Postal": null,
   "Latitude": null,
   "Longitude": null
 },
 {
   "Name": null,
   "Address1": null,
   "Address2": null,
   "City": null,
   "State": null,
   "Postal": null,
   "Latitude": null,
   "Longitude": null
 },
 {
   "Name": null,
   "Address1": null,
   "Address2": null,
   "City": null,
   "State": null,
   "Postal": null,
   "Latitude": null,
   "Longitude": null
 },
 {
   "Name": null,
   "Address1": null,
   "Address2": null,
   "City": null,
   "State": null,
   "Postal": null,
   "Latitude": null,
   "Longitude": null
 },
 {
   "Name": null,
   "Address1": null,
   "Address2": null,
   "City": null,
   "State": null,
   "Postal": null,
   "Latitude": null,
   "Longitude": null
 },
 {
   "Name": null,
   "Address1": null,
   "Address2": null,
   "City": null,
   "State": null,
   "Postal": null,
   "Latitude": null,
   "Longitude": null
 },
 {
   "Name": null,
   "Address1": null,
   "Address2": null,
   "City": null,
   "State": null,
   "Postal": null,
   "Latitude": null,
   "Longitude": null
 },
 {
   "Name": null,
   "Address1": null,
   "Address2": null,
   "City": null,
   "State": null,
   "Postal": null,
   "Latitude": null,
   "Longitude": null
 },
 {
   "Name": null,
   "Address1": null,
   "Address2": null,
   "City": null,
   "State": null,
   "Postal": null,
   "Latitude": null,
   "Longitude": null
 },
 {
   "Name": null,
   "Address1": null,
   "Address2": null,
   "City": null,
   "State": null,
   "Postal": null,
   "Latitude": null,
   "Longitude": null
 },
 {
   "Name": null,
   "Address1": null,
   "Address2": null,
   "City": null,
   "State": null,
   "Postal": null,
   "Latitude": null,
   "Longitude": null
 },
 {
   "Name": null,
   "Address1": null,
   "Address2": null,
   "City": null,
   "State": null,
   "Postal": null,
   "Latitude": null,
   "Longitude": null
 },
 {
   "Name": null,
   "Address1": null,
   "Address2": null,
   "City": null,
   "State": null,
   "Postal": null,
   "Latitude": null,
   "Longitude": null
 },
 {
   "Name": null,
   "Address1": null,
   "Address2": null,
   "City": null,
   "State": null,
   "Postal": null,
   "Latitude": null,
   "Longitude": null
 },
 {
   "Name": null,
   "Address1": null,
   "Address2": null,
   "City": null,
   "State": null,
   "Postal": null,
   "Latitude": null,
   "Longitude": null
 },
 {
   "Name": null,
   "Address1": null,
   "Address2": null,
   "City": null,
   "State": null,
   "Postal": null,
   "Latitude": null,
   "Longitude": null
 },
 {
   "Name": null,
   "Address1": null,
   "Address2": null,
   "City": null,
   "State": null,
   "Postal": null,
   "Latitude": null,
   "Longitude": null
 },
 {
   "Name": null,
   "Address1": null,
   "Address2": null,
   "City": null,
   "State": null,
   "Postal": null,
   "Latitude": null,
   "Longitude": null
 },
 {
   "Name": null,
   "Address1": null,
   "Address2": null,
   "City": null,
   "State": null,
   "Postal": null,
   "Latitude": null,
   "Longitude": null
 },
 {
   "Name": null,
   "Address1": null,
   "Address2": null,
   "City": null,
   "State": null,
   "Postal": null,
   "Latitude": null,
   "Longitude": null
 },
 {
   "Name": null,
   "Address1": null,
   "Address2": null,
   "City": null,
   "State": null,
   "Postal": null,
   "Latitude": null,
   "Longitude": null
 },
 {
   "Name": null,
   "Address1": null,
   "Address2": null,
   "City": null,
   "State": null,
   "Postal": null,
   "Latitude": null,
   "Longitude": null
 },
 {
   "Name": null,
   "Address1": null,
   "Address2": null,
   "City": null,
   "State": null,
   "Postal": null,
   "Latitude": null,
   "Longitude": null
 },
 {
   "Name": null,
   "Address1": null,
   "Address2": null,
   "City": null,
   "State": null,
   "Postal": null,
   "Latitude": null,
   "Longitude": null
 },
 {
   "Name": null,
   "Address1": null,
   "Address2": null,
   "City": null,
   "State": null,
   "Postal": null,
   "Latitude": null,
   "Longitude": null
 },
 {
   "Name": null,
   "Address1": null,
   "Address2": null,
   "City": null,
   "State": null,
   "Postal": null,
   "Latitude": null,
   "Longitude": null
 },
 {
   "Name": null,
   "Address1": null,
   "Address2": null,
   "City": null,
   "State": null,
   "Postal": null,
   "Latitude": null,
   "Longitude": null
 },
 {
   "Name": null,
   "Address1": null,
   "Address2": null,
   "City": null,
   "State": null,
   "Postal": null,
   "Latitude": null,
   "Longitude": null
 },
 {
   "Name": null,
   "Address1": null,
   "Address2": null,
   "City": null,
   "State": null,
   "Postal": null,
   "Latitude": null,
   "Longitude": null
 },
 {
   "Name": null,
   "Address1": null,
   "Address2": null,
   "City": null,
   "State": null,
   "Postal": null,
   "Latitude": null,
   "Longitude": null
 },
 {
   "Name": null,
   "Address1": null,
   "Address2": null,
   "City": null,
   "State": null,
   "Postal": null,
   "Latitude": null,
   "Longitude": null
 },
 {
   "Name": null,
   "Address1": null,
   "Address2": null,
   "City": null,
   "State": null,
   "Postal": null,
   "Latitude": null,
   "Longitude": null
 },
 {
   "Name": null,
   "Address1": null,
   "Address2": null,
   "City": null,
   "State": null,
   "Postal": null,
   "Latitude": null,
   "Longitude": null
 },
 {
   "Name": null,
   "Address1": null,
   "Address2": null,
   "City": null,
   "State": null,
   "Postal": null,
   "Latitude": null,
   "Longitude": null
 },
 {
   "Name": null,
   "Address1": null,
   "Address2": null,
   "City": null,
   "State": null,
   "Postal": null,
   "Latitude": null,
   "Longitude": null
 },
 {
   "Name": null,
   "Address1": null,
   "Address2": null,
   "City": null,
   "State": null,
   "Postal": null,
   "Latitude": null,
   "Longitude": null
 },
 {
   "Name": null,
   "Address1": null,
   "Address2": null,
   "City": null,
   "State": null,
   "Postal": null,
   "Latitude": null,
   "Longitude": null
 },
 {
   "Name": null,
   "Address1": null,
   "Address2": null,
   "City": null,
   "State": null,
   "Postal": null,
   "Latitude": null,
   "Longitude": null
 },
 {
   "Name": null,
   "Address1": null,
   "Address2": null,
   "City": null,
   "State": null,
   "Postal": null,
   "Latitude": null,
   "Longitude": null
 },
 {
   "Name": null,
   "Address1": null,
   "Address2": null,
   "City": null,
   "State": null,
   "Postal": null,
   "Latitude": null,
   "Longitude": null
 },
 {
   "Name": null,
   "Address1": null,
   "Address2": null,
   "City": null,
   "State": null,
   "Postal": null,
   "Latitude": null,
   "Longitude": null
 },
 {
   "Name": null,
   "Address1": null,
   "Address2": null,
   "City": null,
   "State": null,
   "Postal": null,
   "Latitude": null,
   "Longitude": null
 },
 {
   "Name": null,
   "Address1": null,
   "Address2": null,
   "City": null,
   "State": null,
   "Postal": null,
   "Latitude": null,
   "Longitude": null
 },
 {
   "Name": null,
   "Address1": null,
   "Address2": null,
   "City": null,
   "State": null,
   "Postal": null,
   "Latitude": null,
   "Longitude": null
 },
 {
   "Name": null,
   "Address1": null,
   "Address2": null,
   "City": null,
   "State": null,
   "Postal": null,
   "Latitude": null,
   "Longitude": null
 },
 {
   "Name": null,
   "Address1": null,
   "Address2": null,
   "City": null,
   "State": null,
   "Postal": null,
   "Latitude": null,
   "Longitude": null
 },
 {
   "Name": null,
   "Address1": null,
   "Address2": null,
   "City": null,
   "State": null,
   "Postal": null,
   "Latitude": null,
   "Longitude": null
 },
 {
   "Name": null,
   "Address1": null,
   "Address2": null,
   "City": null,
   "State": null,
   "Postal": null,
   "Latitude": null,
   "Longitude": null
 },
 {
   "Name": null,
   "Address1": null,
   "Address2": null,
   "City": null,
   "State": null,
   "Postal": null,
   "Latitude": null,
   "Longitude": null
 },
 {
   "Name": null,
   "Address1": null,
   "Address2": null,
   "City": null,
   "State": null,
   "Postal": null,
   "Latitude": null,
   "Longitude": null
 },
 {
   "Name": null,
   "Address1": null,
   "Address2": null,
   "City": null,
   "State": null,
   "Postal": null,
   "Latitude": null,
   "Longitude": null
 },
 {
   "Name": null,
   "Address1": null,
   "Address2": null,
   "City": null,
   "State": null,
   "Postal": null,
   "Latitude": null,
   "Longitude": null
 },
 {
   "Name": null,
   "Address1": null,
   "Address2": null,
   "City": null,
   "State": null,
   "Postal": null,
   "Latitude": null,
   "Longitude": null
 },
 {
   "Name": null,
   "Address1": null,
   "Address2": null,
   "City": null,
   "State": null,
   "Postal": null,
   "Latitude": null,
   "Longitude": null
 },
 {
   "Name": null,
   "Address1": null,
   "Address2": null,
   "City": null,
   "State": null,
   "Postal": null,
   "Latitude": null,
   "Longitude": null
 },
 {
   "Name": null,
   "Address1": null,
   "Address2": null,
   "City": null,
   "State": null,
   "Postal": null,
   "Latitude": null,
   "Longitude": null
 },
 {
   "Name": null,
   "Address1": null,
   "Address2": null,
   "City": null,
   "State": null,
   "Postal": null,
   "Latitude": null,
   "Longitude": null
 },
 {
   "Name": null,
   "Address1": null,
   "Address2": null,
   "City": null,
   "State": null,
   "Postal": null,
   "Latitude": null,
   "Longitude": null
 },
 {
   "Name": null,
   "Address1": null,
   "Address2": null,
   "City": null,
   "State": null,
   "Postal": null,
   "Latitude": null,
   "Longitude": null
 },
 {
   "Name": null,
   "Address1": null,
   "Address2": null,
   "City": null,
   "State": null,
   "Postal": null,
   "Latitude": null,
   "Longitude": null
 },
 {
   "Name": null,
   "Address1": null,
   "Address2": null,
   "City": null,
   "State": null,
   "Postal": null,
   "Latitude": null,
   "Longitude": null
 },
 {
   "Name": null,
   "Address1": null,
   "Address2": null,
   "City": null,
   "State": null,
   "Postal": null,
   "Latitude": null,
   "Longitude": null
 },
 {
   "Name": null,
   "Address1": null,
   "Address2": null,
   "City": null,
   "State": null,
   "Postal": null,
   "Latitude": null,
   "Longitude": null
 },
 {
   "Name": null,
   "Address1": null,
   "Address2": null,
   "City": null,
   "State": null,
   "Postal": null,
   "Latitude": null,
   "Longitude": null
 },
 {
   "Name": null,
   "Address1": null,
   "Address2": null,
   "City": null,
   "State": null,
   "Postal": null,
   "Latitude": null,
   "Longitude": null
 },
 {
   "Name": null,
   "Address1": null,
   "Address2": null,
   "City": null,
   "State": null,
   "Postal": null,
   "Latitude": null,
   "Longitude": null
 },
 {
   "Name": null,
   "Address1": null,
   "Address2": null,
   "City": null,
   "State": null,
   "Postal": null,
   "Latitude": null,
   "Longitude": null
 },
 {
   "Name": null,
   "Address1": null,
   "Address2": null,
   "City": null,
   "State": null,
   "Postal": null,
   "Latitude": null,
   "Longitude": null
 },
 {
   "Name": null,
   "Address1": null,
   "Address2": null,
   "City": null,
   "State": null,
   "Postal": null,
   "Latitude": null,
   "Longitude": null
 },
 {
   "Name": null,
   "Address1": null,
   "Address2": null,
   "City": null,
   "State": null,
   "Postal": null,
   "Latitude": null,
   "Longitude": null
 },
 {
   "Name": null,
   "Address1": null,
   "Address2": null,
   "City": null,
   "State": null,
   "Postal": null,
   "Latitude": null,
   "Longitude": null
 },
 {
   "Name": null,
   "Address1": null,
   "Address2": null,
   "City": null,
   "State": null,
   "Postal": null,
   "Latitude": null,
   "Longitude": null
 },
 {
   "Name": null,
   "Address1": null,
   "Address2": null,
   "City": null,
   "State": null,
   "Postal": null,
   "Latitude": null,
   "Longitude": null
 },
 {
   "Name": null,
   "Address1": null,
   "Address2": null,
   "City": null,
   "State": null,
   "Postal": null,
   "Latitude": null,
   "Longitude": null
 },
 {
   "Name": null,
   "Address1": null,
   "Address2": null,
   "City": null,
   "State": null,
   "Postal": null,
   "Latitude": null,
   "Longitude": null
 },
 {
   "Name": null,
   "Address1": null,
   "Address2": null,
   "City": null,
   "State": null,
   "Postal": null,
   "Latitude": null,
   "Longitude": null
 },
 {
   "Name": null,
   "Address1": null,
   "Address2": null,
   "City": null,
   "State": null,
   "Postal": null,
   "Latitude": null,
   "Longitude": null
 },
 {
   "Name": null,
   "Address1": null,
   "Address2": null,
   "City": null,
   "State": null,
   "Postal": null,
   "Latitude": null,
   "Longitude": null
 },
 {
   "Name": null,
   "Address1": null,
   "Address2": null,
   "City": null,
   "State": null,
   "Postal": null,
   "Latitude": null,
   "Longitude": null
 },
 {
   "Name": null,
   "Address1": null,
   "Address2": null,
   "City": null,
   "State": null,
   "Postal": null,
   "Latitude": null,
   "Longitude": null
 },
 {
   "Name": null,
   "Address1": null,
   "Address2": null,
   "City": null,
   "State": null,
   "Postal": null,
   "Latitude": null,
   "Longitude": null
 },
 {
   "Name": null,
   "Address1": null,
   "Address2": null,
   "City": null,
   "State": null,
   "Postal": null,
   "Latitude": null,
   "Longitude": null
 },
 {
   "Name": null,
   "Address1": null,
   "Address2": null,
   "City": null,
   "State": null,
   "Postal": null,
   "Latitude": null,
   "Longitude": null
 },
 {
   "Name": null,
   "Address1": null,
   "Address2": null,
   "City": null,
   "State": null,
   "Postal": null,
   "Latitude": null,
   "Longitude": null
 },
 {
   "Name": null,
   "Address1": null,
   "Address2": null,
   "City": null,
   "State": null,
   "Postal": null,
   "Latitude": null,
   "Longitude": null
 },
 {
   "Name": null,
   "Address1": null,
   "Address2": null,
   "City": null,
   "State": null,
   "Postal": null,
   "Latitude": null,
   "Longitude": null
 },
 {
   "Name": null,
   "Address1": null,
   "Address2": null,
   "City": null,
   "State": null,
   "Postal": null,
   "Latitude": null,
   "Longitude": null
 },
 {
   "Name": null,
   "Address1": null,
   "Address2": null,
   "City": null,
   "State": null,
   "Postal": null,
   "Latitude": null,
   "Longitude": null
 },
 {
   "Name": null,
   "Address1": null,
   "Address2": null,
   "City": null,
   "State": null,
   "Postal": null,
   "Latitude": null,
   "Longitude": null
 }
]