[
  {
    "Name": "4605 Vitamin World Galleria At Sunset",
    "Address1": "1300 W Sunset Rd ",
    "Address2": "Suite 2433",
    "City": "Henderson",
    "State": "NV",
    "Postal": "89014",
    "Latitude": 36.0617,
    "Longitude": -115.0581
  },
  {
    "Name": "4606 Vitamin World Boulevard Mall",
    "Address1": "3680 S Maryland Parkway",
    "Address2": "Suite 136",
    "City": "Las Vegas",
    "State": "NV",
    "Postal": "89109",
    "Latitude": 36.1317,
    "Longitude": -115.1684
  },
  {
    "Name": "4608 Vitamin World Las Vegas Premium Outlets",
    "Address1": "855 S Grand Central Parkway",
    "Address2": "Suite 1516",
    "City": "Las Vegas",
    "State": "NV",
    "Postal": "89106",
    "Latitude": 36.1817,
    "Longitude": -115.1632
  },
  {
    "Name": "4609 Vitamin World Meadows Mall",
    "Address1": "4300 Meadows Lane",
    "Address2": "Space 154",
    "City": "Las Vegas",
    "State": "NV",
    "Postal": "89107",
    "Latitude": 36.1712,
    "Longitude": -115.2093
  },
  {
    "Name": "4610 Vitamin World Sparks",
    "Address1": "1430 East Greg Street",
    "Address2": "Suite  101",
    "City": "Sparks",
    "State": "NV",
    "Postal": "89431",
    "Latitude": 39.5404,
    "Longitude": -119.7491
  },
  {
    "Name": "4611 Vitamin World Horizon Marketplace",
    "Address1": "10624 S Eastern Avenue ",
    "Address2": "Suite O",
    "City": "Henderson",
    "State": "NV",
    "Postal": "89052",
    "Latitude": 35.9551,
    "Longitude": -115.0567
  },
  {
    "Name": "4701 Vitamin World Outlets At Anthem",
    "Address1": "4250 West Anthem Way",
    "Address2": "Space480",
    "City": "Phoenix",
    "State": "AZ",
    "Postal": "85086",
    "Latitude": 33.8161,
    "Longitude": -112.12
  },
  {
    "Name": "4702 Vitamin World Palm Valley Pavilions West",
    "Address1": "1400 North Litchfield Rd",
    "Address2": "Suite G8B",
    "City": "Goodyear",
    "State": "AZ",
    "Postal": "85395",
    "Latitude": 33.4787,
    "Longitude": -112.3952
  },
  {
    "Name": "4703 Vitamin World Foothills Mall",
    "Address1": "7401 North La Cholla Blvd ",
    "Address2": "Suite 163",
    "City": "Tucson",
    "State": "AZ",
    "Postal": "85741",
    "Latitude": 32.3352,
    "Longitude": -111.0418
  },
  {
    "Name": "4704 Vitamin World Arizona Mills",
    "Address1": "5000 Arizona Mills Circle",
    "Address2": "Suite 681",
    "City": "Tempe",
    "State": "AZ",
    "Postal": "85282",
    "Latitude": 33.394,
    "Longitude": -111.9329
  },
  {
    "Name": "4705 Vitamin World The Factory Stores Of America",
    "Address1": "2055 S Roslyn Place",
    "Address2": "Suite 132",
    "City": "Mesa",
    "State": "AZ",
    "Postal": "85208",
    "Latitude": 33.4033,
    "Longitude": -111.6281
  },
  {
    "Name": "4706 Vitamin World Oak Creek Factory Outlet",
    "Address1": "6601 So Hwy 179 ",
    "Address2": "Suite A-4",
    "City": "Sedona",
    "State": "AZ",
    "Postal": "86351",
    "Latitude": 34.7784,
    "Longitude": -111.7851
  },
  {
    "Name": "4709 Vitamin World Arrowhead Towne Center",
    "Address1": "7700 W Arrowhead Towne Cntr",
    "Address2": "Space1262",
    "City": "Glendale",
    "State": "AZ",
    "Postal": "85308",
    "Latitude": 33.6604,
    "Longitude": -112.185
  },
  {
    "Name": "4710 Vitamin World Park Place Mall",
    "Address1": "5870 East Broadway Blvd",
    "Address2": "Space 354",
    "City": "Tucson",
    "State": "AZ",
    "Postal": "85711",
    "Latitude": 32.2152,
    "Longitude": -110.8834
  },
  {
    "Name": "4711 Vitamin World Yuma Palms Regional Center",
    "Address1": "1309 S Yuma Palms Parkway",
    "Address2": "Suite  E-5 ",
    "City": "Yuma",
    "State": "AZ",
    "Postal": "85365",
    "Latitude": 33.0964,
    "Longitude": -114.1253
  },
  {
    "Name": "4712 Vitamin World Tucson Mall ",
    "Address1": "4500 N Oracle Road ",
    "Address2": "Space 457",
    "City": "Tucson",
    "State": "AZ",
    "Postal": "85705",
    "Latitude": 32.2712,
    "Longitude": -110.9937
  },
  {
    "Name": "4713 Vitamin World Tanger Outlets Westgate",
    "Address1": "6800 N 95th Avenue ",
    "Address2": "Suite 852",
    "City": "Glendale",
    "State": "AZ",
    "Postal": "85305",
    "Latitude": 33.5317,
    "Longitude": -112.2561
  },
  {
    "Name": "4801 Vitamin World The Outlets At Loveland",
    "Address1": "5608 McWhinney Blvd ",
    "Address2": "Suite 30",
    "City": "Loveland",
    "State": "CO",
    "Postal": "80538",
    "Latitude": 40.4575,
    "Longitude": -105.0508
  },
  {
    "Name": "4803 Vitamin World The Outlets At Castle Rock",
    "Address1": "5050 Factory Shops Blvd",
    "Address2": "Suite 915",
    "City": "Castle Rock",
    "State": "CO",
    "Postal": "80108",
    "Latitude": 39.4455,
    "Longitude": -104.853
  },
  {
    "Name": "4808 Vitamin World Colorado Mills",
    "Address1": "14500 W Colfax Ave",
    "Address2": "Suite 534",
    "City": "Lakewood",
    "State": "CO",
    "Postal": "80401",
    "Latitude": 39.7187,
    "Longitude": -105.236
  },
  {
    "Name": "4809 Vitamin World The Citadel",
    "Address1": "750 Citadel Drive East",
    "Address2": "Suite 2274A",
    "City": "Colorado Springs",
    "State": "CO",
    "Postal": "80909",
    "Latitude": 38.8534,
    "Longitude": -104.7752
  },
  {
    "Name": "4902 Vitamin World Lancaster Market Place",
    "Address1": "44950 Valley Central Way",
    "Address2": " 113",
    "City": "Lancaster",
    "State": "CA",
    "Postal": "93536",
    "Latitude": 34.7474,
    "Longitude": -118.3692
  },
  {
    "Name": "4903 Vitamin World Gilroy Premium Outlets",
    "Address1": "681 Leavesley Road ",
    "Address2": "Suite B-180",
    "City": "Gilroy",
    "State": "CA",
    "Postal": "95020",
    "Latitude": 37.0184,
    "Longitude": -121.5542
  },
  {
    "Name": "4904 Vitamin World Citadel Outlets",
    "Address1": "5675 E Telegraph Rd",
    "Address2": "Suite 103",
    "City": "City of Com",
    "State": "CA",
    "Postal": "90040",
    "Latitude": 33.9945,
    "Longitude": -118.15
  },
  {
    "Name": "4906 Vitamin World Petaluma Village Premium Outlets",
    "Address1": "2200 Petaluma Blvd North ",
    "Address2": "315",
    "City": "Petaluma",
    "State": "CA",
    "Postal": "94952",
    "Latitude": 38.2346,
    "Longitude": -122.7604
  },
  {
    "Name": "4907 Vitamin World Lake Elsinore Outlets",
    "Address1": "17600 Collier Ave",
    "Address2": "Space H-173",
    "City": "Lake Elsinore",
    "State": "CA",
    "Postal": "92530",
    "Latitude": 33.6495,
    "Longitude": -117.3768
  },
  {
    "Name": "4908 Vitamin World Ontario Mills",
    "Address1": "1 Mills Circle ",
    "Address2": "Suite 309",
    "City": "Ontario",
    "State": "CA",
    "Postal": "91764",
    "Latitude": 34.0741,
    "Longitude": -117.6056
  },
  {
    "Name": "4909 Vitamin World Camarillo Premium Outlets",
    "Address1": "950 Camarillo Center Dr",
    "Address2": "Suite 960",
    "City": "Camarillo",
    "State": "CA",
    "Postal": "93010",
    "Latitude": 34.2279,
    "Longitude": -119.0796
  },
  {
    "Name": "4911 Vitamin World Tulare Outlet Center",
    "Address1": "1661 Retherford Street",
    "Address2": "Suite A50",
    "City": "Tulare",
    "State": "CA",
    "Postal": "93274",
    "Latitude": 36.1781,
    "Longitude": -119.3708
  },
  {
    "Name": "4912 Vitamin World Folsom Premium Outlets",
    "Address1": "13000 Folsom Blvd",
    "Address2": "Suite  901",
    "City": "Folsom",
    "State": "CA",
    "Postal": "95630",
    "Latitude": 38.6666,
    "Longitude": -121.1416
  },
  {
    "Name": "4914 Vitamin World Carlsbad Premium Outlets",
    "Address1": "5630 Paseo Del Norte",
    "Address2": "Space 139",
    "City": "Carlsbad",
    "State": "CA",
    "Postal": "92008",
    "Latitude": 33.1473,
    "Longitude": -117.3222
  },
  {
    "Name": "4915 Vitamin World Westfield North County",
    "Address1": "200 East Via Rancho Pkwy",
    "Address2": "Suite 291",
    "City": "Escondido",
    "State": "CA",
    "Postal": "92025",
    "Latitude": 33.1019,
    "Longitude": -117.0804
  },
  {
    "Name": "4916 Vitamin World South Bay Galleria",
    "Address1": "1815 Hawthorne Blvd ",
    "Address2": "Suite 363",
    "City": "Redondo Beach",
    "State": "CA",
    "Postal": "90278",
    "Latitude": 33.8732,
    "Longitude": -118.3704
  },
  {
    "Name": "4918 Vitamin World Westfield Palm Desert",
    "Address1": "72-840 Highway 111",
    "Address2": "Space405",
    "City": "Palm Desert",
    "State": "CA",
    "Postal": "92260",
    "Latitude": 33.8156473,
    "Longitude": -116.5312615
  },
  {
    "Name": "4919 Vitamin World Westfield Culver City",
    "Address1": "6000 Sepulveda Blvd",
    "Address2": "Suite 3450",
    "City": "Culver City",
    "State": "CA",
    "Postal": "90230",
    "Latitude": 33.9979,
    "Longitude": -118.3936
  },
  {
    "Name": "4928 Vitamin World Westfield Santa Anita",
    "Address1": "400 South Baldwin Ave",
    "Address2": "Suite 450L",
    "City": "Arcadia",
    "State": "CA",
    "Postal": "91007",
    "Latitude": 34.1283,
    "Longitude": -118.0477
  },
  {
    "Name": "4929 Vitamin World Westfield Solano",
    "Address1": "1350 Travis Boulevard",
    "Address2": "Suite R-13",
    "City": "Fairfield",
    "State": "CA",
    "Postal": "94533",
    "Latitude": 38.2807,
    "Longitude": -122.0064
  },
  {
    "Name": "4930 Vitamin World Antelope Valley Mall",
    "Address1": "1233 West Avenue P",
    "Address2": "Suite 765",
    "City": "Palmdale",
    "State": "CA",
    "Postal": "93551",
    "Latitude": 34.6041,
    "Longitude": -118.2392
  },
  {
    "Name": "4937 Vitamin World Burbank Town Center",
    "Address1": "201 E Magnolia Blvd",
    "Address2": "Space 389",
    "City": "Burbank",
    "State": "CA",
    "Postal": "91502",
    "Latitude": 34.1768,
    "Longitude": -118.3093
  },
  {
    "Name": "4938 Vitamin World Sierra Vista Mall",
    "Address1": "1050 Shaw Avenue",
    "Address2": "Suite 1037",
    "City": "Clovis",
    "State": "CA",
    "Postal": "93612",
    "Latitude": 36.8149,
    "Longitude": -119.7106
  },
  {
    "Name": "4939 Vitamin World Hanford Mall",
    "Address1": "1675 W Lacey Boulevard",
    "Address2": "Suite F7",
    "City": "Hanford",
    "State": "CA",
    "Postal": "93230",
    "Latitude": 36.2922,
    "Longitude": -119.6227
  },
  {
    "Name": "4942 Vitamin World Puente Hills Mall",
    "Address1": "1600 Azusa Avenue",
    "Address2": "Space 245",
    "City": "City of Industry",
    "State": "CA",
    "Postal": "91748",
    "Latitude": 33.9749,
    "Longitude": -117.9007
  },
  {
    "Name": "4944 Vitamin World Chula Vista Center",
    "Address1": "555 Broadway",
    "Address2": "Suite 10006",
    "City": "Chula Vista",
    "State": "CA",
    "Postal": "91910",
    "Latitude": 32.6379,
    "Longitude": -117.058
  },
  {
    "Name": "4945 Vitamin World Eagle Rock Plaza",
    "Address1": "2700 Colorado Boulevard",
    "Address2": "Suite 242",
    "City": "Los Angeles",
    "State": "CA",
    "Postal": "90041",
    "Latitude": 34.1374,
    "Longitude": -118.2076
  },
  {
    "Name": "4947 Vitamin World Northridge Fashion Center",
    "Address1": "9301 Tampa Avenue",
    "Address2": "Suite 201",
    "City": "Northridge",
    "State": "CA",
    "Postal": "91324",
    "Latitude": 34.2382,
    "Longitude": -118.5503
  },
  {
    "Name": "4948 Vitamin World The Mall Of Victor Valley",
    "Address1": "14400 Bear Valley Road",
    "Address2": "Suite 229",
    "City": "Victorville",
    "State": "CA",
    "Postal": "92392",
    "Latitude": 34.4802,
    "Longitude": -117.4082
  },
  {
    "Name": "4954 Vitamin World Pismo Beach Premium Outlets",
    "Address1": "333 Five Cities Drive",
    "Address2": "Suite 137",
    "City": "Pismo Beach",
    "State": "CA",
    "Postal": "93449",
    "Latitude": 35.1657,
    "Longitude": -120.6558
  },
  {
    "Name": "4963 Vitamin World Las Americas Premium Outlets",
    "Address1": "4201 Camino De La Plaza",
    "Address2": "Space G105",
    "City": "San Ysidro",
    "State": "CA",
    "Postal": "92173",
    "Latitude": 32.553,
    "Longitude": -117.0425
  },
  {
    "Name": "4966 Vitamin World Country Club Plaza",
    "Address1": "2380 Watt Avenue",
    "Address2": "Suite 325",
    "City": "Sacramento",
    "State": "CA",
    "Postal": "95825",
    "Latitude": 38.5919,
    "Longitude": -121.4085
  },
  {
    "Name": "4971 Vitamin World Stonewood Center Mall",
    "Address1": "181 Stonewood Street",
    "Address2": "Space A27",
    "City": "Downey",
    "State": "CA",
    "Postal": "90241",
    "Latitude": 33.9403,
    "Longitude": -118.129
  },
  {
    "Name": "4978 Vitamin World Southbay Pavillion",
    "Address1": "20700 S Avalon Blvd",
    "Address2": "Space C10",
    "City": "Carson",
    "State": "CA",
    "Postal": "90746",
    "Latitude": 33.8592,
    "Longitude": -118.2523
  },
  {
    "Name": "5001 Vitamin World Belz Factory Outlet World",
    "Address1": "2655 Teaster Lane",
    "Address2": "Suite A-4",
    "City": "Pigeon Forge",
    "State": "TN",
    "Postal": "37863",
    "Latitude": 35.786,
    "Longitude": -83.5622
  },
  {
    "Name": "5003 Vitamin World Lakeland Station Outlets",
    "Address1": "3570 Canada Road",
    "Address2": "Suite 108",
    "City": "Lakeland",
    "State": "TN",
    "Postal": "38002",
    "Latitude": 35.2864,
    "Longitude": -89.7003
  },
  {
    "Name": "5004 Vitamin World Crossville Outlet Exchange",
    "Address1": "228 Interstate Drive ",
    "Address2": "Suite 125",
    "City": "Crossville",
    "State": "TN",
    "Postal": "38555",
    "Latitude": 35.8879,
    "Longitude": -84.989
  },
  {
    "Name": "5009 Vitamin World West Town Mall",
    "Address1": "7600 Kingston Pike",
    "Address2": "Space 1489",
    "City": "Knoxville",
    "State": "TN",
    "Postal": "37919",
    "Latitude": 35.9147,
    "Longitude": -84.0002
  },
  {
    "Name": "5012 Vitamin World Rivergate Mall",
    "Address1": "1000 Rivergate Parkway",
    "Address2": "Suite 1960",
    "City": "Goodlettsville",
    "State": "TN",
    "Postal": "37072",
    "Latitude": 36.3521,
    "Longitude": -86.7467
  },
  {
    "Name": "5013 Vitamin World Governors Square Mall",
    "Address1": "2801 Wilma Rudolph Blvd",
    "Address2": "Suite 410",
    "City": "Clarksville",
    "State": "TN",
    "Postal": "37040",
    "Latitude": 36.5225,
    "Longitude": -87.3349
  },
  {
    "Name": "5021 Vitamin World Lebanon Premium Outlets",
    "Address1": "1 Outlet Village Blvd ",
    "Address2": "Suite 260",
    "City": "Lebanon",
    "State": "TN",
    "Postal": "37090",
    "Latitude": 36.1117,
    "Longitude": -86.2992
  },
  {
    "Name": "5101 Vitamin World Tutu Park Mall",
    "Address1": "4605 Tu Tu Park Mall",
    "Address2": "Suite 187C",
    "City": "St Thomas",
    "State": "VI",
    "Postal": "802",
    "Latitude": 18.3409,
    "Longitude": -64.9235
  },
  {
    "Name": "8201 Vitamin World Promenade At Red Cliff",
    "Address1": "245 North Red Cliff Drive ",
    "Address2": " Suite 13",
    "City": "St George",
    "State": "UT",
    "Postal": "84790",
    "Latitude": 37.0441,
    "Longitude": -113.5773
  },
  {
    "Name": "8302 Vitamin World Plaza Escorial-San Anton Ward",
    "Address1": "65 Infanteria Kilometro 601",
    "Address2": "Space A107",
    "City": "Carolina",
    "State": "PR",
    "Postal": "00987-5001",
    "Latitude": 18.3382,
    "Longitude": -65.9411
  },
  {
    "Name": "8303 Vitamin World Plaza Centro Mall",
    "Address1": "Carr30 Esq Rafael Cordero",
    "Address2": "Plot 104",
    "City": "Caguas",
    "State": "PR",
    "Postal": "725",
    "Latitude": 18.2188,
    "Longitude": -66.0424
  },
  {
    "Name": "8304 Vitamin World Plaza Carolina",
    "Address1": "Fragoso Ave/Loriza Expswy/Villa Fontana",
    "Address2": "Space 117",
    "City": "Carolina",
    "State": "PR",
    "Postal": "983",
    "Latitude": 18.4178,
    "Longitude": -65.9758
  },
  {
    "Name": "8306 Vitamin World Plaza Las Americas",
    "Address1": "Rosevelt Ave 525-1st Fl",
    "Address2": "Space468",
    "City": "San Juan",
    "State": "PR",
    "Postal": "918",
    "Latitude": 18.421,
    "Longitude": -66.0658
  },
  {
    "Name": "8307 Vitamin World Mayaguez Mall",
    "Address1": "975 Hostos Avenue",
    "Address2": "Suite 205",
    "City": "Mayaguez",
    "State": "PR",
    "Postal": "680",
    "Latitude": 18.182,
    "Longitude": -67.1324
  },
  {
    "Name": "8309 Vitamin World Plaza Rio Hondo",
    "Address1": "Comerio Ave/Intersection of DeDiego Expwy",
    "Address2": "Space24",
    "City": "Bayamon",
    "State": "PR",
    "Postal": "961",
    "Latitude": 18.4133,
    "Longitude": -66.1645
  },
  {
    "Name": "8310 Vitamin World Las Catalinas Mall",
    "Address1": "SP 570 Road 156 / State Rd 52 ",
    "Address2": "Space 570",
    "City": "Caquas",
    "State": "PR",
    "Postal": "00725-5205",
    "Latitude": 18.2188,
    "Longitude": -66.0424
  },
  {
    "Name": "8311 Vitamin World Plaza Del Caribe ",
    "Address1": "2050 Ponce BYP",
    "Address2": "Space 166",
    "City": "Ponce",
    "State": "PR",
    "Postal": "717",
    "Latitude": 18.0032,
    "Longitude": -66.614
  },
  {
    "Name": "8313 Vitamin World Plaza Isabella",
    "Address1": "State Road 2 Inter 4494",
    "Address2": "Space 610",
    "City": "Isabela",
    "State": "PR",
    "Postal": "662",
    "Latitude": 18.4683,
    "Longitude": -67.0158
  },
  {
    "Name": "8314 Vitamin World Puerto Rico Premium Outlets",
    "Address1": "1 Premium Outlets Blvd",
    "Address2": "Space 610",
    "City": "Barceloneta",
    "State": "PR",
    "Postal": "617",
    "Latitude": 18.4451,
    "Longitude": -66.5597
  },
  {
    "Name": "8401 Vitamin World Ozark Center Point Place",
    "Address1": "5320 West Sunset ",
    "Address2": "Suite 185",
    "City": "Springdale",
    "State": "AR",
    "Postal": "72762",
    "Latitude": 36.1817,
    "Longitude": -94.2307
  },
  {
    "Name": "8403 Vitamin World Central Mall",
    "Address1": "5111 Rogers Ave",
    "Address2": null,
    "City": "Fort Smith",
    "State": "AR",
    "Postal": "72903",
    "Latitude": 35.351,
    "Longitude": -94.3612
  },
  {
    "Name": "8501 Vitamin World Gulfport Premium Outlets",
    "Address1": "10725 Factory Shops Blvd",
    "Address2": "Suite725",
    "City": "Gulfport",
    "State": "MS",
    "Postal": "39503",
    "Latitude": 30.4746,
    "Longitude": -89.1529
  },
  {
    "Name": "8502 Vitamin World Factory Stores At Batesville",
    "Address1": "325 Lakewood Drive",
    "Address2": " Ste 25",
    "City": "Batesville",
    "State": "MS",
    "Postal": "38606",
    "Latitude": 34.3033,
    "Longitude": -89.9522
  },
  {
    "Name": "8504 Vitamin World Outlets At Vicksburg ",
    "Address1": "4000 South Frontage Rd",
    "Address2": "Suite102",
    "City": "Vicksburg",
    "State": "MS",
    "Postal": "39180",
    "Latitude": 32.2239,
    "Longitude": -90.8571
  },
  {
    "Name": "8507 Vitamin World Northpark Mall",
    "Address1": "1200 East County Line Road",
    "Address2": "Suite 215",
    "City": "Ridgeland",
    "State": "MS",
    "Postal": "39157",
    "Latitude": 32.4259,
    "Longitude": -90.1699
  },
  {
    "Name": "8601 Vitamin World Tanger Outlet Center",
    "Address1": "120 Laconia Rd ",
    "Address2": "Suite 244B",
    "City": "Tilton",
    "State": "NH",
    "Postal": "3276",
    "Latitude": 43.431,
    "Longitude": -71.5759
  },
  {
    "Name": "8602 Vitamin World The Mall At Rockingham Park",
    "Address1": "99 Rockingham Park Blvd ",
    "Address2": "Suite 101",
    "City": "Salem",
    "State": "NH",
    "Postal": "3079",
    "Latitude": 42.7883,
    "Longitude": -71.2217
  },
  {
    "Name": "8603 Vitamin World Pheasant Lane Mall",
    "Address1": "310 Daniel Webster Hwy",
    "Address2": "POB 117",
    "City": "Nashua",
    "State": "NH",
    "Postal": "3060",
    "Latitude": 42.7411,
    "Longitude": -71.4582
  },
  {
    "Name": "8701 Vitamin World Guam Premier Outlets",
    "Address1": "199 Chalan San Antonio Road",
    "Address2": "Suite104D",
    "City": "Tamuning",
    "State": "GU",
    "Postal": "96913",
    "Latitude": 13.4778,
    "Longitude": 144.8145
  },
  {
    "Name": "8702 Vitamin World Micronesia Mall",
    "Address1": "1088 West Marine Corps Drive",
    "Address2": "Suite 103",
    "City": "Dededo",
    "State": "GU",
    "Postal": "96929",
    "Latitude": 13.5651,
    "Longitude": 144.8762
  },
  {
    "Name": "8703 Vitamin World Agana Shopping Center",
    "Address1": "302 South Route 4 ",
    "Address2": "Suite 113",
    "City": "Hagatna",
    "State": "GU",
    "Postal": "96910",
    "Latitude": 13.4506,
    "Longitude": 144.7507
  },
  {
    "Name": "8801 Vitamin World Essex Shoppes And Cinema",
    "Address1": "21 Essex Way ",
    "Address2": "Suite 209",
    "City": "Essex",
    "State": "VT",
    "Postal": "5452",
    "Latitude": 44.5386,
    "Longitude": -73.0502
  },
  {
    "Name": "8803 Vitamin World Diamond Run Mall",
    "Address1": "Route 7 South",
    "Address2": "Space 560",
    "City": "Rutland",
    "State": "VT",
    "Postal": "5701",
    "Latitude": 43.6246,
    "Longitude": -72.9102
  },
  {
    "Name": "8901 Vitamin World Tanger Outlet Center",
    "Address1": "36454 Seaside Outlet Drive",
    "Address2": "Suite 1780",
    "City": "Rehoboth Beach",
    "State": "DE",
    "Postal": "19971",
    "Latitude": 38.686,
    "Longitude": -75.0866
  },
  {
    "Name": "9104 Vitamin World River Hills Mall",
    "Address1": "1850 Adams Street ",
    "Address2": " Space 220",
    "City": "Mankato",
    "State": "MN",
    "Postal": "56001",
    "Latitude": 44.1281,
    "Longitude": -93.979
  },
  {
    "Name": "9107 Vitamin World Albertville Premium Outlets",
    "Address1": "6415 Labeaux Avenue NE",
    "Address2": "Suite B130",
    "City": "Albertville",
    "State": "MN",
    "Postal": "55301",
    "Latitude": 45.2486,
    "Longitude": -93.6598
  },
  {
    "Name": "9109 Vitamin World Maplewood Mall",
    "Address1": "3001 White Bear Avenue N",
    "Address2": "Suite 2084",
    "City": "St Paul",
    "State": "MN",
    "Postal": "55109",
    "Latitude": 45.0146,
    "Longitude": -93.0254
  },
  {
    "Name": "9201 Vitamin World Cottonwood Mall",
    "Address1": "10000 Coors Bypass NW",
    "Address2": null,
    "City": "Albuquerque",
    "State": "NM",
    "Postal": "87114",
    "Latitude": 35.1936,
    "Longitude": -106.6857
  },
  {
    "Name": "9204 Vitamin World Mesilla Valley Mall",
    "Address1": "700 S Telshor Boulevard",
    "Address2": "Space 1448",
    "City": "Las Cruces",
    "State": "NM",
    "Postal": "88011",
    "Latitude": 32.3224,
    "Longitude": -106.6563
  },
  {
    "Name": "9402 Vitamin World Mall St Matthews",
    "Address1": "5000 Shelbyville Road",
    "Address2": "Suite 1825",
    "City": "Louisville",
    "State": "KY",
    "Postal": "40207",
    "Latitude": 38.2665,
    "Longitude": -85.6567
  },
  {
    "Name": "9403 Vitamin World Kentucky Oaks Mall",
    "Address1": "5101 Hinkleville Road",
    "Address2": "Suite 665",
    "City": "Paducah",
    "State": "KY",
    "Postal": "42001",
    "Latitude": 37.0306,
    "Longitude": -88.7094
  },
  {
    "Name": "9504 Vitamin World Northpark Mall",
    "Address1": "320 West Kimberly Road",
    "Address2": "Space 201",
    "City": "Davenport",
    "State": "IA",
    "Postal": "52806",
    "Latitude": 41.5897,
    "Longitude": -90.6259
  },
  {
    "Name": "9603 Vitamin World Alexandria Mall",
    "Address1": "3437 Masonic Drive",
    "Address2": "Suite 1490",
    "City": "Alexandria",
    "State": "LA",
    "Postal": "71301",
    "Latitude": 31.2742,
    "Longitude": -92.4671
  },
  {
    "Name": "4607 Vitamin World Meadowood Mall",
    "Address1": "5493 Meadowood Mall Circle",
    "Address2": null,
    "City": "Reno",
    "State": "NV",
    "Postal": "89502",
    "Latitude": 39.4913,
    "Longitude": -119.7438
  },
  {
    "Name": "4901 Vitamin World Great Mall",
    "Address1": "116 Great Mall Drive",
    "Address2": null,
    "City": "Milpitas",
    "State": "CA",
    "Postal": "95035",
    "Latitude": 37.4443,
    "Longitude": -121.8689
  },
  {
    "Name": "4920 Vitamin World Southland Mall",
    "Address1": "297 Southland Mall",
    "Address2": null,
    "City": "Hayward",
    "State": "CA",
    "Postal": "94545",
    "Latitude": 37.6059,
    "Longitude": -122.1269
  },
  {
    "Name": "4925 Vitamin World Los Cerritos Center",
    "Address1": "170 Los Cerritos Center",
    "Address2": null,
    "City": "Cerritos",
    "State": "CA",
    "Postal": "90703",
    "Latitude": 33.8677,
    "Longitude": -118.0695
  },
  {
    "Name": "4931 Vitamin World Merced Mall",
    "Address1": "285 Merced Mall",
    "Address2": null,
    "City": "Merced",
    "State": "CA",
    "Postal": "95348",
    "Latitude": 37.3923,
    "Longitude": -120.4983
  },
  {
    "Name": "4941 Vitamin World Westfield Parkway",
    "Address1": "635 Parkway Plaza",
    "Address2": null,
    "City": "El Cajon",
    "State": "CA",
    "Postal": "92020",
    "Latitude": 32.7954,
    "Longitude": -116.9697
  },
  {
    "Name": "4943 Vitamin World Newpark Mall",
    "Address1": "2067 New Park Mall",
    "Address2": null,
    "City": "Newark",
    "State": "CA",
    "Postal": "94560",
    "Latitude": 37.5045,
    "Longitude": -122.0329
  },
  {
    "Name": "4946 Vitamin World Del Amo Fashion Center",
    "Address1": "208B Del Amo Fashion Center",
    "Address2": null,
    "City": "Torrance",
    "State": "CA",
    "Postal": "90503",
    "Latitude": 33.8404,
    "Longitude": -118.3537
  },
  {
    "Name": "4960 Vitamin World Montclair Plaza",
    "Address1": "5108 Montclair Plaza Lane",
    "Address2": null,
    "City": "Montclair",
    "State": "CA",
    "Postal": "91763",
    "Latitude": 34.0723,
    "Longitude": -117.6983
  },
  {
    "Name": "4968 Vitamin World Victoria Gardens Mall",
    "Address1": "12379 South Main Street",
    "Address2": null,
    "City": "Rancho Cucamonga",
    "State": "CA",
    "Postal": "91739",
    "Latitude": 34.1728,
    "Longitude": -117.5212
  },
  {
    "Name": "4973 Vitamin World Simi Valley Town Center",
    "Address1": "655 Simi Town Center Way",
    "Address2": null,
    "City": "Simi Valley",
    "State": "CA",
    "Postal": "93063",
    "Latitude": 34.3087,
    "Longitude": -118.6872
  },
  {
    "Name": "4975 Vitamin World Brea Mall",
    "Address1": "2170 Brea Mall ",
    "Address2": null,
    "City": "Brea",
    "State": "CA",
    "Postal": "92821",
    "Latitude": 33.9276,
    "Longitude": -117.8871
  },
  {
    "Name": "4979 Vitamin World The Shops At Mission Viejo",
    "Address1": "280 The Shops at Mission Viejo",
    "Address2": null,
    "City": "Mission Viejo",
    "State": "CA",
    "Postal": "92691",
    "Latitude": 33.6119,
    "Longitude": -117.6659
  },
  {
    "Name": "5010 Vitamin World Foothills Mall",
    "Address1": "165 Foothills Mall",
    "Address2": null,
    "City": "Maryville",
    "State": "TN",
    "Postal": "37801",
    "Latitude": 35.6639,
    "Longitude": -84.0946
  },
  {
    "Name": "5018 Vitamin World Northgate Mall",
    "Address1": "254 Northgate Mall",
    "Address2": null,
    "City": "Chattanooga",
    "State": "TN",
    "Postal": "37415",
    "Latitude": 35.1247,
    "Longitude": -85.2812
  },
  {
    "Name": "7201 Vitamin World Rushmore Mall",
    "Address1": "2200 N Maple Avenue",
    "Address2": null,
    "City": "Rapid City",
    "State": "SD",
    "Postal": "57701",
    "Latitude": 44.146,
    "Longitude": -103.2067
  },
  {
    "Name": "8203 Vitamin World Trolley Sq Mall ",
    "Address1": "490 Trolley Square",
    "Address2": null,
    "City": "Salt Lake City",
    "State": "UT",
    "Postal": "84102",
    "Latitude": 40.7602,
    "Longitude": -111.8644
  },
  {
    "Name": "8308 Vitamin World Plaza Cayey",
    "Address1": "8000 Jesus T Pinero Avenue",
    "Address2": null,
    "City": "Cayey",
    "State": "PR",
    "Postal": "736",
    "Latitude": 18.1036,
    "Longitude": -66.1517
  },
  {
    "Name": "8604 Vitamin World Mall Of New Hampshire",
    "Address1": "1500 S Willow Street",
    "Address2": null,
    "City": "Manchester",
    "State": "NH",
    "Postal": "3103",
    "Latitude": 42.9505,
    "Longitude": -71.4465
  },
  {
    "Name": "8704 Vitamin World Aafes-Guam Exchange Andersen Afb",
    "Address1": "Bldg 2680 Arc Light Mem Park",
    "Address2": null,
    "City": "Yigo",
    "State": "GU",
    "Postal": "96929",
    "Latitude": 13.5651,
    "Longitude": 144.8762
  },
  {
    "Name": "9106 Vitamin World Burnsville Center",
    "Address1": "2056 Burnsville Center",
    "Address2": null,
    "City": "Burnsville",
    "State": "MN",
    "Postal": "55306",
    "Latitude": 44.7309,
    "Longitude": -93.2914
  },
  {
    "Name": "9302 Vitamin World Tulsa Promenade Mall",
    "Address1": "4107 South Yale Avenue",
    "Address2": null,
    "City": "Tulsa",
    "State": "OK",
    "Postal": "74135",
    "Latitude": 36.0962,
    "Longitude": -95.924
  },
  {
    "Name": "9502 Vitamin World Westdale Mall",
    "Address1": "210 Westdale Mall",
    "Address2": null,
    "City": "Cedar Rapids",
    "State": "IA",
    "Postal": "52404",
    "Latitude": 41.9231,
    "Longitude": -91.6989
  },
  {
    "Name": "9801 Vitamin World Boise Factory Outlets",
    "Address1": "6846 South Eisenman",
    "Address2": null,
    "City": "Boise",
    "State": "ID",
    "Postal": "83716",
    "Latitude": 43.5461,
    "Longitude": -115.9445
  },
  {
    "Name": "4922 Vitamin World Vacaville Premium Outlets",
    "Address1": "264 Nut Tree Road",
    "Address2": null,
    "City": "Vacaville",
    "State": "CA",
    "Postal": "95687",
    "Latitude": 38.3331,
    "Longitude": -121.9202
  },
  {
    "Name": "4933 Vitamin World Westfield West Covina",
    "Address1": "706 Plaza Dr",
    "Address2": null,
    "City": "West Covina",
    "State": "CA",
    "Postal": "91790",
    "Latitude": 34.067,
    "Longitude": -117.937
  },
  {
    "Name": "4974 Vitamin World Park West Place",
    "Address1": "10734-B Trinity Parkway",
    "Address2": null,
    "City": "Stockton",
    "State": "CA",
    "Postal": "95219",
    "Latitude": 37.7805763,
    "Longitude": -121.5406498
  },
  {
    "Name": "8206 Vitamin World The Outlets At Draper Towne",
    "Address1": "12101 South State Street",
    "Address2": null,
    "City": "Draper",
    "State": "UT",
    "Postal": "84020",
    "Latitude": 40.5002,
    "Longitude": -111.8696
  },
  {
    "Name": "9303 Vitamin World Sooner Mall",
    "Address1": "3237 West Main Street",
    "Address2": null,
    "City": "Norman",
    "State": "OK",
    "Postal": "73072",
    "Latitude": 35.2114,
    "Longitude": -97.5009
  },
  {
    "Name": "4976 Vitamin World Westminster Mall",
    "Address1": "2068 Westminster Mall",
    "Address2": null,
    "City": "Westminster",
    "State": "CA",
    "Postal": "92683",
    "Latitude": 33.7525,
    "Longitude": -117.9939
  }
]
